{
  "fetched_at": "2026-04-20T16:03:34.190566+00:00",
  "refresh_after": "2026-05-03T09:20:53.190566+00:00",
  "source_signature": "c39019e7c8e08f4f9d14b783ede145d353daf037b707b120947f53e735eeff13",
  "configured_source_type": "google_list_url",
  "configured_source_url": "https://maps.app.goo.gl/qowYWHRMDjEafSJR8",
  "configured_source_path": null,
  "source_url": "https://maps.app.goo.gl/qowYWHRMDjEafSJR8",
  "list_id": "RCxidpiyTMOGF8oENLgJRg",
  "title": "Dijon, France 🇫🇷",
  "description": null,
  "places": [
    {
      "name": "The Owl of Dijon",
      "address": "11 Rue de la Chouette, 21000 Dijon, France",
      "note": null,
      "is_favorite": false,
      "lat": 47.3227979,
      "lng": 5.0415665999999995,
      "maps_url": "https://www.google.com/maps/search/?api=1&query=The+Owl+of+Dijon%2C+11+Rue+de+la+Chouette%2C+21000+Dijon%2C+France",
      "cid": "5184379744459953863",
      "google_id": "/g/11bttj343n",
      "maps_place_token": null
    },
    {
      "name": "Le Petit Roi de la Lune",
      "address": "28 Rue Amiral Roussin, 21000 Dijon, France",
      "note": null,
      "is_favorite": false,
      "lat": 47.3199687,
      "lng": 5.039987099999999,
      "maps_url": "https://www.google.com/maps/search/?api=1&query=Le+Petit+Roi+de+la+Lune%2C+28+Rue+Amiral+Roussin%2C+21000+Dijon%2C+France",
      "cid": "5184379748471927671",
      "google_id": "/g/1tywx8z0",
      "maps_place_token": null
    },
    {
      "name": "Aux Délices de la Chouette",
      "address": "26 Rue de la Chouette, 21000 Dijon, France",
      "note": null,
      "is_favorite": false,
      "lat": 47.322901699999996,
      "lng": 5.0411907,
      "maps_url": "https://www.google.com/maps/search/?api=1&query=Aux+D%C3%A9lices+de+la+Chouette%2C+26+Rue+de+la+Chouette%2C+21000+Dijon%2C+France",
      "cid": "5184379745764286917",
      "google_id": "/g/1tmpv9q6",
      "maps_place_token": null
    },
    {
      "name": "Mulot & Petitjean - Liberté",
      "address": "16 Rue de la Liberté, 21000 Dijon, France",
      "note": null,
      "is_favorite": false,
      "lat": 47.3226951,
      "lng": 5.036071499999999,
      "maps_url": "https://www.google.com/maps/search/?api=1&query=Mulot+%26+Petitjean+-+Libert%C3%A9%2C+16+Rue+de+la+Libert%C3%A9%2C+21000+Dijon%2C+France",
      "cid": "5184379756263397759",
      "google_id": "/g/1tx1sjnp",
      "maps_place_token": null
    },
    {
      "name": "Le 314 - Les Restaurants Nicolas Pierre",
      "address": "18B Rue Odebert, 21000 Dijon, France",
      "note": null,
      "is_favorite": false,
      "lat": 47.3233738,
      "lng": 5.039155699999999,
      "maps_url": "https://www.google.com/maps/search/?api=1&query=Le+314+-+Les+Restaurants+Nicolas+Pierre%2C+18B+Rue+Odebert%2C+21000+Dijon%2C+France",
      "cid": "5184379746481129221",
      "google_id": "/g/11cmr0flxz",
      "maps_place_token": null
    },
    {
      "name": "Restaurant Dijon L'évidence",
      "address": "53 Rue Jeannin, 21000 Dijon, France",
      "note": null,
      "is_favorite": false,
      "lat": 47.3218027,
      "lng": 5.0467626999999995,
      "maps_url": "https://www.google.com/maps/search/?api=1&query=Restaurant+Dijon+L%27%C3%A9vidence%2C+53+Rue+Jeannin%2C+21000+Dijon%2C+France",
      "cid": "5184379429399127907",
      "google_id": "/g/11jk_l6y2j",
      "maps_place_token": null
    },
    {
      "name": "La Fine Heure",
      "address": "34 Rue Berbisey, 21000 Dijon, France",
      "note": null,
      "is_favorite": false,
      "lat": 47.3190903,
      "lng": 5.037336799999999,
      "maps_url": "https://www.google.com/maps/search/?api=1&query=La+Fine+Heure%2C+34+Rue+Berbisey%2C+21000+Dijon%2C+France",
      "cid": "5184379749525805903",
      "google_id": "/g/1tql435j",
      "maps_place_token": null
    },
    {
      "name": "The Garden of the bells",
      "address": "14 Pl. Darcy, 21000 Dijon, France",
      "note": null,
      "is_favorite": false,
      "lat": 47.324292199999995,
      "lng": 5.0340185,
      "maps_url": "https://www.google.com/maps/search/?api=1&query=The+Garden+of+the+bells%2C+14+Pl.+Darcy%2C+21000+Dijon%2C+France",
      "cid": "5184379755277931403",
      "google_id": "/g/1yfjscb5v",
      "maps_place_token": null
    },
    {
      "name": "SO",
      "address": "15 Rue Amiral Roussin, 21000 Dijon, France",
      "note": null,
      "is_favorite": false,
      "lat": 47.3196635,
      "lng": 5.040998,
      "maps_url": "https://www.google.com/maps/search/?api=1&query=SO%2C+15+Rue+Amiral+Roussin%2C+21000+Dijon%2C+France",
      "cid": "5184379741731998249",
      "google_id": "/g/1hg4rw09d",
      "maps_place_token": null
    },
    {
      "name": "Le Piano Qui Fume",
      "address": "36 Rue Berbisey, 21000 Dijon, France",
      "note": null,
      "is_favorite": false,
      "lat": 47.3190598,
      "lng": 5.037279,
      "maps_url": "https://www.google.com/maps/search/?api=1&query=Le+Piano+Qui+Fume%2C+36+Rue+Berbisey%2C+21000+Dijon%2C+France",
      "cid": "5184379749529207731",
      "google_id": "/g/1tfbxs_q",
      "maps_place_token": null
    },
    {
      "name": "Chez Copains",
      "address": "10 Rue Quentin, 21000 Dijon, France",
      "note": null,
      "is_favorite": false,
      "lat": 47.3233678,
      "lng": 5.0402694,
      "maps_url": "https://www.google.com/maps/search/?api=1&query=Chez+Copains%2C+10+Rue+Quentin%2C+21000+Dijon%2C+France",
      "cid": "5184379746027378399",
      "google_id": "/g/1td8yg61",
      "maps_place_token": null
    },
    {
      "name": "Restaurant Chez Léon",
      "address": "20 Rue des Godrans, 21000 Dijon, France",
      "note": null,
      "is_favorite": false,
      "lat": 47.3247061,
      "lng": 5.0388644,
      "maps_url": "https://www.google.com/maps/search/?api=1&query=Restaurant+Chez+L%C3%A9on%2C+20+Rue+des+Godrans%2C+21000+Dijon%2C+France",
      "cid": "5184379769282324177",
      "google_id": "/g/1hhhtccny",
      "maps_place_token": null
    },
    {
      "name": "Le Jacquemart",
      "address": "6 Rue Musette, 21000 Dijon, France",
      "note": null,
      "is_favorite": false,
      "lat": 47.3228814,
      "lng": 5.0403946,
      "maps_url": "https://www.google.com/maps/search/?api=1&query=Le+Jacquemart%2C+6+Rue+Musette%2C+21000+Dijon%2C+France",
      "cid": "5184379745724155199",
      "google_id": "/g/1tsyp3f1",
      "maps_place_token": null
    },
    {
      "name": "La Brasserie des Loges",
      "address": "8 Pl. du Théâtre, 21000 Dijon, France",
      "note": null,
      "is_favorite": false,
      "lat": 47.321082499999996,
      "lng": 5.0430363,
      "maps_url": "https://www.google.com/maps/search/?api=1&query=La+Brasserie+des+Loges%2C+8+Pl.+du+Th%C3%A9%C3%A2tre%2C+21000+Dijon%2C+France",
      "cid": "5184379742471818249",
      "google_id": "/g/11c4td3gtd",
      "maps_place_token": null
    },
    {
      "name": "Cité Internationale de la Gastronomie et du Vin",
      "address": null,
      "note": null,
      "is_favorite": false,
      "lat": 47.317697599999995,
      "lng": 5.0305963,
      "maps_url": "https://www.google.com/maps/search/?api=1&query=Cit%C3%A9+Internationale+de+la+Gastronomie+et+du+Vin",
      "cid": "5184379327222693867",
      "google_id": null,
      "maps_place_token": null
    },
    {
      "name": "Tour Philippe le Bon",
      "address": null,
      "note": null,
      "is_favorite": false,
      "lat": 47.3220038,
      "lng": 5.0416132,
      "maps_url": "https://www.google.com/maps/search/?api=1&query=Tour+Philippe+le+Bon",
      "cid": "5184379744607884629",
      "google_id": null,
      "maps_place_token": null
    },
    {
      "name": "Gingerbread Mulot and Petitjean",
      "address": null,
      "note": null,
      "is_favorite": false,
      "lat": 47.3238914,
      "lng": 5.0184077,
      "maps_url": "https://www.google.com/maps/search/?api=1&query=Gingerbread+Mulot+and+Petitjean",
      "cid": "5184379403358142451",
      "google_id": null,
      "maps_place_token": null
    },
    {
      "name": "La Moutarderie Fallot",
      "address": null,
      "note": null,
      "is_favorite": false,
      "lat": 47.0210381,
      "lng": 4.832275699999999,
      "maps_url": "https://www.google.com/maps/search/?api=1&query=La+Moutarderie+Fallot",
      "cid": "5184473695161206395",
      "google_id": null,
      "maps_place_token": null
    },
    {
      "name": "Maille Dijon mustard",
      "address": null,
      "note": null,
      "is_favorite": false,
      "lat": 47.3224472,
      "lng": 5.0367777,
      "maps_url": "https://www.google.com/maps/search/?api=1&query=Maille+Dijon+mustard",
      "cid": "5184379756911680559",
      "google_id": null,
      "maps_place_token": null
    },
    {
      "name": "Church of Our Lady",
      "address": null,
      "note": null,
      "is_favorite": false,
      "lat": 47.3226856,
      "lng": 5.0413403,
      "maps_url": "https://www.google.com/maps/search/?api=1&query=Church+of+Our+Lady",
      "cid": "5184379745634487207",
      "google_id": null,
      "maps_place_token": null
    },
    {
      "name": "勃艮第公爵宮",
      "address": null,
      "note": null,
      "is_favorite": false,
      "lat": 47.321808499999996,
      "lng": 5.0415817,
      "maps_url": "https://www.google.com/maps/search/?api=1&query=%E5%8B%83%E8%89%AE%E7%AC%AC%E5%85%AC%E7%88%B5%E5%AE%AE",
      "cid": "5184379744996665341",
      "google_id": null,
      "maps_place_token": null
    },
    {
      "name": "Les Halles Market",
      "address": null,
      "note": null,
      "is_favorite": false,
      "lat": 47.323293199999995,
      "lng": 5.0398276,
      "maps_url": "https://www.google.com/maps/search/?api=1&query=Les+Halles+Market",
      "cid": "5184379769644283089",
      "google_id": null,
      "maps_place_token": null
    }
  ]
}
