{
  "fetched_at": "2026-04-20T16:04:14.730361+00:00",
  "refresh_after": "2026-05-02T02:20:54.730361+00:00",
  "source_signature": "cf99ebed639f96d401703d769227edc7750c98dcd037ce81383c86db0b297762",
  "configured_source_type": "google_list_url",
  "configured_source_url": "https://maps.app.goo.gl/mXQoUYRRjWuj6HNw8",
  "configured_source_path": null,
  "source_url": "https://maps.app.goo.gl/mXQoUYRRjWuj6HNw8",
  "list_id": "Mc3UGukaEH6YkxkW4hLKEg",
  "title": "Florence, Italy 🇮🇹",
  "description": null,
  "places": [
    {
      "name": "PanicAle",
      "address": "Via Panicale, 7/red, 50123 Firenze FI, Italy",
      "note": null,
      "is_favorite": false,
      "lat": 43.776973299999995,
      "lng": 11.252601,
      "maps_url": "https://www.google.com/maps/search/?api=1&query=PanicAle%2C+Via+Panicale%2C+7%2Fred%2C+50123+Firenze+FI%2C+Italy",
      "cid": "1381008720518328283",
      "google_id": "/g/11cjp8gklg",
      "maps_place_token": null
    },
    {
      "name": "Rasputin",
      "address": "Borgo Tegolaio, 21R, 50125 Firenze FI, Italy",
      "note": null,
      "is_favorite": false,
      "lat": 43.7663431,
      "lng": 11.2480789,
      "maps_url": "https://www.google.com/maps/search/?api=1&query=Rasputin%2C+Borgo+Tegolaio%2C+21R%2C+50125+Firenze+FI%2C+Italy",
      "cid": "1381005659372573761",
      "google_id": "/g/11cscbz4g0",
      "maps_place_token": null
    },
    {
      "name": "La Petite",
      "address": "Via Pellicceria, 30/R, 50121 Firenze FI, Italy",
      "note": null,
      "is_favorite": false,
      "lat": 43.7706623,
      "lng": 11.2536308,
      "maps_url": "https://www.google.com/maps/search/?api=1&query=La+Petite%2C+Via+Pellicceria%2C+30%2FR%2C+50121+Firenze+FI%2C+Italy",
      "cid": "1381008602376438465",
      "google_id": "/g/11cn0q7fgt",
      "maps_place_token": null
    },
    {
      "name": "Pescheria Sugarello",
      "address": "Piazza del Mercato Centrale, Via dell'Ariento, 50123 Firenze FI, Italy",
      "note": null,
      "is_favorite": false,
      "lat": 43.7768352,
      "lng": 11.253171199999999,
      "maps_url": "https://www.google.com/maps/search/?api=1&query=Pescheria+Sugarello%2C+Piazza+del+Mercato+Centrale%2C+Via+dell%27Ariento%2C+50123+Firenze+FI%2C+Italy",
      "cid": "1381008606082748559",
      "google_id": "/g/1tnxywwn",
      "maps_place_token": null
    },
    {
      "name": "Museo Nazionale del Bargello",
      "address": null,
      "note": null,
      "is_favorite": false,
      "lat": 43.7703981,
      "lng": 11.2580078,
      "maps_url": "https://www.google.com/maps/search/?api=1&query=Museo+Nazionale+del+Bargello",
      "cid": "1381008624024890233",
      "google_id": null,
      "maps_place_token": null
    },
    {
      "name": "Eataly Firenze",
      "address": "Via de' Martelli, 22R, 50122 Firenze FI, Italy",
      "note": null,
      "is_favorite": false,
      "lat": 43.7741141,
      "lng": 11.2557072,
      "maps_url": "https://www.google.com/maps/search/?api=1&query=Eataly+Firenze%2C+Via+de%27+Martelli%2C+22R%2C+50122+Firenze+FI%2C+Italy",
      "cid": "1381008610525508573",
      "google_id": "/g/1q69zbd31",
      "maps_place_token": null
    },
    {
      "name": "Parione",
      "address": "Via del Parione, 74/76 r, 50123 Firenze FI, Italy",
      "note": null,
      "is_favorite": false,
      "lat": 43.770885299999996,
      "lng": 11.2489034,
      "maps_url": "https://www.google.com/maps/search/?api=1&query=Parione%2C+Via+del+Parione%2C+74%2F76+r%2C+50123+Firenze+FI%2C+Italy",
      "cid": "1381011531066154935",
      "google_id": "/g/1tcwzg1j",
      "maps_place_token": null
    },
    {
      "name": "Da Nerbone",
      "address": "Piazza del Mercato Centrale, 50123 Firenze FI, Italy",
      "note": null,
      "is_favorite": false,
      "lat": 43.7762847,
      "lng": 11.253286899999999,
      "maps_url": "https://www.google.com/maps/search/?api=1&query=Da+Nerbone%2C+Piazza+del+Mercato+Centrale%2C+50123+Firenze+FI%2C+Italy",
      "cid": "1381008606661015157",
      "google_id": "/g/1hfbgvjgf",
      "maps_place_token": null
    },
    {
      "name": "Mò Sì caffetteria alla vecchia maniera",
      "address": null,
      "note": null,
      "is_favorite": false,
      "lat": 43.7776642,
      "lng": 11.252732499999999,
      "maps_url": "https://www.google.com/maps/search/?api=1&query=M%C3%B2+S%C3%AC+caffetteria+alla+vecchia+maniera",
      "cid": "1381008720681563083",
      "google_id": null,
      "maps_place_token": null
    },
    {
      "name": "Trattoria La Gratella",
      "address": "Via Guelfa, 81R, 50129 Firenze FI, Italy",
      "note": null,
      "is_favorite": false,
      "lat": 43.7783333,
      "lng": 11.252777799999999,
      "maps_url": "https://www.google.com/maps/search/?api=1&query=Trattoria+La+Gratella%2C+Via+Guelfa%2C+81R%2C+50129+Firenze+FI%2C+Italy",
      "cid": "1381008718576805881",
      "google_id": "/g/1wnzbyjj",
      "maps_place_token": null
    },
    {
      "name": "L'Osteria di Giovanni",
      "address": "Via del Moro, 22r, 50123 Firenze FI, Italy",
      "note": null,
      "is_favorite": false,
      "lat": 43.7714072,
      "lng": 11.248562399999999,
      "maps_url": "https://www.google.com/maps/search/?api=1&query=L%27Osteria+di+Giovanni%2C+Via+del+Moro%2C+22r%2C+50123+Firenze+FI%2C+Italy",
      "cid": "1381011531610782677",
      "google_id": "/g/1hc3x884h",
      "maps_place_token": null
    },
    {
      "name": "Trattoria Sostanza",
      "address": "Via del Porcellana, 25/R, 50123 Firenze FI, Italy",
      "note": null,
      "is_favorite": false,
      "lat": 43.7726372,
      "lng": 11.2470854,
      "maps_url": "https://www.google.com/maps/search/?api=1&query=Trattoria+Sostanza%2C+Via+del+Porcellana%2C+25%2FR%2C+50123+Firenze+FI%2C+Italy",
      "cid": "1381011532327922999",
      "google_id": "/g/1tk40knz",
      "maps_place_token": null
    },
    {
      "name": "Manifattura",
      "address": null,
      "note": null,
      "is_favorite": false,
      "lat": 43.771943199999995,
      "lng": 11.249568499999999,
      "maps_url": "https://www.google.com/maps/search/?api=1&query=Manifattura",
      "cid": "1381011524768600069",
      "google_id": null,
      "maps_place_token": null
    },
    {
      "name": "Cathedral of Santa Maria del Fiore",
      "address": null,
      "note": null,
      "is_favorite": false,
      "lat": 43.773145,
      "lng": 11.255960199999999,
      "maps_url": "https://www.google.com/maps/search/?api=1&query=Cathedral+of+Santa+Maria+del+Fiore",
      "cid": "1381008610823385077",
      "google_id": null,
      "maps_place_token": null
    },
    {
      "name": "Boboli Gardens",
      "address": null,
      "note": null,
      "is_favorite": false,
      "lat": 43.7624972,
      "lng": 11.248399599999999,
      "maps_url": "https://www.google.com/maps/search/?api=1&query=Boboli+Gardens",
      "cid": "1381005667974991511",
      "google_id": null,
      "maps_place_token": null
    },
    {
      "name": "Piazzale Michelangelo",
      "address": null,
      "note": null,
      "is_favorite": false,
      "lat": 43.7629314,
      "lng": 11.265056099999999,
      "maps_url": "https://www.google.com/maps/search/?api=1&query=Piazzale+Michelangelo",
      "cid": "1381008557195278403",
      "google_id": null,
      "maps_place_token": null
    },
    {
      "name": "Piazza della Repubblica",
      "address": null,
      "note": null,
      "is_favorite": false,
      "lat": 43.771426299999995,
      "lng": 11.254019,
      "maps_url": "https://www.google.com/maps/search/?api=1&query=Piazza+della+Repubblica",
      "cid": "1381008601514176987",
      "google_id": null,
      "maps_place_token": null
    },
    {
      "name": "Cappelle Medicee",
      "address": null,
      "note": null,
      "is_favorite": false,
      "lat": 43.7750913,
      "lng": 11.2533903,
      "maps_url": "https://www.google.com/maps/search/?api=1&query=Cappelle+Medicee",
      "cid": "1381008605588093327",
      "google_id": null,
      "maps_place_token": null
    },
    {
      "name": "Basilica of Santa Maria Novella",
      "address": null,
      "note": null,
      "is_favorite": false,
      "lat": 43.7746346,
      "lng": 11.2493859,
      "maps_url": "https://www.google.com/maps/search/?api=1&query=Basilica+of+Santa+Maria+Novella",
      "cid": "1381011521557074785",
      "google_id": null,
      "maps_place_token": null
    },
    {
      "name": "il Mercato Centrale Firenze",
      "address": null,
      "note": null,
      "is_favorite": false,
      "lat": 43.7764676,
      "lng": 11.2528338,
      "maps_url": "https://www.google.com/maps/search/?api=1&query=il+Mercato+Centrale+Firenze",
      "cid": "1381008606394761367",
      "google_id": null,
      "maps_place_token": null
    },
    {
      "name": "Galleria dell’Accademia di Firenze",
      "address": null,
      "note": null,
      "is_favorite": false,
      "lat": 43.7768145,
      "lng": 11.2586424,
      "maps_url": "https://www.google.com/maps/search/?api=1&query=Galleria+dell%E2%80%99Accademia+di+Firenze",
      "cid": "1381010298689927463",
      "google_id": null,
      "maps_place_token": null
    },
    {
      "name": "Palazzo Pitti",
      "address": null,
      "note": null,
      "is_favorite": false,
      "lat": 43.7651533,
      "lng": 11.250008099999999,
      "maps_url": "https://www.google.com/maps/search/?api=1&query=Palazzo+Pitti",
      "cid": "1381005658066491889",
      "google_id": null,
      "maps_place_token": null
    },
    {
      "name": "David",
      "address": null,
      "note": null,
      "is_favorite": false,
      "lat": 43.7767194,
      "lng": 11.2593217,
      "maps_url": "https://www.google.com/maps/search/?api=1&query=David",
      "cid": "1381008712069856445",
      "google_id": null,
      "maps_place_token": null
    },
    {
      "name": "Basilica of Santa Croce in Florence",
      "address": null,
      "note": null,
      "is_favorite": false,
      "lat": 43.7685683,
      "lng": 11.262267699999999,
      "maps_url": "https://www.google.com/maps/search/?api=1&query=Basilica+of+Santa+Croce+in+Florence",
      "cid": "1381008625384604465",
      "google_id": null,
      "maps_place_token": null
    },
    {
      "name": "Palazzo Vecchio",
      "address": null,
      "note": null,
      "is_favorite": false,
      "lat": 43.7693012,
      "lng": 11.2561509,
      "maps_url": "https://www.google.com/maps/search/?api=1&query=Palazzo+Vecchio",
      "cid": "1381008598569096185",
      "google_id": null,
      "maps_place_token": null
    },
    {
      "name": "Piazza della Signoria",
      "address": null,
      "note": null,
      "is_favorite": false,
      "lat": 43.7696855,
      "lng": 11.255642199999999,
      "maps_url": "https://www.google.com/maps/search/?api=1&query=Piazza+della+Signoria",
      "cid": "1381008599555419701",
      "google_id": null,
      "maps_place_token": null
    },
    {
      "name": "Ponte Vecchio",
      "address": null,
      "note": null,
      "is_favorite": false,
      "lat": 43.767925,
      "lng": 11.2531435,
      "maps_url": "https://www.google.com/maps/search/?api=1&query=Ponte+Vecchio",
      "cid": "1381011526619280999",
      "google_id": null,
      "maps_place_token": null
    },
    {
      "name": "Uffizi Galleries",
      "address": null,
      "note": null,
      "is_favorite": false,
      "lat": 43.767785599999996,
      "lng": 11.2553108,
      "maps_url": "https://www.google.com/maps/search/?api=1&query=Uffizi+Galleries",
      "cid": "1381008597097746561",
      "google_id": null,
      "maps_place_token": null
    }
  ]
}
