{
  "fetched_at": "2026-04-20T16:03:33.395801+00:00",
  "refresh_after": "2026-05-01T16:19:51.395801+00:00",
  "source_signature": "8d3506a543c25e48f6babbc452891ade14a5e069fb1d30138f94854bc0036bda",
  "configured_source_type": "google_list_url",
  "configured_source_url": "https://maps.app.goo.gl/Y8ctSJLu6XKN3fm99",
  "configured_source_path": null,
  "source_url": "https://maps.app.goo.gl/Y8ctSJLu6XKN3fm99",
  "list_id": "rItoWrAHT_q1_CsgIzGXTg",
  "title": "Lyon, France 🇫🇷",
  "description": null,
  "places": [
    {
      "name": "Hôtel de Ville de Lyon",
      "address": "1 Pl. de la Comédie, 69001 Lyon",
      "note": null,
      "is_favorite": false,
      "lat": 45.7676027,
      "lng": 4.8344021,
      "maps_url": "https://www.google.com/maps/search/?api=1&query=H%C3%B4tel+de+Ville+de+Lyon%2C+1+Pl.+de+la+Com%C3%A9die%2C+69001+Lyon",
      "cid": "5185026662658936075",
      "google_id": null,
      "maps_place_token": null
    },
    {
      "name": "Hôtel-Dieu de Lyon",
      "address": "1 Pl. de l'Hôpital, 69002 Lyon",
      "note": null,
      "is_favorite": false,
      "lat": 45.758892599999996,
      "lng": 4.8369260999999995,
      "maps_url": "https://www.google.com/maps/search/?api=1&query=H%C3%B4tel-Dieu+de+Lyon%2C+1+Pl.+de+l%27H%C3%B4pital%2C+69002+Lyon",
      "cid": "5185026704085376533",
      "google_id": null,
      "maps_place_token": null
    },
    {
      "name": "Parc des Hauteurs",
      "address": "Pl. de Fourvière, 69005 Lyon",
      "note": null,
      "is_favorite": false,
      "lat": 45.7623161,
      "lng": 4.8233581,
      "maps_url": "https://www.google.com/maps/search/?api=1&query=Parc+des+Hauteurs%2C+Pl.+de+Fourvi%C3%A8re%2C+69005+Lyon",
      "cid": "5185028194272311051",
      "google_id": "/g/122xf9pn",
      "maps_place_token": null
    },
    {
      "name": "Jardin des Curiosités",
      "address": "8 Pl. de l'Abbé Larue, 69005 Lyon",
      "note": null,
      "is_favorite": false,
      "lat": 45.754976299999996,
      "lng": 4.821871499999999,
      "maps_url": "https://www.google.com/maps/search/?api=1&query=Jardin+des+Curiosit%C3%A9s%2C+8+Pl.+de+l%27Abb%C3%A9+Larue%2C+69005+Lyon",
      "cid": "5185028204060552315",
      "google_id": "/g/1215vg_t",
      "maps_place_token": null
    },
    {
      "name": "Place des Terreaux",
      "address": "Pl. des Terreaux, 69001 Lyon",
      "note": null,
      "is_favorite": false,
      "lat": 45.767485099999995,
      "lng": 4.8334965,
      "maps_url": "https://www.google.com/maps/search/?api=1&query=Place+des+Terreaux%2C+Pl.+des+Terreaux%2C+69001+Lyon",
      "cid": "5185027451641183517",
      "google_id": null,
      "maps_place_token": null
    },
    {
      "name": "Place Bellecour",
      "address": "Pl. Bellecour, 69002 Lyon",
      "note": null,
      "is_favorite": false,
      "lat": 45.757746,
      "lng": 4.8321483999999995,
      "maps_url": "https://www.google.com/maps/search/?api=1&query=Place+Bellecour%2C+Pl.+Bellecour%2C+69002+Lyon",
      "cid": "5185026715291507379",
      "google_id": null,
      "maps_place_token": null
    },
    {
      "name": "Théâtre Gallo Romain",
      "address": "17 Rue Cleberg, 69005 Lyon",
      "note": null,
      "is_favorite": false,
      "lat": 45.7597309,
      "lng": 4.8201098,
      "maps_url": "https://www.google.com/maps/search/?api=1&query=Th%C3%A9%C3%A2tre+Gallo+Romain%2C+17+Rue+Cleberg%2C+69005+Lyon",
      "cid": "5185028181040721449",
      "google_id": null,
      "maps_place_token": null
    },
    {
      "name": "Mur des Canuts",
      "address": "36 Bd des Canuts, 69004 Lyon",
      "note": null,
      "is_favorite": false,
      "lat": 45.7779683,
      "lng": 4.8279781,
      "maps_url": "https://www.google.com/maps/search/?api=1&query=Mur+des+Canuts%2C+36+Bd+des+Canuts%2C+69004+Lyon",
      "cid": "5185027577111896833",
      "google_id": "/g/11b620chl_",
      "maps_place_token": null
    },
    {
      "name": "Gallo-Roman Museum of Lyon-Fourvière",
      "address": "17 Rue Cleberg, 69005 Lyon",
      "note": null,
      "is_favorite": false,
      "lat": 45.7604255,
      "lng": 4.8199666,
      "maps_url": "https://www.google.com/maps/search/?api=1&query=Gallo-Roman+Museum+of+Lyon-Fourvi%C3%A8re%2C+17+Rue+Cleberg%2C+69005+Lyon",
      "cid": "5185028207433102367",
      "google_id": null,
      "maps_place_token": null
    },
    {
      "name": "Place de la République",
      "address": "Rue de la République, 69002 Lyon",
      "note": null,
      "is_favorite": false,
      "lat": 45.7604786,
      "lng": 4.8356574,
      "maps_url": "https://www.google.com/maps/search/?api=1&query=Place+de+la+R%C3%A9publique%2C+Rue+de+la+R%C3%A9publique%2C+69002+Lyon",
      "cid": "5185028026032146107",
      "google_id": null,
      "maps_place_token": null
    },
    {
      "name": "Parc de la Tête d'Or",
      "address": "Boulevard des Belges, 69006 Lyon",
      "note": null,
      "is_favorite": false,
      "lat": 45.775597499999996,
      "lng": 4.8504688,
      "maps_url": "https://www.google.com/maps/search/?api=1&query=Parc+de+la+T%C3%AAte+d%27Or%2C+Boulevard+des+Belges%2C+69006+Lyon",
      "cid": "5185027366457387589",
      "google_id": null,
      "maps_place_token": null
    },
    {
      "name": "Musée d'art contemporain de Lyon",
      "address": "Cité Internationale, 81 Quai Charles de Gaulle, 69006 Lyon",
      "note": null,
      "is_favorite": false,
      "lat": 45.7842333,
      "lng": 4.8524476,
      "maps_url": "https://www.google.com/maps/search/?api=1&query=Mus%C3%A9e+d%27art+contemporain+de+Lyon%2C+Cit%C3%A9+Internationale%2C+81+Quai+Charles+de+Gaulle%2C+69006+Lyon",
      "cid": "5185027185666022895",
      "google_id": null,
      "maps_place_token": null
    },
    {
      "name": "Cathédrale Saint-Jean-Baptiste",
      "address": "Pl. Saint-Jean, 69005 Lyon",
      "note": null,
      "is_favorite": false,
      "lat": 45.760951999999996,
      "lng": 4.8269788,
      "maps_url": "https://www.google.com/maps/search/?api=1&query=Cath%C3%A9drale+Saint-Jean-Baptiste%2C+Pl.+Saint-Jean%2C+69005+Lyon",
      "cid": "5185028190971110031",
      "google_id": null,
      "maps_place_token": null
    },
    {
      "name": "Funiculaire de Lyon",
      "address": "Cathédrale Saint-Jean-Baptiste, 69005 Lyon",
      "note": null,
      "is_favorite": false,
      "lat": 45.7599873,
      "lng": 4.8263884,
      "maps_url": "https://www.google.com/maps/search/?api=1&query=Funiculaire+de+Lyon%2C+Cath%C3%A9drale+Saint-Jean-Baptiste%2C+69005+Lyon",
      "cid": "5185028421987753715",
      "google_id": "/g/11j8tlqgz_",
      "maps_place_token": null
    },
    {
      "name": "Basilica of Notre Dame of Fourvière",
      "address": "8 Pl. de Fourvière, 69005 Lyon",
      "note": null,
      "is_favorite": false,
      "lat": 45.7623343,
      "lng": 4.8219829999999995,
      "maps_url": "https://www.google.com/maps/search/?api=1&query=Basilica+of+Notre+Dame+of+Fourvi%C3%A8re%2C+8+Pl.+de+Fourvi%C3%A8re%2C+69005+Lyon",
      "cid": "5185028184062644779",
      "google_id": null,
      "maps_place_token": null
    },
    {
      "name": "Musée Urbain Tony Garnier",
      "address": "4 Rue des Serpollières, 69008 Lyon",
      "note": null,
      "is_favorite": false,
      "lat": 45.733491199999996,
      "lng": 4.8629516,
      "maps_url": "https://www.google.com/maps/search/?api=1&query=Mus%C3%A9e+Urbain+Tony+Garnier%2C+4+Rue+des+Serpolli%C3%A8res%2C+69008+Lyon",
      "cid": "5185026382980323763",
      "google_id": "/g/120nf752",
      "maps_place_token": null
    },
    {
      "name": "Musée des Confluences",
      "address": "86 Quai Perrache, 69002 Lyon",
      "note": null,
      "is_favorite": false,
      "lat": 45.732647199999995,
      "lng": 4.818240299999999,
      "maps_url": "https://www.google.com/maps/search/?api=1&query=Mus%C3%A9e+des+Confluences%2C+86+Quai+Perrache%2C+69002+Lyon",
      "cid": "5185027378353311829",
      "google_id": null,
      "maps_place_token": null
    },
    {
      "name": "Musée Cinéma et Miniature",
      "address": "60 Rue Saint-Jean, 69005 Lyon",
      "note": null,
      "is_favorite": false,
      "lat": 45.7619231,
      "lng": 4.8271497,
      "maps_url": "https://www.google.com/maps/search/?api=1&query=Mus%C3%A9e+Cin%C3%A9ma+et+Miniature%2C+60+Rue+Saint-Jean%2C+69005+Lyon",
      "cid": "5185028190187021807",
      "google_id": "/g/11x7vlwv9",
      "maps_place_token": null
    },
    {
      "name": "Museum of Fine Arts of Lyon",
      "address": "20 Pl. des Terreaux, 69001 Lyon",
      "note": null,
      "is_favorite": false,
      "lat": 45.7671937,
      "lng": 4.833565999999999,
      "maps_url": "https://www.google.com/maps/search/?api=1&query=Museum+of+Fine+Arts+of+Lyon%2C+20+Pl.+des+Terreaux%2C+69001+Lyon",
      "cid": "5185027451653485649",
      "google_id": null,
      "maps_place_token": null
    },
    {
      "name": "Brasserie des Brotteaux",
      "address": "1 Pl. Jules Ferry, 69006 Lyon",
      "note": null,
      "is_favorite": false,
      "lat": 45.767962399999995,
      "lng": 4.8588192999999995,
      "maps_url": "https://www.google.com/maps/search/?api=1&query=Brasserie+des+Brotteaux%2C+1+Pl.+Jules+Ferry%2C+69006+Lyon",
      "cid": "5185026945855865901",
      "google_id": "/g/120zjq7y",
      "maps_place_token": null
    },
    {
      "name": "Le Vieux Lyon",
      "address": "44 Rue Saint-Jean, 69005 Lyon",
      "note": null,
      "is_favorite": false,
      "lat": 45.7623386,
      "lng": 4.8274786999999995,
      "maps_url": "https://www.google.com/maps/search/?api=1&query=Le+Vieux+Lyon%2C+44+Rue+Saint-Jean%2C+69005+Lyon",
      "cid": "5185028190246729741",
      "google_id": "/g/11csqb5bmv",
      "maps_place_token": null
    },
    {
      "name": "Brasserie L'Est - Bocuse",
      "address": "14 Pl. Jules Ferry, 69006 Lyon",
      "note": null,
      "is_favorite": false,
      "lat": 45.767732599999995,
      "lng": 4.8597502,
      "maps_url": "https://www.google.com/maps/search/?api=1&query=Brasserie+L%27Est+-+Bocuse%2C+14+Pl.+Jules+Ferry%2C+69006+Lyon",
      "cid": "5185026970161959877",
      "google_id": "/g/1tfqf43f",
      "maps_place_token": null
    },
    {
      "name": "Café Terroir Lyon",
      "address": "14 Rue d'Amboise, 69002 Lyon",
      "note": null,
      "is_favorite": false,
      "lat": 45.7591909,
      "lng": 4.831842099999999,
      "maps_url": "https://www.google.com/maps/search/?api=1&query=Caf%C3%A9+Terroir+Lyon%2C+14+Rue+d%27Amboise%2C+69002+Lyon",
      "cid": "5185026715482409227",
      "google_id": "/g/11b808_fxs",
      "maps_place_token": null
    },
    {
      "name": "Le Poêlon d'Or",
      "address": "29 Rue des Remparts d'Ainay, 69002 Lyon",
      "note": null,
      "is_favorite": false,
      "lat": 45.752785499999995,
      "lng": 4.831038599999999,
      "maps_url": "https://www.google.com/maps/search/?api=1&query=Le+Po%C3%AAlon+d%27Or%2C+29+Rue+des+Remparts+d%27Ainay%2C+69002+Lyon",
      "cid": "5185026690217284693",
      "google_id": "/g/1tgdbrxv",
      "maps_place_token": null
    },
    {
      "name": "L'Artchimiste",
      "address": null,
      "note": null,
      "is_favorite": false,
      "lat": 45.7682608,
      "lng": 4.8563718,
      "maps_url": "https://www.google.com/maps/search/?api=1&query=L%27Artchimiste",
      "cid": "5185026958294096043",
      "google_id": null,
      "maps_place_token": null
    },
    {
      "name": "Brasserie Georges",
      "address": "30 Cr de Verdun Perrache, 69002 Lyon",
      "note": null,
      "is_favorite": false,
      "lat": 45.748397399999995,
      "lng": 4.8283203,
      "maps_url": "https://www.google.com/maps/search/?api=1&query=Brasserie+Georges%2C+30+Cr+de+Verdun+Perrache%2C+69002+Lyon",
      "cid": "5185026679886247159",
      "google_id": null,
      "maps_place_token": null
    },
    {
      "name": "Restaurant Paul Bocuse",
      "address": null,
      "note": null,
      "is_favorite": false,
      "lat": 45.8156743,
      "lng": 4.8474146,
      "maps_url": "https://www.google.com/maps/search/?api=1&query=Restaurant+Paul+Bocuse",
      "cid": "5184933055551413245",
      "google_id": null,
      "maps_place_token": null
    },
    {
      "name": "Les Halles de Lyon Paul Bocuse",
      "address": null,
      "note": null,
      "is_favorite": false,
      "lat": 45.7627629,
      "lng": 4.8506076,
      "maps_url": "https://www.google.com/maps/search/?api=1&query=Les+Halles+de+Lyon+Paul+Bocuse",
      "cid": "5185028358166387951",
      "google_id": null,
      "maps_place_token": null
    },
    {
      "name": "La Pyramide - Hôtel Restaurant (Isère)",
      "address": null,
      "note": null,
      "is_favorite": false,
      "lat": 45.516602,
      "lng": 4.8668499999999995,
      "maps_url": "https://www.google.com/maps/search/?api=1&query=La+Pyramide+-+H%C3%B4tel+Restaurant+%28Is%C3%A8re%29",
      "cid": "5185014983745631023",
      "google_id": null,
      "maps_place_token": null
    },
    {
      "name": "La Mère Brazier",
      "address": null,
      "note": null,
      "is_favorite": false,
      "lat": 45.771442799999996,
      "lng": 4.8372185,
      "maps_url": "https://www.google.com/maps/search/?api=1&query=La+M%C3%A8re+Brazier",
      "cid": "5185027436687996787",
      "google_id": null,
      "maps_place_token": null
    },
    {
      "name": "Le Mercière",
      "address": null,
      "note": null,
      "is_favorite": false,
      "lat": 45.7625983,
      "lng": 4.8326908,
      "maps_url": "https://www.google.com/maps/search/?api=1&query=Le+Merci%C3%A8re",
      "cid": "5185026724951254293",
      "google_id": null,
      "maps_place_token": null
    },
    {
      "name": "Les Lyonnais",
      "address": null,
      "note": null,
      "is_favorite": false,
      "lat": 45.7618686,
      "lng": 4.8261996,
      "maps_url": "https://www.google.com/maps/search/?api=1&query=Les+Lyonnais",
      "cid": "5185028187810114671",
      "google_id": null,
      "maps_place_token": null
    }
  ]
}
