{
  "fetched_at": "2026-04-26T02:37:03.035346+00:00",
  "refresh_after": "2026-05-08T12:29:58.035346+00:00",
  "source_signature": "01ed0648be5bbe2ee59bce12780c08100b0c014d3c86f2ca8ab3c8beac55f073",
  "configured_source_type": "google_list_url",
  "configured_source_url": "https://maps.app.goo.gl/4riMSaf3VD7sG9jP8",
  "configured_source_path": null,
  "source_url": "https://maps.app.goo.gl/4riMSaf3VD7sG9jP8",
  "list_id": "dzRW_y0fQ9KzBZDMXrdLMQ",
  "title": "Niseko & Rutsutsu, Japan 🇯🇵",
  "description": "Michael's list for Niseko & Rutsutsu in Hokkaido, Japan 🇯🇵 See https://beacons.ai/demflyers for more.",
  "places": [
    {
      "name": "NISEKO A-nabeya",
      "address": null,
      "note": null,
      "is_favorite": false,
      "lat": 42.8424905,
      "lng": 140.6395839,
      "maps_url": "https://www.google.com/maps/search/?api=1&query=NISEKO+A-nabeya",
      "cid": "6848479180481544291",
      "google_id": null,
      "maps_place_token": null
    },
    {
      "name": "Yakitori Fujiwara Niseko",
      "address": null,
      "note": null,
      "is_favorite": false,
      "lat": 42.8582432,
      "lng": 140.7056536,
      "maps_url": "https://www.google.com/maps/search/?api=1&query=Yakitori+Fujiwara+Niseko",
      "cid": "6848481354792090093",
      "google_id": null,
      "maps_place_token": null
    },
    {
      "name": "Sushi Hanayoshi",
      "address": null,
      "note": null,
      "is_favorite": false,
      "lat": 42.8044454,
      "lng": 140.6880902,
      "maps_url": "https://www.google.com/maps/search/?api=1&query=Sushi+Hanayoshi",
      "cid": "6848478554765433779",
      "google_id": null,
      "maps_place_token": null
    },
    {
      "name": "dan",
      "address": null,
      "note": null,
      "is_favorite": false,
      "lat": 42.8582542,
      "lng": 140.7056398,
      "maps_url": "https://www.google.com/maps/search/?api=1&query=dan",
      "cid": "6848480798336735709",
      "google_id": null,
      "maps_place_token": null
    },
    {
      "name": "Temporada",
      "address": null,
      "note": null,
      "is_favorite": false,
      "lat": 42.860129099999995,
      "lng": 140.7060323,
      "maps_url": "https://www.google.com/maps/search/?api=1&query=Temporada",
      "cid": "6848481793934472655",
      "google_id": null,
      "maps_place_token": null
    },
    {
      "name": "The Flats. Restaurant/Bar",
      "address": null,
      "note": null,
      "is_favorite": false,
      "lat": 42.8602981,
      "lng": 140.70573919999998,
      "maps_url": "https://www.google.com/maps/search/?api=1&query=The+Flats.+Restaurant%2FBar",
      "cid": "6848481342991316343",
      "google_id": null,
      "maps_place_token": null
    },
    {
      "name": "Tsubara Tsubara",
      "address": "4-chome-3 Nisekohirafu 5 Jo, Kutchan, Abuta District, Hokkaido 044-0086",
      "note": null,
      "is_favorite": false,
      "lat": 42.8641929,
      "lng": 140.7128,
      "maps_url": "https://www.google.com/maps/search/?api=1&query=Tsubara+Tsubara%2C+4-chome-3+Nisekohirafu+5+Jo%2C+Kutchan%2C+Abuta+District%2C+Hokkaido+044-0086",
      "cid": "6848480187349740109",
      "google_id": "/g/1vljg3b7",
      "maps_place_token": null
    },
    {
      "name": "Charcoal Grilled Yakitori Tomarigi",
      "address": "〒044-0003 Hokkaido, Abuta District, Kutchan, 町北三条東四丁目1-12",
      "note": null,
      "is_favorite": false,
      "lat": 42.901195799999996,
      "lng": 140.7609736,
      "maps_url": "https://www.google.com/maps/search/?api=1&query=Charcoal+Grilled+Yakitori+Tomarigi%2C+%E3%80%92044-0003+Hokkaido%2C+Abuta+District%2C+Kutchan%2C+%E7%94%BA%E5%8C%97%E4%B8%89%E6%9D%A1%E6%9D%B1%E5%9B%9B%E4%B8%81%E7%9B%AE1-12",
      "cid": "6848492506457960237",
      "google_id": "/g/11jybj3q03",
      "maps_place_token": null
    },
    {
      "name": "魚屋しろくま",
      "address": "1 Chome-30-1 Minami 11 Johigashi, 虻田郡倶知安町 Abuta District, Hokkaido 044-0025",
      "note": null,
      "is_favorite": false,
      "lat": 42.8895493,
      "lng": 140.7519436,
      "maps_url": "https://www.google.com/maps/search/?api=1&query=%E9%AD%9A%E5%B1%8B%E3%81%97%E3%82%8D%E3%81%8F%E3%81%BE%2C+1+Chome-30-1+Minami+11+Johigashi%2C+%E8%99%BB%E7%94%B0%E9%83%A1%E5%80%B6%E7%9F%A5%E5%AE%89%E7%94%BA+Abuta+District%2C+Hokkaido+044-0025",
      "cid": "6848480416085559775",
      "google_id": "/g/11g021475b",
      "maps_place_token": null
    },
    {
      "name": "Yakiniku Dainimon Kutchan Branch",
      "address": null,
      "note": null,
      "is_favorite": false,
      "lat": 42.8992825,
      "lng": 140.7528475,
      "maps_url": "https://www.google.com/maps/search/?api=1&query=Yakiniku+Dainimon+Kutchan+Branch",
      "cid": "6848491974950653691",
      "google_id": null,
      "maps_place_token": null
    },
    {
      "name": "Tenhoh",
      "address": null,
      "note": null,
      "is_favorite": false,
      "lat": 42.9030742,
      "lng": 140.75054649999998,
      "maps_url": "https://www.google.com/maps/search/?api=1&query=Tenhoh",
      "cid": "6848490814442448543",
      "google_id": null,
      "maps_place_token": null
    },
    {
      "name": "Otto Uno",
      "address": null,
      "note": null,
      "is_favorite": false,
      "lat": 42.902804599999996,
      "lng": 140.7511575,
      "maps_url": "https://www.google.com/maps/search/?api=1&query=Otto+Uno",
      "cid": "6848492846708118737",
      "google_id": null,
      "maps_place_token": null
    },
    {
      "name": "六花 RIKKA",
      "address": null,
      "note": null,
      "is_favorite": false,
      "lat": 42.9015558,
      "lng": 140.75291869999998,
      "maps_url": "https://www.google.com/maps/search/?api=1&query=%E5%85%AD%E8%8A%B1+RIKKA",
      "cid": "6848492751486431611",
      "google_id": null,
      "maps_place_token": null
    },
    {
      "name": "Cafe Creperiz",
      "address": null,
      "note": null,
      "is_favorite": false,
      "lat": 42.9016467,
      "lng": 140.7465942,
      "maps_url": "https://www.google.com/maps/search/?api=1&query=Cafe+Creperiz",
      "cid": "6848492831248466501",
      "google_id": null,
      "maps_place_token": null
    },
    {
      "name": "Wagyu to Worldwide Niseko",
      "address": null,
      "note": null,
      "is_favorite": false,
      "lat": 42.901641,
      "lng": 140.7467097,
      "maps_url": "https://www.google.com/maps/search/?api=1&query=Wagyu+to+Worldwide+Niseko",
      "cid": "6848491974436819557",
      "google_id": null,
      "maps_place_token": null
    },
    {
      "name": "Kutchancho Asahigaoka Ski Area",
      "address": "95 Asahi, Kutchan, Abuta District, Hokkaido 044-0083",
      "note": null,
      "is_favorite": false,
      "lat": 42.9015969,
      "lng": 140.7386252,
      "maps_url": "https://www.google.com/maps/search/?api=1&query=Kutchancho+Asahigaoka+Ski+Area%2C+95+Asahi%2C+Kutchan%2C+Abuta+District%2C+Hokkaido+044-0083",
      "cid": "6848490791649398927",
      "google_id": "/g/1tf7xhs5",
      "maps_place_token": null
    },
    {
      "name": "Casual Bar & Sukiyaki Trattoria GARSON",
      "address": null,
      "note": null,
      "is_favorite": false,
      "lat": 42.9031948,
      "lng": 140.7512652,
      "maps_url": "https://www.google.com/maps/search/?api=1&query=Casual+Bar+%26+Sukiyaki+Trattoria+GARSON",
      "cid": "6848490813930805763",
      "google_id": null,
      "maps_place_token": null
    },
    {
      "name": "SUSHIKATO HINZAN NISEKO ~Crab&Wagyu~",
      "address": null,
      "note": null,
      "is_favorite": false,
      "lat": 42.8577678,
      "lng": 140.7063105,
      "maps_url": "https://www.google.com/maps/search/?api=1&query=SUSHIKATO+HINZAN+NISEKO+~Crab%26Wagyu~",
      "cid": "6848481201868885751",
      "google_id": null,
      "maps_place_token": null
    },
    {
      "name": "Roketto ロケット",
      "address": null,
      "note": null,
      "is_favorite": false,
      "lat": 42.8596657,
      "lng": 140.7004469,
      "maps_url": "https://www.google.com/maps/search/?api=1&query=Roketto+%E3%83%AD%E3%82%B1%E3%83%83%E3%83%88",
      "cid": "6848481119675288381",
      "google_id": null,
      "maps_place_token": null
    },
    {
      "name": "Kitchen",
      "address": null,
      "note": null,
      "is_favorite": false,
      "lat": 42.8604033,
      "lng": 140.7055377,
      "maps_url": "https://www.google.com/maps/search/?api=1&query=Kitchen",
      "cid": "6848481412415982393",
      "google_id": null,
      "maps_place_token": null
    },
    {
      "name": "HakuSteak",
      "address": null,
      "note": null,
      "is_favorite": false,
      "lat": 42.8620751,
      "lng": 140.7032825,
      "maps_url": "https://www.google.com/maps/search/?api=1&query=HakuSteak",
      "cid": "6848481516582598085",
      "google_id": null,
      "maps_place_token": null
    },
    {
      "name": "Somoza",
      "address": null,
      "note": null,
      "is_favorite": false,
      "lat": 42.9076648,
      "lng": 140.674705,
      "maps_url": "https://www.google.com/maps/search/?api=1&query=Somoza",
      "cid": "6848492525491504745",
      "google_id": null,
      "maps_place_token": null
    },
    {
      "name": "MUWA NISEKO",
      "address": null,
      "note": null,
      "is_favorite": false,
      "lat": 42.863338,
      "lng": 140.699605,
      "maps_url": "https://www.google.com/maps/search/?api=1&query=MUWA+NISEKO",
      "cid": "6848481130489817483",
      "google_id": null,
      "maps_place_token": null
    },
    {
      "name": "MOKA Italian Japanese Restaurant イタリアンジャパニーズ 『MOKA』",
      "address": null,
      "note": null,
      "is_favorite": false,
      "lat": 42.8456812,
      "lng": 140.6825168,
      "maps_url": "https://www.google.com/maps/search/?api=1&query=MOKA+Italian+Japanese+Restaurant+%E3%82%A4%E3%82%BF%E3%83%AA%E3%82%A2%E3%83%B3%E3%82%B8%E3%83%A3%E3%83%91%E3%83%8B%E3%83%BC%E3%82%BA+%E3%80%8EMOKA%E3%80%8F",
      "cid": "6848479478876601011",
      "google_id": null,
      "maps_place_token": null
    },
    {
      "name": "The Alpinist",
      "address": null,
      "note": null,
      "is_favorite": false,
      "lat": 42.8589762,
      "lng": 140.7047952,
      "maps_url": "https://www.google.com/maps/search/?api=1&query=The+Alpinist",
      "cid": "6848479775299090315",
      "google_id": null,
      "maps_place_token": null
    },
    {
      "name": "Niseko Confidential",
      "address": "1-3-20,Niseko, 2-jo Hirafu, Kutchan, Abuta District, Hokkaido, Japan",
      "note": null,
      "is_favorite": false,
      "lat": 42.858234599999996,
      "lng": 140.70866089999998,
      "maps_url": "https://www.google.com/maps/search/?api=1&query=Niseko+Confidential%2C+1-3-20%2CNiseko%2C+2-jo+Hirafu%2C+Kutchan%2C+Abuta+District%2C+Hokkaido%2C+Japan",
      "cid": "6848480797087853373",
      "google_id": "/g/11wqs7tvl9",
      "maps_place_token": null
    },
    {
      "name": "BAR HAKU NISEKO",
      "address": "〒044-0089 Hokkaido, Abuta District, Kutchan, Nisekohirafu 2 Jo, 1-chome−9−41 The Select 内",
      "note": null,
      "is_favorite": false,
      "lat": 42.8582283,
      "lng": 140.7056724,
      "maps_url": "https://www.google.com/maps/search/?api=1&query=BAR+HAKU+NISEKO%2C+%E3%80%92044-0089+Hokkaido%2C+Abuta+District%2C+Kutchan%2C+Nisekohirafu+2+Jo%2C+1-chome%E2%88%929%E2%88%9241+The+Select+%E5%86%85",
      "cid": "6848480979041151827",
      "google_id": "/g/11lcpv1hz9",
      "maps_place_token": null
    },
    {
      "name": "Asahigaoka Total Park",
      "address": null,
      "note": null,
      "is_favorite": false,
      "lat": 42.9026375,
      "lng": 140.7391345,
      "maps_url": "https://www.google.com/maps/search/?api=1&query=Asahigaoka+Total+Park",
      "cid": "6848490794479217477",
      "google_id": null,
      "maps_place_token": null
    },
    {
      "name": "Mishima-San’s Shibazakura Garden",
      "address": null,
      "note": null,
      "is_favorite": false,
      "lat": 42.9085532,
      "lng": 140.7398844,
      "maps_url": "https://www.google.com/maps/search/?api=1&query=Mishima-San%E2%80%99s+Shibazakura+Garden",
      "cid": "6848492354038123149",
      "google_id": null,
      "maps_place_token": null
    },
    {
      "name": "Fukidashi Park (Spring water drinking point )",
      "address": null,
      "note": null,
      "is_favorite": false,
      "lat": 42.8579782,
      "lng": 140.8688923,
      "maps_url": "https://www.google.com/maps/search/?api=1&query=Fukidashi+Park+%28Spring+water+drinking+point+%29",
      "cid": "6848486989911954027",
      "google_id": null,
      "maps_place_token": null
    },
    {
      "name": "鮨 心 by 宮川 ニセコ / Sushi Shin by Miyakawa Niseko",
      "address": null,
      "note": null,
      "is_favorite": false,
      "lat": 42.8608786,
      "lng": 140.7001894,
      "maps_url": "https://www.google.com/maps/search/?api=1&query=%E9%AE%A8+%E5%BF%83+by+%E5%AE%AE%E5%B7%9D+%E3%83%8B%E3%82%BB%E3%82%B3+%2F+Sushi+Shin+by+Miyakawa+Niseko",
      "cid": "6848479181603686673",
      "google_id": null,
      "maps_place_token": null
    },
    {
      "name": "Ostrich Arishima 2nd farm Niseko",
      "address": null,
      "note": null,
      "is_favorite": false,
      "lat": 42.7808564,
      "lng": 140.7311267,
      "maps_url": "https://www.google.com/maps/search/?api=1&query=Ostrich+Arishima+2nd+farm+Niseko",
      "cid": "6848477271207291815",
      "google_id": null,
      "maps_place_token": null
    },
    {
      "name": "Wakimizu no Sato, Makkari Tofu Kobo",
      "address": null,
      "note": null,
      "is_favorite": false,
      "lat": 42.7831668,
      "lng": 140.7788179,
      "maps_url": "https://www.google.com/maps/search/?api=1&query=Wakimizu+no+Sato%2C+Makkari+Tofu+Kobo",
      "cid": "6848476835626521695",
      "google_id": null,
      "maps_place_token": null
    },
    {
      "name": "Houzuki Udon",
      "address": "340-5 Hirafu, Kutchan, Abuta District, Hokkaido 044-0077",
      "note": null,
      "is_favorite": false,
      "lat": 42.8486632,
      "lng": 140.7405815,
      "maps_url": "https://www.google.com/maps/search/?api=1&query=Houzuki+Udon%2C+340-5+Hirafu%2C+Kutchan%2C+Abuta+District%2C+Hokkaido+044-0077",
      "cid": "6848480035302891297",
      "google_id": "/g/1td2m8j9",
      "maps_place_token": null
    },
    {
      "name": "Nokanosobaya Yoteizan",
      "address": "463-5 Fujimi, Kutchan, Abuta District, Hokkaido 044-0075",
      "note": null,
      "is_favorite": false,
      "lat": 42.8823545,
      "lng": 140.7768625,
      "maps_url": "https://www.google.com/maps/search/?api=1&query=Nokanosobaya+Yoteizan%2C+463-5+Fujimi%2C+Kutchan%2C+Abuta+District%2C+Hokkaido+044-0075",
      "cid": "6848480483476473037",
      "google_id": "/g/1tgkh28b",
      "maps_place_token": null
    },
    {
      "name": "SOUP CURRY LOOP",
      "address": "306 Kyogoku, Abuta District, Hokkaido 044-0101",
      "note": null,
      "is_favorite": false,
      "lat": 42.8603885,
      "lng": 140.884561,
      "maps_url": "https://www.google.com/maps/search/?api=1&query=SOUP+CURRY+LOOP%2C+306+Kyogoku%2C+Abuta+District%2C+Hokkaido+044-0101",
      "cid": "6848487918479445475",
      "google_id": "/g/11vklk8f7g",
      "maps_place_token": null
    },
    {
      "name": "Narita",
      "address": "52-8 Takasago, 字 Kutchan, Abuta District, Hokkaido 044-0076",
      "note": null,
      "is_favorite": false,
      "lat": 42.8836297,
      "lng": 140.76206589999998,
      "maps_url": "https://www.google.com/maps/search/?api=1&query=Narita%2C+52-8+Takasago%2C+%E5%AD%97+Kutchan%2C+Abuta+District%2C+Hokkaido+044-0076",
      "cid": "6848480398974157065",
      "google_id": "/g/1tfx4plq",
      "maps_place_token": null
    },
    {
      "name": "Akaru 明る Japanese Restaurant",
      "address": "〒044-0081 Hokkaido, Abuta District, Kutchan, Yamada, 185-6 山自然west 1F",
      "note": null,
      "is_favorite": false,
      "lat": 42.8611753,
      "lng": 140.7034248,
      "maps_url": "https://www.google.com/maps/search/?api=1&query=Akaru+%E6%98%8E%E3%82%8B+Japanese+Restaurant%2C+%E3%80%92044-0081+Hokkaido%2C+Abuta+District%2C+Kutchan%2C+Yamada%2C+185-6+%E5%B1%B1%E8%87%AA%E7%84%B6west+1F",
      "cid": "6848479755762895461",
      "google_id": "/g/11gg70j47m",
      "maps_place_token": null
    },
    {
      "name": "Niseko Half Note",
      "address": "170-238 Nisekohirafu 2 Jo, Kutchan, Abuta District, Hokkaido 044-0089",
      "note": null,
      "is_favorite": false,
      "lat": 42.8580912,
      "lng": 140.70746599999998,
      "maps_url": "https://www.google.com/maps/search/?api=1&query=Niseko+Half+Note%2C+170-238+Nisekohirafu+2+Jo%2C+Kutchan%2C+Abuta+District%2C+Hokkaido+044-0089",
      "cid": "6848479782388590315",
      "google_id": "/g/11dxdfdmdp",
      "maps_place_token": null
    },
    {
      "name": "杏ダイニング An Dining",
      "address": "〒044-0080 Hokkaido, Abuta District, Kutchan, ニセコひらふ1条3丁目8-5 木ニセコ1F",
      "note": null,
      "is_favorite": false,
      "lat": 42.8631963,
      "lng": 140.7013811,
      "maps_url": "https://www.google.com/maps/search/?api=1&query=%E6%9D%8F%E3%83%80%E3%82%A4%E3%83%8B%E3%83%B3%E3%82%B0+An+Dining%2C+%E3%80%92044-0080+Hokkaido%2C+Abuta+District%2C+Kutchan%2C+%E3%83%8B%E3%82%BB%E3%82%B3%E3%81%B2%E3%82%89%E3%81%B51%E6%9D%A13%E4%B8%81%E7%9B%AE8-5+%E6%9C%A8%E3%83%8B%E3%82%BB%E3%82%B31F",
      "cid": "6848479751158416343",
      "google_id": "/g/11b7h9gtk1",
      "maps_place_token": null
    },
    {
      "name": "すき焼割烹 日山 SUKIYAKI HIYAMA",
      "address": "〒044-0080 Hokkaido, 虻田群俱知安町ニセコひらふ1条3丁目204番地19 MUWA NISEKO B1F",
      "note": null,
      "is_favorite": false,
      "lat": 42.8633988,
      "lng": 140.69965589999998,
      "maps_url": "https://www.google.com/maps/search/?api=1&query=%E3%81%99%E3%81%8D%E7%84%BC%E5%89%B2%E7%83%B9+%E6%97%A5%E5%B1%B1+SUKIYAKI+HIYAMA%2C+%E3%80%92044-0080+Hokkaido%2C+%E8%99%BB%E7%94%B0%E7%BE%A4%E4%BF%B1%E7%9F%A5%E5%AE%89%E7%94%BA%E3%83%8B%E3%82%BB%E3%82%B3%E3%81%B2%E3%82%89%E3%81%B51%E6%9D%A13%E4%B8%81%E7%9B%AE204%E7%95%AA%E5%9C%B019+MUWA+NISEKO+B1F",
      "cid": "6848481351841360463",
      "google_id": "/g/11vf98yz_q",
      "maps_place_token": null
    },
    {
      "name": "川味ニセコ Chuan Niseko Village",
      "address": "919-5 Soga, Niseko, Abuta District, Hokkaido 048-1522",
      "note": null,
      "is_favorite": false,
      "lat": 42.8453474,
      "lng": 140.6829739,
      "maps_url": "https://www.google.com/maps/search/?api=1&query=%E5%B7%9D%E5%91%B3%E3%83%8B%E3%82%BB%E3%82%B3+Chuan+Niseko+Village%2C+919-5+Soga%2C+Niseko%2C+Abuta+District%2C+Hokkaido+048-1522",
      "cid": "6848478598181735295",
      "google_id": "/g/11vm4ypfh7",
      "maps_place_token": null
    },
    {
      "name": "Morideai",
      "address": "2 Chome Minami 4 Jonishi, Kutchan, Abuta District, Hokkaido 044-0034",
      "note": null,
      "is_favorite": false,
      "lat": 42.898992,
      "lng": 140.74948999999998,
      "maps_url": "https://www.google.com/maps/search/?api=1&query=Morideai%2C+2+Chome+Minami+4+Jonishi%2C+Kutchan%2C+Abuta+District%2C+Hokkaido+044-0034",
      "cid": "6848492636101084281",
      "google_id": "/g/11lr_59_y1",
      "maps_place_token": null
    },
    {
      "name": "Family Restaurant ROCO",
      "address": "3 Chome-3 Kita 1 Jonishi, Kutchan, Abuta District, Hokkaido 044-0051",
      "note": null,
      "is_favorite": false,
      "lat": 42.9018673,
      "lng": 140.7467438,
      "maps_url": "https://www.google.com/maps/search/?api=1&query=Family+Restaurant+ROCO%2C+3+Chome-3+Kita+1+Jonishi%2C+Kutchan%2C+Abuta+District%2C+Hokkaido+044-0051",
      "cid": "6848491957407923039",
      "google_id": "/g/11n6ttnbby",
      "maps_place_token": null
    },
    {
      "name": "ロカンダ (L’ocanda)",
      "address": "〒044-0086 Hokkaido, Abuta District, Kutchan, ニセコひらふ5条2丁目７番1号",
      "note": null,
      "is_favorite": false,
      "lat": 42.8640586,
      "lng": 140.7231397,
      "maps_url": "https://www.google.com/maps/search/?api=1&query=%E3%83%AD%E3%82%AB%E3%83%B3%E3%83%80+%28L%E2%80%99ocanda%29%2C+%E3%80%92044-0086+Hokkaido%2C+Abuta+District%2C+Kutchan%2C+%E3%83%8B%E3%82%BB%E3%82%B3%E3%81%B2%E3%82%89%E3%81%B55%E6%9D%A12%E4%B8%81%E7%9B%AE%EF%BC%97%E7%95%AA1%E5%8F%B7",
      "cid": "6848480131867902833",
      "google_id": "/g/12hq94c0y",
      "maps_place_token": null
    },
    {
      "name": "Niseko Yummy's Pizza (ニセコヤミーズピザ)",
      "address": "〒044-0089 Hokkaido, Abuta District, Kutchan, ニセコひらふ２条１丁目3-21",
      "note": null,
      "is_favorite": false,
      "lat": 42.8582402,
      "lng": 140.7085319,
      "maps_url": "https://www.google.com/maps/search/?api=1&query=Niseko+Yummy%27s+Pizza+%28%E3%83%8B%E3%82%BB%E3%82%B3%E3%83%A4%E3%83%9F%E3%83%BC%E3%82%BA%E3%83%94%E3%82%B6%29%2C+%E3%80%92044-0089+Hokkaido%2C+Abuta+District%2C+Kutchan%2C+%E3%83%8B%E3%82%BB%E3%82%B3%E3%81%B2%E3%82%89%E3%81%B5%EF%BC%92%E6%9D%A1%EF%BC%91%E4%B8%81%E7%9B%AE3-21",
      "cid": "6848479782343880003",
      "google_id": "/g/1tfh4f_r",
      "maps_place_token": null
    },
    {
      "name": "Lava Lounge Pizza",
      "address": "3-chome-2-18 Nisekohirafu 1 Jo, Kutchan, Hokkaido 044-0080",
      "note": null,
      "is_favorite": false,
      "lat": 42.8604079,
      "lng": 140.7048404,
      "maps_url": "https://www.google.com/maps/search/?api=1&query=Lava+Lounge+Pizza%2C+3-chome-2-18+Nisekohirafu+1+Jo%2C+Kutchan%2C+Hokkaido+044-0080",
      "cid": "6848479755551200249",
      "google_id": "/g/11bv5s_1b_",
      "maps_place_token": null
    },
    {
      "name": "Graubunden",
      "address": "〒044-0086 Hokkaido, Abuta District, Kutchan, ニセコひらふ５条４丁目２番地６号",
      "note": null,
      "is_favorite": false,
      "lat": 42.8642361,
      "lng": 140.7131664,
      "maps_url": "https://www.google.com/maps/search/?api=1&query=Graubunden%2C+%E3%80%92044-0086+Hokkaido%2C+Abuta+District%2C+Kutchan%2C+%E3%83%8B%E3%82%BB%E3%82%B3%E3%81%B2%E3%82%89%E3%81%B5%EF%BC%95%E6%9D%A1%EF%BC%94%E4%B8%81%E7%9B%AE%EF%BC%92%E7%95%AA%E5%9C%B0%EF%BC%96%E5%8F%B7",
      "cid": "6848480187284856331",
      "google_id": "/g/1tdg7lc1",
      "maps_place_token": null
    },
    {
      "name": "Ruhiel",
      "address": "34-62 Yamada, Kutchan, Abuta District, Hokkaido 044-0081",
      "note": null,
      "is_favorite": false,
      "lat": 42.871189,
      "lng": 140.7251306,
      "maps_url": "https://www.google.com/maps/search/?api=1&query=Ruhiel%2C+34-62+Yamada%2C+Kutchan%2C+Abuta+District%2C+Hokkaido+044-0081",
      "cid": "6848480231182046141",
      "google_id": "/g/1vg_cndd",
      "maps_place_token": null
    },
    {
      "name": "Teuchi-Soba Ichimura",
      "address": "〒044-0087 Hokkaido, Abuta District, Kutchan, ニセコひらふ４条１丁目１–１５",
      "note": null,
      "is_favorite": false,
      "lat": 42.8635357,
      "lng": 140.72434769999998,
      "maps_url": "https://www.google.com/maps/search/?api=1&query=Teuchi-Soba+Ichimura%2C+%E3%80%92044-0087+Hokkaido%2C+Abuta+District%2C+Kutchan%2C+%E3%83%8B%E3%82%BB%E3%82%B3%E3%81%B2%E3%82%89%E3%81%B5%EF%BC%94%E6%9D%A1%EF%BC%91%E4%B8%81%E7%9B%AE%EF%BC%91%E2%80%93%EF%BC%91%EF%BC%95",
      "cid": "6848480175491624681",
      "google_id": "/g/1vd94wyp",
      "maps_place_token": null
    },
    {
      "name": "Goshiki Onsen And Hotel",
      "address": "673番地 Yunosato, Rankoshi, Isoya District, Hokkaido 048-1321",
      "note": null,
      "is_favorite": false,
      "lat": 42.8738257,
      "lng": 140.63742019999998,
      "maps_url": "https://www.google.com/maps/search/?api=1&query=Goshiki+Onsen+And+Hotel%2C+673%E7%95%AA%E5%9C%B0+Yunosato%2C+Rankoshi%2C+Isoya+District%2C+Hokkaido+048-1321",
      "cid": "6848467816718410471",
      "google_id": "/g/1233lvjn",
      "maps_place_token": null
    },
    {
      "name": "Waisu Onsen",
      "address": "256-35 Waisu, Kyowa, Iwanai District, Hokkaido 048-2141",
      "note": null,
      "is_favorite": false,
      "lat": 42.9599122,
      "lng": 140.695583,
      "maps_url": "https://www.google.com/maps/search/?api=1&query=Waisu+Onsen%2C+256-35+Waisu%2C+Kyowa%2C+Iwanai+District%2C+Hokkaido+048-2141",
      "cid": "6848495877731101005",
      "google_id": "/g/1tykv55q",
      "maps_place_token": null
    },
    {
      "name": "Yukichichibu Onsen",
      "address": "680 Yunosato, Rankoshi, Isoya District, Hokkaido 048-1321",
      "note": null,
      "is_favorite": false,
      "lat": 42.869577299999996,
      "lng": 140.5982598,
      "maps_url": "https://www.google.com/maps/search/?api=1&query=Yukichichibu+Onsen%2C+680+Yunosato%2C+Rankoshi%2C+Isoya+District%2C+Hokkaido+048-1321",
      "cid": "6848467591210413135",
      "google_id": "/g/1tnqgsfd",
      "maps_place_token": null
    },
    {
      "name": "Rusutsu Onsen - Kotobuki-no-yu",
      "address": "13 Izumikawa, Rusutsu, Abuta District, Hokkaido 048-1711",
      "note": null,
      "is_favorite": false,
      "lat": 42.7539703,
      "lng": 140.9022681,
      "maps_url": "https://www.google.com/maps/search/?api=1&query=Rusutsu+Onsen+-+Kotobuki-no-yu%2C+13+Izumikawa%2C+Rusutsu%2C+Abuta+District%2C+Hokkaido+048-1711",
      "cid": "6878488731191604447",
      "google_id": "/g/1vnnj64q",
      "maps_place_token": null
    },
    {
      "name": "Kiko図 -Kikoz-",
      "address": "332-3 Fushimi, Kimobetsu, Abuta District, Hokkaido 044-0221",
      "note": null,
      "is_favorite": false,
      "lat": 42.797728299999996,
      "lng": 140.9574932,
      "maps_url": "https://www.google.com/maps/search/?api=1&query=Kiko%E5%9B%B3+-Kikoz-%2C+332-3+Fushimi%2C+Kimobetsu%2C+Abuta+District%2C+Hokkaido+044-0221",
      "cid": "6878486994544028649",
      "google_id": "/g/11hz41_h_x",
      "maps_place_token": null
    },
    {
      "name": "le mantaro",
      "address": "470-3 Koshin, Kyogoku, Abuta District, Hokkaido 044-0132",
      "note": null,
      "is_favorite": false,
      "lat": 42.8253254,
      "lng": 140.890752,
      "maps_url": "https://www.google.com/maps/search/?api=1&query=le+mantaro%2C+470-3+Koshin%2C+Kyogoku%2C+Abuta+District%2C+Hokkaido+044-0132",
      "cid": "6848486066854698623",
      "google_id": "/g/11ptm5j_2z",
      "maps_place_token": null
    },
    {
      "name": "Dan Niseko",
      "address": "741-36 Kondo, Niseko, Abuta District, Hokkaido 048-1542",
      "note": null,
      "is_favorite": false,
      "lat": 42.7970639,
      "lng": 140.7539352,
      "maps_url": "https://www.google.com/maps/search/?api=1&query=Dan+Niseko%2C+741-36+Kondo%2C+Niseko%2C+Abuta+District%2C+Hokkaido+048-1542",
      "cid": "6848477008549037867",
      "google_id": "/g/11rqs1p6dy",
      "maps_place_token": null
    },
    {
      "name": "Hirafu Welcome Center",
      "address": "〒044-0080 Hokkaido, Abuta District, Kutchan, ニセコひらふ１条３丁目９–３１",
      "note": null,
      "is_favorite": false,
      "lat": 42.8625489,
      "lng": 140.6986141,
      "maps_url": "https://www.google.com/maps/search/?api=1&query=Hirafu+Welcome+Center%2C+%E3%80%92044-0080+Hokkaido%2C+Abuta+District%2C+Kutchan%2C+%E3%83%8B%E3%82%BB%E3%82%B3%E3%81%B2%E3%82%89%E3%81%B5%EF%BC%91%E6%9D%A1%EF%BC%93%E4%B8%81%E7%9B%AE%EF%BC%99%E2%80%93%EF%BC%93%EF%BC%91",
      "cid": "6848479749482002337",
      "google_id": "/g/11c5fzbrhk",
      "maps_place_token": null
    },
    {
      "name": "TOSHIRO’S BAR トシローズバー",
      "address": "〒044-0080 Hokkaido, Abuta District, Kutchan, Nisekohirafu 1 Jo, 4-chome−5−32 SANSUI NISEKO",
      "note": null,
      "is_favorite": false,
      "lat": 42.8608568,
      "lng": 140.7002302,
      "maps_url": "https://www.google.com/maps/search/?api=1&query=TOSHIRO%E2%80%99S+BAR+%E3%83%88%E3%82%B7%E3%83%AD%E3%83%BC%E3%82%BA%E3%83%90%E3%83%BC%2C+%E3%80%92044-0080+Hokkaido%2C+Abuta+District%2C+Kutchan%2C+Nisekohirafu+1+Jo%2C+4-chome%E2%88%925%E2%88%9232+SANSUI+NISEKO",
      "cid": "6848479772675589707",
      "google_id": "/g/11b6_cnxx7",
      "maps_place_token": null
    },
    {
      "name": "SOMOZA Gallery, Chefs table, Exhibition and Event Space",
      "address": "７８-5 Hanazono, Kutchan, Abuta District, Hokkaido 044-0084",
      "note": null,
      "is_favorite": false,
      "lat": 42.9077208,
      "lng": 140.674733,
      "maps_url": "https://www.google.com/maps/search/?api=1&query=SOMOZA+Gallery%2C+Chefs+table%2C+Exhibition+and+Event+Space%2C+%EF%BC%97%EF%BC%98-5+Hanazono%2C+Kutchan%2C+Abuta+District%2C+Hokkaido+044-0084",
      "cid": "6848492521052536295",
      "google_id": "/g/11c6dzqmt4",
      "maps_place_token": null
    },
    {
      "name": "The Day: Mountain Kiosk Coffee Stand",
      "address": "〒044-0080 Hokkaido, Abuta District, Kutchan, Nisekohirafu 1 Jo, 3-chome−9−31 MOUNTAIN KIOSK COFFEE",
      "note": null,
      "is_favorite": false,
      "lat": 42.8624803,
      "lng": 140.6986243,
      "maps_url": "https://www.google.com/maps/search/?api=1&query=The+Day%3A+Mountain+Kiosk+Coffee+Stand%2C+%E3%80%92044-0080+Hokkaido%2C+Abuta+District%2C+Kutchan%2C+Nisekohirafu+1+Jo%2C+3-chome%E2%88%929%E2%88%9231+MOUNTAIN+KIOSK+COFFEE",
      "cid": "6848479749022877313",
      "google_id": "/g/11bccm7jjl",
      "maps_place_token": null
    },
    {
      "name": "Niseko Bang Bang",
      "address": "〒044-0080 Hokkaido, Abuta District, Kutchan, Nisekohirafu 1 Jo, 188-24 ニセコひらふ1条4丁目5-47-2",
      "note": null,
      "is_favorite": false,
      "lat": 42.8599215,
      "lng": 140.7016993,
      "maps_url": "https://www.google.com/maps/search/?api=1&query=Niseko+Bang+Bang%2C+%E3%80%92044-0080+Hokkaido%2C+Abuta+District%2C+Kutchan%2C+Nisekohirafu+1+Jo%2C+188-24+%E3%83%8B%E3%82%BB%E3%82%B3%E3%81%B2%E3%82%89%E3%81%B51%E6%9D%A14%E4%B8%81%E7%9B%AE5-47-2",
      "cid": "6848479757790689467",
      "google_id": "/g/1wfvmfn3",
      "maps_place_token": null
    },
    {
      "name": "Winter Whale Lodge",
      "address": "2 Chome-2-58 Minami 4 Jonishi, Kutchan, Abuta District, Hokkaido 044-0034",
      "note": "My ski lodge 😉",
      "is_favorite": false,
      "lat": 42.897809599999995,
      "lng": 140.7499934,
      "maps_url": "https://www.google.com/maps/search/?api=1&query=Winter+Whale+Lodge%2C+2+Chome-2-58+Minami+4+Jonishi%2C+Kutchan%2C+Abuta+District%2C+Hokkaido+044-0034",
      "cid": "6848492509589212713",
      "google_id": "/g/11vrthm0gp",
      "maps_place_token": null
    },
    {
      "name": "Soba Dining Usagiya",
      "address": "1 Chome-1-1 Kita 2 Jonishi, Kutchan, Abuta District, Hokkaido 044-0052",
      "note": null,
      "is_favorite": false,
      "lat": 42.9024911,
      "lng": 140.7504912,
      "maps_url": "https://www.google.com/maps/search/?api=1&query=Soba+Dining+Usagiya%2C+1+Chome-1-1+Kita+2+Jonishi%2C+Kutchan%2C+Abuta+District%2C+Hokkaido+044-0052",
      "cid": "6848490814442448543",
      "google_id": "/g/1tf35rfp",
      "maps_place_token": null
    },
    {
      "name": "Crab Dining Kanon",
      "address": "〒044-0089 Hokkaido, Abuta District, Kutchan, ニセコひらふ２条１丁目1-20",
      "note": null,
      "is_favorite": false,
      "lat": 42.859927,
      "lng": 140.70693119999999,
      "maps_url": "https://www.google.com/maps/search/?api=1&query=Crab+Dining+Kanon%2C+%E3%80%92044-0089+Hokkaido%2C+Abuta+District%2C+Kutchan%2C+%E3%83%8B%E3%82%BB%E3%82%B3%E3%81%B2%E3%82%89%E3%81%B5%EF%BC%92%E6%9D%A1%EF%BC%91%E4%B8%81%E7%9B%AE1-20",
      "cid": "6848479776362256029",
      "google_id": "/g/11bwywj5_j",
      "maps_place_token": null
    },
    {
      "name": "大衆バル JAM",
      "address": "〒044-0080 Hokkaido, Abuta District, Kutchan, ニセコひらふ1条3丁目5-41",
      "note": null,
      "is_favorite": false,
      "lat": 42.8608359,
      "lng": 140.70399229999998,
      "maps_url": "https://www.google.com/maps/search/?api=1&query=%E5%A4%A7%E8%A1%86%E3%83%90%E3%83%AB+JAM%2C+%E3%80%92044-0080+Hokkaido%2C+Abuta+District%2C+Kutchan%2C+%E3%83%8B%E3%82%BB%E3%82%B3%E3%81%B2%E3%82%89%E3%81%B51%E6%9D%A13%E4%B8%81%E7%9B%AE5-41",
      "cid": "6848479755730617017",
      "google_id": "/g/11b7hhdcd3",
      "maps_place_token": null
    },
    {
      "name": "Izakaya Koharuya",
      "address": "155-14 Nisekohirafu 2 Jo, Kutchan, Abuta District, Hokkaido 044-0089",
      "note": null,
      "is_favorite": false,
      "lat": 42.8559215,
      "lng": 140.7085798,
      "maps_url": "https://www.google.com/maps/search/?api=1&query=Izakaya+Koharuya%2C+155-14+Nisekohirafu+2+Jo%2C+Kutchan%2C+Abuta+District%2C+Hokkaido+044-0089",
      "cid": "6848479783249738583",
      "google_id": "/g/11c4tfh00t",
      "maps_place_token": null
    },
    {
      "name": "Rin Japanese restaurant （飲み喰い処 りん）",
      "address": "〒044-0089 Hokkaido, Abuta District, Kutchan, ニセコひらふ2条1丁目13番2号",
      "note": null,
      "is_favorite": false,
      "lat": 42.857199099999995,
      "lng": 140.7088451,
      "maps_url": "https://www.google.com/maps/search/?api=1&query=Rin+Japanese+restaurant+%EF%BC%88%E9%A3%B2%E3%81%BF%E5%96%B0%E3%81%84%E5%87%A6+%E3%82%8A%E3%82%93%EF%BC%89%2C+%E3%80%92044-0089+Hokkaido%2C+Abuta+District%2C+Kutchan%2C+%E3%83%8B%E3%82%BB%E3%82%B3%E3%81%B2%E3%82%89%E3%81%B52%E6%9D%A11%E4%B8%81%E7%9B%AE13%E7%95%AA2%E5%8F%B7",
      "cid": "6848479783080496579",
      "google_id": "/g/11b6z_zp89",
      "maps_place_token": null
    },
    {
      "name": "MAME niseko",
      "address": "〒044-0089 Hokkaido, Abuta District, Kutchan, Nisekohirafu 2 Jo, 1-chome−6−14 1F Dharma Niseko",
      "note": null,
      "is_favorite": false,
      "lat": 42.8589287,
      "lng": 140.70661139999999,
      "maps_url": "https://www.google.com/maps/search/?api=1&query=MAME+niseko%2C+%E3%80%92044-0089+Hokkaido%2C+Abuta+District%2C+Kutchan%2C+Nisekohirafu+2+Jo%2C+1-chome%E2%88%926%E2%88%9214+1F+Dharma+Niseko",
      "cid": "6848480836206588873",
      "google_id": "/g/11s9dchgpx",
      "maps_place_token": null
    },
    {
      "name": "Japanese Kitchen & A snug Japanese pub REN",
      "address": "〒044-0080 Hokkaido, Abuta District, Kutchan, Nisekohirafu 1 Jo, 2町目4, 14号",
      "note": null,
      "is_favorite": false,
      "lat": 42.8623232,
      "lng": 140.7078792,
      "maps_url": "https://www.google.com/maps/search/?api=1&query=Japanese+Kitchen+%26+A+snug+Japanese+pub+REN%2C+%E3%80%92044-0080+Hokkaido%2C+Abuta+District%2C+Kutchan%2C+Nisekohirafu+1+Jo%2C+2%E7%94%BA%E7%9B%AE4%2C+14%E5%8F%B7",
      "cid": "6848479754456684187",
      "google_id": "/g/11hbc2l2w0",
      "maps_place_token": null
    },
    {
      "name": "Steak Rosso Rosso",
      "address": "〒044-0089 Hokkaido, Abuta District, Kutchan, Nisekohirafu 2 Jo, 1-chome−10−9 ニセコひらふ2条1丁目10番9号",
      "note": null,
      "is_favorite": false,
      "lat": 42.8574505,
      "lng": 140.7068313,
      "maps_url": "https://www.google.com/maps/search/?api=1&query=Steak+Rosso+Rosso%2C+%E3%80%92044-0089+Hokkaido%2C+Abuta+District%2C+Kutchan%2C+Nisekohirafu+2+Jo%2C+1-chome%E2%88%9210%E2%88%929+%E3%83%8B%E3%82%BB%E3%82%B3%E3%81%B2%E3%82%89%E3%81%B52%E6%9D%A11%E4%B8%81%E7%9B%AE10%E7%95%AA9%E5%8F%B7",
      "cid": "6848479772546936623",
      "google_id": "/g/1tsyj_15",
      "maps_place_token": null
    },
    {
      "name": "Rodeo Drive",
      "address": "24 Izumikawa, 虻田郡留寿都村 Abuta District, Hokkaido 048-1711",
      "note": null,
      "is_favorite": false,
      "lat": 42.7525561,
      "lng": 140.90479679999999,
      "maps_url": "https://www.google.com/maps/search/?api=1&query=Rodeo+Drive%2C+24+Izumikawa%2C+%E8%99%BB%E7%94%B0%E9%83%A1%E7%95%99%E5%AF%BF%E9%83%BD%E6%9D%91+Abuta+District%2C+Hokkaido+048-1711",
      "cid": "6878488735176822451",
      "google_id": "/g/1tdx8hxj",
      "maps_place_token": null
    },
    {
      "name": "Niseko Takahashi Dairy Farm MILK KOBO",
      "address": "888-1 Soga, Niseko, Abuta District, Hokkaido 048-1522",
      "note": null,
      "is_favorite": false,
      "lat": 42.836771,
      "lng": 140.675442,
      "maps_url": "https://www.google.com/maps/search/?api=1&query=Niseko+Takahashi+Dairy+Farm+MILK+KOBO%2C+888-1+Soga%2C+Niseko%2C+Abuta+District%2C+Hokkaido+048-1522",
      "cid": "6848479423338560827",
      "google_id": "/g/1vfn6fxj",
      "maps_place_token": null
    },
    {
      "name": "Pi-kan rollpizza.",
      "address": "260-1 Kondo, Niseko, Abuta District, Hokkaido 048-1542",
      "note": null,
      "is_favorite": false,
      "lat": 42.797793899999995,
      "lng": 140.7297347,
      "maps_url": "https://www.google.com/maps/search/?api=1&query=Pi-kan+rollpizza.%2C+260-1+Kondo%2C+Niseko%2C+Abuta+District%2C+Hokkaido+048-1542",
      "cid": "6848478003188120115",
      "google_id": "/g/11dyp00ckv",
      "maps_place_token": null
    },
    {
      "name": "Niseko Takahashi Dairy Farm MANDRIANO",
      "address": "888-1 Soga, ニセコ町 Niseko, Abuta District, Hokkaido 048-1522",
      "note": null,
      "is_favorite": false,
      "lat": 42.8381335,
      "lng": 140.6759033,
      "maps_url": "https://www.google.com/maps/search/?api=1&query=Niseko+Takahashi+Dairy+Farm+MANDRIANO%2C+888-1+Soga%2C+%E3%83%8B%E3%82%BB%E3%82%B3%E7%94%BA+Niseko%2C+Abuta+District%2C+Hokkaido+048-1522",
      "cid": "6848479604932793223",
      "google_id": "/g/11g87kl0jl",
      "maps_place_token": null
    },
    {
      "name": "Tomone Pocha",
      "address": "1 Chome-13-7 Kita 1 Jonishi, Kutchan, Abuta District, Hokkaido 044-0051",
      "note": null,
      "is_favorite": false,
      "lat": 42.9022551,
      "lng": 140.7516449,
      "maps_url": "https://www.google.com/maps/search/?api=1&query=Tomone+Pocha%2C+1+Chome-13-7+Kita+1+Jonishi%2C+Kutchan%2C+Abuta+District%2C+Hokkaido+044-0051",
      "cid": "6848490815206859019",
      "google_id": "/g/1ptx_c2yc",
      "maps_place_token": null
    },
    {
      "name": "Chiharu Zushi",
      "address": "1 Chome Kita 1 Jonishi, Kutchan, Abuta District, Hokkaido 044-0051",
      "note": null,
      "is_favorite": false,
      "lat": 42.902279799999995,
      "lng": 140.75052789999998,
      "maps_url": "https://www.google.com/maps/search/?api=1&query=Chiharu+Zushi%2C+1+Chome+Kita+1+Jonishi%2C+Kutchan%2C+Abuta+District%2C+Hokkaido+044-0051",
      "cid": "6848490815220721387",
      "google_id": "/g/1tf3nq0p",
      "maps_place_token": null
    },
    {
      "name": "Kasseki Dining",
      "address": "1 Chome-8 Kita 1 Jonishi, Kutchan, Abuta District, Hokkaido 044-0051",
      "note": null,
      "is_favorite": false,
      "lat": 42.9022912,
      "lng": 140.7508714,
      "maps_url": "https://www.google.com/maps/search/?api=1&query=Kasseki+Dining%2C+1+Chome-8+Kita+1+Jonishi%2C+Kutchan%2C+Abuta+District%2C+Hokkaido+044-0051",
      "cid": "6848490815049706173",
      "google_id": "/g/11b8zqw080",
      "maps_place_token": null
    },
    {
      "name": "満足食堂",
      "address": null,
      "note": null,
      "is_favorite": false,
      "lat": 42.902866599999996,
      "lng": 140.7519462,
      "maps_url": "https://www.google.com/maps/search/?api=1&query=%E6%BA%80%E8%B6%B3%E9%A3%9F%E5%A0%82",
      "cid": "6848490816911719365",
      "google_id": null,
      "maps_place_token": null
    },
    {
      "name": "ジンギスカン えいじん 倶知安店（Genghis Khan Eijin Kucchan)",
      "address": "1 Chome-11-4 Kita 3 Jonishi, Kutchan, Abuta District, Hokkaido 044-0053",
      "note": null,
      "is_favorite": false,
      "lat": 42.9031789,
      "lng": 140.7519298,
      "maps_url": "https://www.google.com/maps/search/?api=1&query=%E3%82%B8%E3%83%B3%E3%82%AE%E3%82%B9%E3%82%AB%E3%83%B3+%E3%81%88%E3%81%84%E3%81%98%E3%82%93+%E5%80%B6%E7%9F%A5%E5%AE%89%E5%BA%97%EF%BC%88Genghis+Khan+Eijin+Kucchan%29%2C+1+Chome-11-4+Kita+3+Jonishi%2C+Kutchan%2C+Abuta+District%2C+Hokkaido+044-0053",
      "cid": "6848492350453652237",
      "google_id": "/g/11rq8ns07p",
      "maps_place_token": null
    },
    {
      "name": "Boom Sports",
      "address": "1 Chome-12-2 Minami 1 Jonishi, Kutchan, Abuta District, Hokkaido 044-0031",
      "note": null,
      "is_favorite": false,
      "lat": 42.901358099999996,
      "lng": 140.7511781,
      "maps_url": "https://www.google.com/maps/search/?api=1&query=Boom+Sports%2C+1+Chome-12-2+Minami+1+Jonishi%2C+Kutchan%2C+Abuta+District%2C+Hokkaido+044-0031",
      "cid": "6848490815463590435",
      "google_id": "/g/11bwp5tprv",
      "maps_place_token": null
    },
    {
      "name": "スポーツたきぐち(Sports Takiguchi) 倶知安店",
      "address": "1 Chome-2 Minami 1 Jonishi, Kutchan, Abuta District, Hokkaido 044-0031",
      "note": null,
      "is_favorite": false,
      "lat": 42.901373299999996,
      "lng": 140.7507298,
      "maps_url": "https://www.google.com/maps/search/?api=1&query=%E3%82%B9%E3%83%9D%E3%83%BC%E3%83%84%E3%81%9F%E3%81%8D%E3%81%90%E3%81%A1%28Sports+Takiguchi%29+%E5%80%B6%E7%9F%A5%E5%AE%89%E5%BA%97%2C+1+Chome-2+Minami+1+Jonishi%2C+Kutchan%2C+Abuta+District%2C+Hokkaido+044-0031",
      "cid": "6848490810224810153",
      "google_id": "/g/1thhk955",
      "maps_place_token": null
    },
    {
      "name": "Rhythm Hirafu, Niseko",
      "address": "3-chome-7-6 Nisekohirafu 1 Jo, Kutchan, Abuta District, Hokkaido 044-0080",
      "note": null,
      "is_favorite": false,
      "lat": 42.8620879,
      "lng": 140.7022824,
      "maps_url": "https://www.google.com/maps/search/?api=1&query=Rhythm+Hirafu%2C+Niseko%2C+3-chome-7-6+Nisekohirafu+1+Jo%2C+Kutchan%2C+Abuta+District%2C+Hokkaido+044-0080",
      "cid": "6848479775142088167",
      "google_id": "/g/1th1cj1m",
      "maps_place_token": null
    },
    {
      "name": "Baby Crosta",
      "address": "Higashiyama, Niseko, Abuta District, Hokkaido 048-1521",
      "note": null,
      "is_favorite": false,
      "lat": 42.8458512,
      "lng": 140.6831959,
      "maps_url": "https://www.google.com/maps/search/?api=1&query=Baby+Crosta%2C+Higashiyama%2C+Niseko%2C+Abuta+District%2C+Hokkaido+048-1521",
      "cid": "6848478599013793875",
      "google_id": "/g/11lcgv9095",
      "maps_place_token": null
    },
    {
      "name": "China Kitchen (チャイナキッチン)",
      "address": "Aza, 328-47 Iwaobetsu, Kutchan, Abuta District, Hokkaido 044-0082",
      "note": null,
      "is_favorite": false,
      "lat": 42.893202699999996,
      "lng": 140.6975685,
      "maps_url": "https://www.google.com/maps/search/?api=1&query=China+Kitchen+%28%E3%83%81%E3%83%A3%E3%82%A4%E3%83%8A%E3%82%AD%E3%83%83%E3%83%81%E3%83%B3%29%2C+Aza%2C+328-47+Iwaobetsu%2C+Kutchan%2C+Abuta+District%2C+Hokkaido+044-0082",
      "cid": "6848492848783530123",
      "google_id": "/g/11j2f_q6bm",
      "maps_place_token": null
    },
    {
      "name": "Ezo Seafoods FRESH",
      "address": "170-165 Nisekohirafu 2 Jo, Kutchan, Abuta District, Hokkaido 044-0089",
      "note": null,
      "is_favorite": false,
      "lat": 42.8588561,
      "lng": 140.7062214,
      "maps_url": "https://www.google.com/maps/search/?api=1&query=Ezo+Seafoods+FRESH%2C+170-165+Nisekohirafu+2+Jo%2C+Kutchan%2C+Abuta+District%2C+Hokkaido+044-0089",
      "cid": "6848479782343880003",
      "google_id": "/g/1tgvdf52",
      "maps_place_token": null
    },
    {
      "name": "Bar Gyu+",
      "address": "〒044-0089 Hokkaido, Abuta District, Kutchan, ニセコひらふ2条3丁目1-50",
      "note": null,
      "is_favorite": false,
      "lat": 42.8567743,
      "lng": 140.70694179999998,
      "maps_url": "https://www.google.com/maps/search/?api=1&query=Bar+Gyu%2B%2C+%E3%80%92044-0089+Hokkaido%2C+Abuta+District%2C+Kutchan%2C+%E3%83%8B%E3%82%BB%E3%82%B3%E3%81%B2%E3%82%89%E3%81%B52%E6%9D%A13%E4%B8%81%E7%9B%AE1-50",
      "cid": "6848479771929776055",
      "google_id": "/g/1td47r_j",
      "maps_place_token": null
    },
    {
      "name": "Ebisutei",
      "address": null,
      "note": null,
      "is_favorite": false,
      "lat": 42.8555711,
      "lng": 140.7086398,
      "maps_url": "https://www.google.com/maps/search/?api=1&query=Ebisutei",
      "cid": "6848479794666957613",
      "google_id": null,
      "maps_place_token": null
    },
    {
      "name": "Niseko Pizza",
      "address": "1 Chome-1-14 Minami 6 Johigashi, Kutchan, Abuta District, Hokkaido 044-0016",
      "note": null,
      "is_favorite": false,
      "lat": 42.895199399999996,
      "lng": 140.75243,
      "maps_url": "https://www.google.com/maps/search/?api=1&query=Niseko+Pizza%2C+1+Chome-1-14+Minami+6+Johigashi%2C+Kutchan%2C+Abuta+District%2C+Hokkaido+044-0016",
      "cid": "6848479757155760941",
      "google_id": "/g/1tfwd8s5",
      "maps_place_token": null
    },
    {
      "name": "中國厨房 広華",
      "address": null,
      "note": null,
      "is_favorite": false,
      "lat": 42.9042542,
      "lng": 140.7493665,
      "maps_url": "https://www.google.com/maps/search/?api=1&query=%E4%B8%AD%E5%9C%8B%E5%8E%A8%E6%88%BF+%E5%BA%83%E8%8F%AF",
      "cid": "6848490813336906825",
      "google_id": null,
      "maps_place_token": null
    },
    {
      "name": "Yakitori Torimatsu",
      "address": null,
      "note": null,
      "is_favorite": false,
      "lat": 42.9039417,
      "lng": 140.7511707,
      "maps_url": "https://www.google.com/maps/search/?api=1&query=Yakitori+Torimatsu",
      "cid": "6848490813730340967",
      "google_id": null,
      "maps_place_token": null
    },
    {
      "name": "たる鮨",
      "address": null,
      "note": null,
      "is_favorite": false,
      "lat": 42.9019834,
      "lng": 140.7512942,
      "maps_url": "https://www.google.com/maps/search/?api=1&query=%E3%81%9F%E3%82%8B%E9%AE%A8",
      "cid": "6848490815220721387",
      "google_id": null,
      "maps_place_token": null
    },
    {
      "name": "Pyram Organics & Plants",
      "address": null,
      "note": null,
      "is_favorite": false,
      "lat": 42.728648799999995,
      "lng": 140.795602,
      "maps_url": "https://www.google.com/maps/search/?api=1&query=Pyram+Organics+%26+Plants",
      "cid": "6848492756458902511",
      "google_id": null,
      "maps_place_token": null
    },
    {
      "name": "J's Corner Grill",
      "address": null,
      "note": null,
      "is_favorite": false,
      "lat": 42.9016472,
      "lng": 140.74644709999998,
      "maps_url": "https://www.google.com/maps/search/?api=1&query=J%27s+Corner+Grill",
      "cid": "6848490811509742173",
      "google_id": null,
      "maps_place_token": null
    },
    {
      "name": "Molière Montagne",
      "address": null,
      "note": null,
      "is_favorite": false,
      "lat": 42.8931024,
      "lng": 140.6972983,
      "maps_url": "https://www.google.com/maps/search/?api=1&query=Moli%C3%A8re+Montagne",
      "cid": "6848492103963061699",
      "google_id": null,
      "maps_place_token": null
    },
    {
      "name": "Green Farm Cafe グリーンファームカフェ",
      "address": null,
      "note": null,
      "is_favorite": false,
      "lat": 42.860119,
      "lng": 140.705963,
      "maps_url": "https://www.google.com/maps/search/?api=1&query=Green+Farm+Cafe+%E3%82%B0%E3%83%AA%E3%83%BC%E3%83%B3%E3%83%95%E3%82%A1%E3%83%BC%E3%83%A0%E3%82%AB%E3%83%95%E3%82%A7",
      "cid": "6848479775397095675",
      "google_id": null,
      "maps_place_token": null
    },
    {
      "name": "トゥクトゥク Tuk Tuk",
      "address": null,
      "note": null,
      "is_favorite": false,
      "lat": 42.8590471,
      "lng": 140.7060486,
      "maps_url": "https://www.google.com/maps/search/?api=1&query=%E3%83%88%E3%82%A5%E3%82%AF%E3%83%88%E3%82%A5%E3%82%AF+Tuk+Tuk",
      "cid": "6848479775780208369",
      "google_id": null,
      "maps_place_token": null
    },
    {
      "name": "Musu Bar + Bistro",
      "address": null,
      "note": null,
      "is_favorite": false,
      "lat": 42.858908,
      "lng": 140.7047041,
      "maps_url": "https://www.google.com/maps/search/?api=1&query=Musu+Bar+%2B+Bistro",
      "cid": "6848479775296818955",
      "google_id": null,
      "maps_place_token": null
    },
    {
      "name": "Otsukisama and Bar Moon",
      "address": null,
      "note": null,
      "is_favorite": false,
      "lat": 42.859073599999995,
      "lng": 140.70824589999998,
      "maps_url": "https://www.google.com/maps/search/?api=1&query=Otsukisama+and+Bar+Moon",
      "cid": "6848479775363838825",
      "google_id": null,
      "maps_place_token": null
    },
    {
      "name": "The BARN BY ODIN",
      "address": null,
      "note": null,
      "is_favorite": false,
      "lat": 42.858351899999995,
      "lng": 140.7070378,
      "maps_url": "https://www.google.com/maps/search/?api=1&query=The+BARN+BY+ODIN",
      "cid": "6848479782343880003",
      "google_id": null,
      "maps_place_token": null
    },
    {
      "name": "The Red House",
      "address": null,
      "note": null,
      "is_favorite": false,
      "lat": 42.7501245,
      "lng": 140.9036604,
      "maps_url": "https://www.google.com/maps/search/?api=1&query=The+Red+House",
      "cid": "6878488730877261659",
      "google_id": null,
      "maps_place_token": null
    },
    {
      "name": "Rusutsu Sakaba",
      "address": null,
      "note": null,
      "is_favorite": false,
      "lat": 42.750956599999995,
      "lng": 140.9036076,
      "maps_url": "https://www.google.com/maps/search/?api=1&query=Rusutsu+Sakaba",
      "cid": "6878489579546060585",
      "google_id": null,
      "maps_place_token": null
    },
    {
      "name": "Tanpopo Shokud",
      "address": null,
      "note": null,
      "is_favorite": false,
      "lat": 42.7526267,
      "lng": 140.9048058,
      "maps_url": "https://www.google.com/maps/search/?api=1&query=Tanpopo+Shokud",
      "cid": "6878488735916616777",
      "google_id": null,
      "maps_place_token": null
    },
    {
      "name": "Maccarina Restaurant",
      "address": null,
      "note": null,
      "is_favorite": false,
      "lat": 42.7664802,
      "lng": 140.7791163,
      "maps_url": "https://www.google.com/maps/search/?api=1&query=Maccarina+Restaurant",
      "cid": "6848476458617719779",
      "google_id": null,
      "maps_place_token": null
    },
    {
      "name": "Pizza Del Sole",
      "address": null,
      "note": null,
      "is_favorite": false,
      "lat": 42.846472999999996,
      "lng": 140.6455767,
      "maps_url": "https://www.google.com/maps/search/?api=1&query=Pizza+Del+Sole",
      "cid": "6848468023584130771",
      "google_id": null,
      "maps_place_token": null
    },
    {
      "name": "Karabina",
      "address": null,
      "note": null,
      "is_favorite": false,
      "lat": 42.8427183,
      "lng": 140.6395771,
      "maps_url": "https://www.google.com/maps/search/?api=1&query=Karabina",
      "cid": "6848479180939492605",
      "google_id": null,
      "maps_place_token": null
    },
    {
      "name": "Rakuichi Soba",
      "address": null,
      "note": null,
      "is_favorite": false,
      "lat": 42.8428222,
      "lng": 140.640139,
      "maps_url": "https://www.google.com/maps/search/?api=1&query=Rakuichi+Soba",
      "cid": "6848479180476370903",
      "google_id": null,
      "maps_place_token": null
    },
    {
      "name": "Niseko Loft Club",
      "address": null,
      "note": null,
      "is_favorite": false,
      "lat": 42.8332772,
      "lng": 140.6568709,
      "maps_url": "https://www.google.com/maps/search/?api=1&query=Niseko+Loft+Club",
      "cid": "6848479258495582779",
      "google_id": null,
      "maps_place_token": null
    },
    {
      "name": "BLACK WOOD GRILL",
      "address": null,
      "note": null,
      "is_favorite": false,
      "lat": 42.836846,
      "lng": 140.7064091,
      "maps_url": "https://www.google.com/maps/search/?api=1&query=BLACK+WOOD+GRILL",
      "cid": "6848478737335180245",
      "google_id": null,
      "maps_place_token": null
    },
    {
      "name": "Cucina italiana Santo",
      "address": null,
      "note": null,
      "is_favorite": false,
      "lat": 42.8342378,
      "lng": 140.703511,
      "maps_url": "https://www.google.com/maps/search/?api=1&query=Cucina+italiana+Santo",
      "cid": "6848491957915804771",
      "google_id": null,
      "maps_place_token": null
    }
  ]
}
