{
  "fetched_at": "2026-04-20T16:07:25.551507+00:00",
  "refresh_after": "2026-05-07T01:01:16.551507+00:00",
  "source_signature": "5d190bfd375e0d2eb23753247bf335bc15251e1069270133dc1311c3418257b1",
  "configured_source_type": "google_list_url",
  "configured_source_url": "https://maps.app.goo.gl/R8XJpoWKeWakhhRa6",
  "configured_source_path": null,
  "source_url": "https://maps.app.goo.gl/R8XJpoWKeWakhhRa6",
  "list_id": "zZ70DHoCp-a1jS0qC3ToK6HY5mkdRg",
  "title": "Toyama, Japan 🇯🇵",
  "description": "Michael’s Toyama, Japan 🇯🇵 bookmarks. See https://beacons.ai/demflyers for more.",
  "places": [
    {
      "name": "Cuisine régionale L'évo",
      "address": "〒939-2518 Toyama, Nanto, Togamura Taikanba, 田島100番地",
      "note": null,
      "is_favorite": false,
      "lat": 36.401409799999996,
      "lng": 136.9943813,
      "maps_url": "https://www.google.com/maps/search/?api=1&query=Cuisine+r%C3%A9gionale+L%27%C3%A9vo%2C+%E3%80%92939-2518+Toyama%2C+Nanto%2C+Togamura+Taikanba%2C+%E7%94%B0%E5%B3%B6100%E7%95%AA%E5%9C%B0",
      "cid": "6915303050571316659",
      "google_id": "/g/11mv52pv2s",
      "maps_place_token": null
    },
    {
      "name": "Tsubomi",
      "address": "〒930-0997 Toyama, Shinjo Kitamachi, 18−24 １Ｆ",
      "note": null,
      "is_favorite": false,
      "lat": 36.7157449,
      "lng": 137.2642243,
      "maps_url": "https://www.google.com/maps/search/?api=1&query=Tsubomi%2C+%E3%80%92930-0997+Toyama%2C+Shinjo+Kitamachi%2C+18%E2%88%9224+%EF%BC%91%EF%BC%A6",
      "cid": "6915155826358706841",
      "google_id": "/g/11f670qqst",
      "maps_place_token": null
    },
    {
      "name": "伊真沁",
      "address": "1 Chome-1-4 Shintomicho, Toyama, 930-0002",
      "note": null,
      "is_favorite": false,
      "lat": 36.7002518,
      "lng": 137.2120064,
      "maps_url": "https://www.google.com/maps/search/?api=1&query=%E4%BC%8A%E7%9C%9F%E6%B2%81%2C+1+Chome-1-4+Shintomicho%2C+Toyama%2C+930-0002",
      "cid": "6915155909795465643",
      "google_id": "/g/11h5s2j6kd",
      "maps_place_token": null
    },
    {
      "name": "Boteyan Tanaka Toyama Ekimae",
      "address": "〒930-0002 Toyama, Shintomicho, 1 Chome−2−3 CiC B1F",
      "note": null,
      "is_favorite": false,
      "lat": 36.6996093,
      "lng": 137.2126264,
      "maps_url": "https://www.google.com/maps/search/?api=1&query=Boteyan+Tanaka+Toyama+Ekimae%2C+%E3%80%92930-0002+Toyama%2C+Shintomicho%2C+1+Chome%E2%88%922%E2%88%923+CiC+B1F",
      "cid": "6915154749997521331",
      "google_id": "/g/11ckr5mgyg",
      "maps_place_token": null
    },
    {
      "name": "ジェリコの戦い",
      "address": "2 Chome-3-24 Sakuramachi, Toyama, 930-0003",
      "note": null,
      "is_favorite": false,
      "lat": 36.6978544,
      "lng": 137.211718,
      "maps_url": "https://www.google.com/maps/search/?api=1&query=%E3%82%B8%E3%82%A7%E3%83%AA%E3%82%B3%E3%81%AE%E6%88%A6%E3%81%84%2C+2+Chome-3-24+Sakuramachi%2C+Toyama%2C+930-0003",
      "cid": "6915154653460624715",
      "google_id": "/g/1tznm68l",
      "maps_place_token": null
    },
    {
      "name": "真酒亭",
      "address": "〒930-0003 Toyama, Sakuramachi, 2 Chome−6−20 福沢ビル２F",
      "note": null,
      "is_favorite": false,
      "lat": 36.6976246,
      "lng": 137.2116074,
      "maps_url": "https://www.google.com/maps/search/?api=1&query=%E7%9C%9F%E9%85%92%E4%BA%AD%2C+%E3%80%92930-0003+Toyama%2C+Sakuramachi%2C+2+Chome%E2%88%926%E2%88%9220+%E7%A6%8F%E6%B2%A2%E3%83%93%E3%83%AB%EF%BC%92F",
      "cid": "6915154653656558027",
      "google_id": "/g/1tc_k_7r",
      "maps_place_token": null
    },
    {
      "name": "2KADO",
      "address": "2 Chome-2-7 Sakuramachi, Toyama, 930-0003",
      "note": null,
      "is_favorite": false,
      "lat": 36.6987209,
      "lng": 137.212829,
      "maps_url": "https://www.google.com/maps/search/?api=1&query=2KADO%2C+2+Chome-2-7+Sakuramachi%2C+Toyama%2C+930-0003",
      "cid": "6915154652850640777",
      "google_id": "/g/11g6b0qq13",
      "maps_place_token": null
    },
    {
      "name": "艶次郎",
      "address": "2 Chome-1-14 Sakuramachi, Toyama, 930-0003",
      "note": null,
      "is_favorite": false,
      "lat": 36.698871,
      "lng": 137.21255499999998,
      "maps_url": "https://www.google.com/maps/search/?api=1&query=%E8%89%B6%E6%AC%A1%E9%83%8E%2C+2+Chome-1-14+Sakuramachi%2C+Toyama%2C+930-0003",
      "cid": "6915154652487850227",
      "google_id": "/g/11b61ryfst",
      "maps_place_token": null
    },
    {
      "name": "Sushi-Ei Sogawa shop",
      "address": "2 Chome-8-22 Sogawa, Toyama, 930-0083",
      "note": null,
      "is_favorite": false,
      "lat": 36.6901108,
      "lng": 137.2137306,
      "maps_url": "https://www.google.com/maps/search/?api=1&query=Sushi-Ei+Sogawa+shop%2C+2+Chome-8-22+Sogawa%2C+Toyama%2C+930-0083",
      "cid": "6915154675588088707",
      "google_id": "/g/1tfwdbmg",
      "maps_place_token": null
    },
    {
      "name": "Aoyagi Shokudo",
      "address": "〒930-0028 Toyama, Aramachi, 5−4 寺島ビルⅡ １階",
      "note": null,
      "is_favorite": false,
      "lat": 36.691182999999995,
      "lng": 137.2155985,
      "maps_url": "https://www.google.com/maps/search/?api=1&query=Aoyagi+Shokudo%2C+%E3%80%92930-0028+Toyama%2C+Aramachi%2C+5%E2%88%924+%E5%AF%BA%E5%B3%B6%E3%83%93%E3%83%AB%E2%85%A1+%EF%BC%91%E9%9A%8E",
      "cid": "6915154682855277499",
      "google_id": "/g/11b76kdqn0",
      "maps_place_token": null
    },
    {
      "name": "Shogun Burger Toyama",
      "address": "3 Chome-3-21 Sogawa, Toyama, 930-0083",
      "note": null,
      "is_favorite": false,
      "lat": 36.6897145,
      "lng": 137.2138948,
      "maps_url": "https://www.google.com/maps/search/?api=1&query=Shogun+Burger+Toyama%2C+3+Chome-3-21+Sogawa%2C+Toyama%2C+930-0083",
      "cid": "6915154677095240173",
      "google_id": "/g/11dxl5x1g3",
      "maps_place_token": null
    },
    {
      "name": "Izakaya Dai",
      "address": "6-7 Otemachi, Toyama, 930-0084",
      "note": null,
      "is_favorite": false,
      "lat": 36.691168,
      "lng": 137.2111809,
      "maps_url": "https://www.google.com/maps/search/?api=1&query=Izakaya+Dai%2C+6-7+Otemachi%2C+Toyama%2C+930-0084",
      "cid": "6915154653587267009",
      "google_id": "/g/1tfzgm5g",
      "maps_place_token": null
    },
    {
      "name": "LA Yuuki",
      "address": "3 Chome-2-22 Sogawa, Toyama, 930-0083",
      "note": null,
      "is_favorite": false,
      "lat": 36.6899498,
      "lng": 137.2129851,
      "maps_url": "https://www.google.com/maps/search/?api=1&query=LA+Yuuki%2C+3+Chome-2-22+Sogawa%2C+Toyama%2C+930-0083",
      "cid": "6915154682653880863",
      "google_id": "/g/1tg8jl63",
      "maps_place_token": null
    },
    {
      "name": "かめ英",
      "address": "1 Chome-1-17 Sogawa, Toyama, 930-0083",
      "note": null,
      "is_favorite": false,
      "lat": 36.6929333,
      "lng": 137.2132652,
      "maps_url": "https://www.google.com/maps/search/?api=1&query=%E3%81%8B%E3%82%81%E8%8B%B1%2C+1+Chome-1-17+Sogawa%2C+Toyama%2C+930-0083",
      "cid": "6915154671512278569",
      "google_id": "/g/1td4zq13",
      "maps_place_token": null
    },
    {
      "name": "スパイスルートバル",
      "address": "3 Chome-2-16 Sogawa, Toyama, 930-0083",
      "note": null,
      "is_favorite": false,
      "lat": 36.6899766,
      "lng": 137.2137819,
      "maps_url": "https://www.google.com/maps/search/?api=1&query=%E3%82%B9%E3%83%91%E3%82%A4%E3%82%B9%E3%83%AB%E3%83%BC%E3%83%88%E3%83%90%E3%83%AB%2C+3+Chome-2-16+Sogawa%2C+Toyama%2C+930-0083",
      "cid": "6915155342411069453",
      "google_id": "/g/11fd41wtt9",
      "maps_place_token": null
    },
    {
      "name": "KAWAZ",
      "address": "4 Chome-5-13 Sogawa, Toyama, 930-0083",
      "note": null,
      "is_favorite": false,
      "lat": 36.6899284,
      "lng": 137.211063,
      "maps_url": "https://www.google.com/maps/search/?api=1&query=KAWAZ%2C+4+Chome-5-13+Sogawa%2C+Toyama%2C+930-0083",
      "cid": "6915155741331134381",
      "google_id": "/g/11fgm5k8vk",
      "maps_place_token": null
    },
    {
      "name": "Sushi Masa",
      "address": "4-29 Ichibanmachi, Toyama, 930-0061",
      "note": null,
      "is_favorite": false,
      "lat": 36.6883817,
      "lng": 137.2114744,
      "maps_url": "https://www.google.com/maps/search/?api=1&query=Sushi+Masa%2C+4-29+Ichibanmachi%2C+Toyama%2C+930-0061",
      "cid": "6915154502103974629",
      "google_id": "/g/1tmg6dn0",
      "maps_place_token": null
    },
    {
      "name": "Sushi Jin",
      "address": "3 Chome-5-7 Shinnezukamachi, Toyama, 939-8205",
      "note": null,
      "is_favorite": false,
      "lat": 36.6771914,
      "lng": 137.20724669999998,
      "maps_url": "https://www.google.com/maps/search/?api=1&query=Sushi+Jin%2C+3+Chome-5-7+Shinnezukamachi%2C+Toyama%2C+939-8205",
      "cid": "6915154385492467913",
      "google_id": "/g/1tfk8w7c",
      "maps_place_token": null
    },
    {
      "name": "wine bar alpes",
      "address": "〒930-0083 Toyama, Sogawa, 4 Chome−7−18 注)カフェメニューのご用意はありません １階",
      "note": null,
      "is_favorite": false,
      "lat": 36.6898258,
      "lng": 137.2106143,
      "maps_url": "https://www.google.com/maps/search/?api=1&query=wine+bar+alpes%2C+%E3%80%92930-0083+Toyama%2C+Sogawa%2C+4+Chome%E2%88%927%E2%88%9218+%E6%B3%A8%29%E3%82%AB%E3%83%95%E3%82%A7%E3%83%A1%E3%83%8B%E3%83%A5%E3%83%BC%E3%81%AE%E3%81%94%E7%94%A8%E6%84%8F%E3%81%AF%E3%81%82%E3%82%8A%E3%81%BE%E3%81%9B%E3%82%93+%EF%BC%91%E9%9A%8E",
      "cid": "6915154503264939609",
      "google_id": "/g/11c1v1swl5",
      "maps_place_token": null
    },
    {
      "name": "割烹 本田",
      "address": "5-1 Shiroganecho, Toyama, 930-0048",
      "note": null,
      "is_favorite": false,
      "lat": 36.6915422,
      "lng": 137.2186063,
      "maps_url": "https://www.google.com/maps/search/?api=1&query=%E5%89%B2%E7%83%B9+%E6%9C%AC%E7%94%B0%2C+5-1+Shiroganecho%2C+Toyama%2C+930-0048",
      "cid": "6915154685893797727",
      "google_id": "/g/1tczkb0f",
      "maps_place_token": null
    },
    {
      "name": "海老亭別館",
      "address": "2 Chome-4-10 Yasunoyacho, Toyama, 930-0087",
      "note": null,
      "is_favorite": false,
      "lat": 36.6928731,
      "lng": 137.2037286,
      "maps_url": "https://www.google.com/maps/search/?api=1&query=%E6%B5%B7%E8%80%81%E4%BA%AD%E5%88%A5%E9%A4%A8%2C+2+Chome-4-10+Yasunoyacho%2C+Toyama%2C+930-0087",
      "cid": "6915155852873283449",
      "google_id": "/g/11thpbjbtn",
      "maps_place_token": null
    },
    {
      "name": "Katsutama",
      "address": "1 Chome-9-1 Futakuchimachi, Toyama, 939-8211",
      "note": null,
      "is_favorite": false,
      "lat": 36.6719086,
      "lng": 137.2019665,
      "maps_url": "https://www.google.com/maps/search/?api=1&query=Katsutama%2C+1+Chome-9-1+Futakuchimachi%2C+Toyama%2C+939-8211",
      "cid": "6915154320086657635",
      "google_id": "/g/11bbx0xxw2",
      "maps_place_token": null
    }
  ]
}
