{
  "fetched_at": "2026-04-20T16:04:22.319442+00:00",
  "refresh_after": "2026-05-04T17:21:58.319442+00:00",
  "source_signature": "8e8231b7153242867107d6c1bfead7748e010cd444d86b61bcd4f3f1ee2109da",
  "configured_source_type": "google_list_url",
  "configured_source_url": "https://maps.app.goo.gl/pff93cjT3B9myqWU9",
  "configured_source_path": null,
  "source_url": "https://maps.app.goo.gl/pff93cjT3B9myqWU9",
  "list_id": "Rk9BwW44XBLTujVoUJvOGPO-grlCNA",
  "title": "Tuscany, Italy 🇮🇹",
  "description": null,
  "places": [
    {
      "name": "Azienda Agricola Casale di Falchini",
      "address": "Località Casale, 40, 53037 San Gimignano SI, Italy",
      "note": null,
      "is_favorite": false,
      "lat": 43.4807254,
      "lng": 11.043311899999999,
      "maps_url": "https://www.google.com/maps/search/?api=1&query=Azienda+Agricola+Casale+di+Falchini%2C+Localit%C3%A0+Casale%2C+40%2C+53037+San+Gimignano+SI%2C+Italy",
      "cid": "1380987337366017393",
      "google_id": "/g/11b6hsy_n9",
      "maps_place_token": null
    },
    {
      "name": "CECCA",
      "address": "Piazza Pecori, 2, 53037 San Gimignano SI, Italy",
      "note": null,
      "is_favorite": false,
      "lat": 43.467576,
      "lng": 11.042590899999999,
      "maps_url": "https://www.google.com/maps/search/?api=1&query=CECCA%2C+Piazza+Pecori%2C+2%2C+53037+San+Gimignano+SI%2C+Italy",
      "cid": "1380983307000087771",
      "google_id": "/g/11xl_q4sz2",
      "maps_place_token": null
    },
    {
      "name": "Chiesa di Sant'Agostino",
      "address": null,
      "note": null,
      "is_favorite": false,
      "lat": 43.470725699999996,
      "lng": 11.0415247,
      "maps_url": "https://www.google.com/maps/search/?api=1&query=Chiesa+di+Sant%27Agostino",
      "cid": "1380982452840114319",
      "google_id": null,
      "maps_place_token": null
    },
    {
      "name": "Porta San Giovanni",
      "address": null,
      "note": null,
      "is_favorite": false,
      "lat": 43.4647539,
      "lng": 11.0426247,
      "maps_url": "https://www.google.com/maps/search/?api=1&query=Porta+San+Giovanni",
      "cid": "1380982512284928713",
      "google_id": null,
      "maps_place_token": null
    },
    {
      "name": "Torre e Casa Campatelli",
      "address": "Via S. Giovanni, 15, 53037 San Gimignano SI, Italy",
      "note": null,
      "is_favorite": false,
      "lat": 43.4667718,
      "lng": 11.042966999999999,
      "maps_url": "https://www.google.com/maps/search/?api=1&query=Torre+e+Casa+Campatelli%2C+Via+S.+Giovanni%2C+15%2C+53037+San+Gimignano+SI%2C+Italy",
      "cid": "1380982478290582225",
      "google_id": "/g/11b7gq0mpk",
      "maps_place_token": null
    },
    {
      "name": "Galleria Continua",
      "address": "Via del Castello, 11, 53037 San Gimignano SI, Italy",
      "note": null,
      "is_favorite": false,
      "lat": 43.4675089,
      "lng": 11.044371,
      "maps_url": "https://www.google.com/maps/search/?api=1&query=Galleria+Continua%2C+Via+del+Castello%2C+11%2C+53037+San+Gimignano+SI%2C+Italy",
      "cid": "1380982478063082917",
      "google_id": "/g/11jgf30rr",
      "maps_place_token": null
    },
    {
      "name": "Lamole di Lamole",
      "address": null,
      "note": null,
      "is_favorite": false,
      "lat": 43.546018,
      "lng": 11.3562355,
      "maps_url": "https://www.google.com/maps/search/?api=1&query=Lamole+di+Lamole",
      "cid": "1381397024253489447",
      "google_id": null,
      "maps_place_token": null
    },
    {
      "name": "Carobbio",
      "address": null,
      "note": null,
      "is_favorite": false,
      "lat": 43.546193099999996,
      "lng": 11.277614999999999,
      "maps_url": "https://www.google.com/maps/search/?api=1&query=Carobbio",
      "cid": "1380998071431318929",
      "google_id": null,
      "maps_place_token": null
    },
    {
      "name": "Castello di Bossi Reception & Wine Bar",
      "address": null,
      "note": null,
      "is_favorite": false,
      "lat": 43.3716085,
      "lng": 11.4502169,
      "maps_url": "https://www.google.com/maps/search/?api=1&query=Castello+di+Bossi+Reception+%26+Wine+Bar",
      "cid": "1381424331353815267",
      "google_id": null,
      "maps_place_token": null
    },
    {
      "name": "Albola Castle",
      "address": "Via Pian d'Albola, 31, 53017 Radda in Chianti SI, Italy",
      "note": null,
      "is_favorite": false,
      "lat": 43.5192949,
      "lng": 11.402885999999999,
      "maps_url": "https://www.google.com/maps/search/?api=1&query=Albola+Castle%2C+Via+Pian+d%27Albola%2C+31%2C+53017+Radda+in+Chianti+SI%2C+Italy",
      "cid": "1381420313645067455",
      "google_id": "/g/1216fqzs",
      "maps_place_token": null
    },
    {
      "name": "Rocca delle Macìe Enoteca",
      "address": "Loc. Le Macie 52, 53011 Castellina in Chianti SI, Italy",
      "note": null,
      "is_favorite": false,
      "lat": 43.4361441,
      "lng": 11.2700543,
      "maps_url": "https://www.google.com/maps/search/?api=1&query=Rocca+delle+Mac%C3%ACe+Enoteca%2C+Loc.+Le+Macie+52%2C+53011+Castellina+in+Chianti+SI%2C+Italy",
      "cid": "1380972991249610505",
      "google_id": "/g/11pdjxbkpq",
      "maps_place_token": null
    },
    {
      "name": "Querceto di Castellina",
      "address": "Via di Fronzano, 9, 53011 Castellina in Chianti SI, Italy",
      "note": null,
      "is_favorite": false,
      "lat": 43.5080466,
      "lng": 11.3024503,
      "maps_url": "https://www.google.com/maps/search/?api=1&query=Querceto+di+Castellina%2C+Via+di+Fronzano%2C+9%2C+53011+Castellina+in+Chianti+SI%2C+Italy",
      "cid": "1380973891060836961",
      "google_id": "/g/1tf5gx9k",
      "maps_place_token": null
    },
    {
      "name": "Castello Vicchiomaggio",
      "address": "Località Vicchio, 4, 50022 Greve in Chianti FI, Italy",
      "note": null,
      "is_favorite": false,
      "lat": 43.609235899999995,
      "lng": 11.285376,
      "maps_url": "https://www.google.com/maps/search/?api=1&query=Castello+Vicchiomaggio%2C+Localit%C3%A0+Vicchio%2C+4%2C+50022+Greve+in+Chianti+FI%2C+Italy",
      "cid": "1380999285772953717",
      "google_id": "/g/120jr3hj",
      "maps_place_token": null
    },
    {
      "name": "ALTIERO - azienda agricola",
      "address": "Via S. Cresci, 58, 50022 Greve in Chianti FI, Italy",
      "note": null,
      "is_favorite": false,
      "lat": 43.5780451,
      "lng": 11.289676199999999,
      "maps_url": "https://www.google.com/maps/search/?api=1&query=ALTIERO+-+azienda+agricola%2C+Via+S.+Cresci%2C+58%2C+50022+Greve+in+Chianti+FI%2C+Italy",
      "cid": "1380999442426741319",
      "google_id": "/g/11cnwcyr5v",
      "maps_place_token": null
    },
    {
      "name": "Tenuta Casanova - Luxury Wine Estate",
      "address": "Località Sant'Agnese, 20, 53011 Castellina in Chianti SI, Italy",
      "note": null,
      "is_favorite": false,
      "lat": 43.476990799999996,
      "lng": 11.225831699999999,
      "maps_url": "https://www.google.com/maps/search/?api=1&query=Tenuta+Casanova+-+Luxury+Wine+Estate%2C+Localit%C3%A0+Sant%27Agnese%2C+20%2C+53011+Castellina+in+Chianti+SI%2C+Italy",
      "cid": "1380976461013995001",
      "google_id": "/g/12hlrx2gz",
      "maps_place_token": null
    },
    {
      "name": "Gelateria Dondoli",
      "address": "Piazza Della Cisterna, 4, 53037 San Gimignano SI, Italy",
      "note": null,
      "is_favorite": false,
      "lat": 43.467412599999996,
      "lng": 11.0433506,
      "maps_url": "https://www.google.com/maps/search/?api=1&query=Gelateria+Dondoli%2C+Piazza+Della+Cisterna%2C+4%2C+53037+San+Gimignano+SI%2C+Italy",
      "cid": "1380982477943158183",
      "google_id": "/g/1tj3h991",
      "maps_place_token": null
    },
    {
      "name": "Villa Cetinale, province of Siena",
      "address": "Str. di Cetinale, 9, 53018 Sovicille SI, Italy",
      "note": null,
      "is_favorite": false,
      "lat": 43.300689,
      "lng": 11.204894,
      "maps_url": "https://www.google.com/maps/search/?api=1&query=Villa+Cetinale%2C+province+of+Siena%2C+Str.+di+Cetinale%2C+9%2C+53018+Sovicille+SI%2C+Italy",
      "cid": "1380961174430359145",
      "google_id": "/g/11bvt34y0g",
      "maps_place_token": null
    },
    {
      "name": "Fortezza Medicea",
      "address": "Piazza Caduti delle Forze Armate, 53100 Siena SI, Italy",
      "note": null,
      "is_favorite": false,
      "lat": 43.322661,
      "lng": 11.3238335,
      "maps_url": "https://www.google.com/maps/search/?api=1&query=Fortezza+Medicea%2C+Piazza+Caduti+delle+Forze+Armate%2C+53100+Siena+SI%2C+Italy",
      "cid": "1380965436510110165",
      "google_id": "/g/1tdjncmh",
      "maps_place_token": null
    },
    {
      "name": "Castello di Brolio",
      "address": "Località Madonna a Brolio, 53013 Gaiole In Chianti SI, Italy",
      "note": null,
      "is_favorite": false,
      "lat": 43.413340999999996,
      "lng": 11.463498999999999,
      "maps_url": "https://www.google.com/maps/search/?api=1&query=Castello+di+Brolio%2C+Localit%C3%A0+Madonna+a+Brolio%2C+53013+Gaiole+In+Chianti+SI%2C+Italy",
      "cid": "1381425248317758527",
      "google_id": null,
      "maps_place_token": null
    },
    {
      "name": "Antinori nel Chianti Classico",
      "address": "Via Cassia per Siena, 133, 50026 Bargino FI, Italy",
      "note": null,
      "is_favorite": false,
      "lat": 43.612388599999996,
      "lng": 11.1916161,
      "maps_url": "https://www.google.com/maps/search/?api=1&query=Antinori+nel+Chianti+Classico%2C+Via+Cassia+per+Siena%2C+133%2C+50026+Bargino+FI%2C+Italy",
      "cid": "1380996289584155119",
      "google_id": "/g/11b6jggl28",
      "maps_place_token": null
    },
    {
      "name": "Fattoria Viticcio",
      "address": "Località S. Cresci, 12/a, 50022 Greve in Chianti FI, Italy",
      "note": null,
      "is_favorite": false,
      "lat": 43.5958368,
      "lng": 11.3085151,
      "maps_url": "https://www.google.com/maps/search/?api=1&query=Fattoria+Viticcio%2C+Localit%C3%A0+S.+Cresci%2C+12%2Fa%2C+50022+Greve+in+Chianti+FI%2C+Italy",
      "cid": "1380999189003859161",
      "google_id": "/g/11h16rdh2",
      "maps_place_token": null
    },
    {
      "name": "Greve in Chianti",
      "address": "50022 Greve in Chianti, Metropolitan City of Florence, Italy",
      "note": null,
      "is_favorite": false,
      "lat": 43.5830644,
      "lng": 11.3186815,
      "maps_url": "https://www.google.com/maps/search/?api=1&query=Greve+in+Chianti%2C+50022+Greve+in+Chianti%2C+Metropolitan+City+of+Florence%2C+Italy",
      "cid": "1380998797681374785",
      "google_id": null,
      "maps_place_token": null
    },
    {
      "name": "Castello di Verrazzano",
      "address": "Via Castello di Verrazzano, 1, 50022 Greve in Chianti FI, Italy",
      "note": null,
      "is_favorite": false,
      "lat": 43.6015709,
      "lng": 11.2851799,
      "maps_url": "https://www.google.com/maps/search/?api=1&query=Castello+di+Verrazzano%2C+Via+Castello+di+Verrazzano%2C+1%2C+50022+Greve+in+Chianti+FI%2C+Italy",
      "cid": "1380999319705505291",
      "google_id": "/g/1214fmd2",
      "maps_place_token": null
    }
  ]
}
