{
  "fetched_at": "2026-04-25T15:05:25.846021+00:00",
  "refresh_after": "2026-05-07T02:53:44.846021+00:00",
  "source_signature": "bd437c23e704220b8d5474599080dd9c862a874ca1b0f3187e5e4782502936a4",
  "configured_source_type": "google_list_url",
  "configured_source_url": "https://maps.app.goo.gl/raNHBHESDS9CsZiL9",
  "configured_source_path": null,
  "source_url": "https://maps.app.goo.gl/raNHBHESDS9CsZiL9",
  "list_id": "_3wTY8A6sXa04MEQSVno6w",
  "title": "Taipei, Taiwan (Example) 🇹🇼",
  "description": null,
  "places": [
    {
      "name": "宇宙小艇 Cosmoship大安店",
      "address": null,
      "note": null,
      "is_favorite": false,
      "lat": 25.0321793,
      "lng": 121.53855709999999,
      "maps_url": "https://www.google.com/maps/search/?api=1&query=%E5%AE%87%E5%AE%99%E5%B0%8F%E8%89%87+Cosmoship%E5%A4%A7%E5%AE%89%E5%BA%97",
      "cid": "3765758439428697929",
      "google_id": null,
      "maps_place_token": null
    },
    {
      "name": "象山",
      "address": null,
      "note": null,
      "is_favorite": false,
      "lat": 25.027223,
      "lng": 121.57649889999999,
      "maps_url": "https://www.google.com/maps/search/?api=1&query=%E8%B1%A1%E5%B1%B1",
      "cid": "3765760995190419813",
      "google_id": null,
      "maps_place_token": null
    },
    {
      "name": "National Palace Museum",
      "address": null,
      "note": null,
      "is_favorite": false,
      "lat": 25.1023554,
      "lng": 121.5484925,
      "maps_url": "https://www.google.com/maps/search/?api=1&query=National+Palace+Museum",
      "cid": "3765761606986779261",
      "google_id": null,
      "maps_place_token": null
    },
    {
      "name": "Maokong Gondola",
      "address": null,
      "note": null,
      "is_favorite": false,
      "lat": 24.9955748,
      "lng": 121.5756273,
      "maps_url": "https://www.google.com/maps/search/?api=1&query=Maokong+Gondola",
      "cid": "3765759586712551539",
      "google_id": null,
      "maps_place_token": null
    },
    {
      "name": "芏 Astēa",
      "address": null,
      "note": null,
      "is_favorite": false,
      "lat": 25.032247599999998,
      "lng": 121.55534709999999,
      "maps_url": "https://www.google.com/maps/search/?api=1&query=%E8%8A%8F+Ast%C4%93a",
      "cid": "3765760255461058047",
      "google_id": null,
      "maps_place_token": null
    },
    {
      "name": "Toh-Ka-Lin Chinese Cuisine",
      "address": null,
      "note": null,
      "is_favorite": false,
      "lat": 25.0524222,
      "lng": 121.5233334,
      "maps_url": "https://www.google.com/maps/search/?api=1&query=Toh-Ka-Lin+Chinese+Cuisine",
      "cid": "3765758506095288927",
      "google_id": null,
      "maps_place_token": null
    },
    {
      "name": "Taipei 101",
      "address": null,
      "note": null,
      "is_favorite": false,
      "lat": 25.0332276,
      "lng": 121.5648681,
      "maps_url": "https://www.google.com/maps/search/?api=1&query=Taipei+101",
      "cid": "3765761221328423815",
      "google_id": null,
      "maps_place_token": null
    },
    {
      "name": "Addiction Aquatic Development",
      "address": null,
      "note": null,
      "is_favorite": false,
      "lat": 25.066707899999997,
      "lng": 121.5370059,
      "maps_url": "https://www.google.com/maps/search/?api=1&query=Addiction+Aquatic+Development",
      "cid": "3765761343429964031",
      "google_id": null,
      "maps_place_token": null
    }
  ]
}
