{
  "fetched_at": "2026-04-15T23:44:38.706888+00:00",
  "refresh_after": "2026-04-29T23:44:38.706888+00:00",
  "source_signature": "acb560afd30c92a927ddac8e4005fa8f27337530ad945bb9a5f63fa9429ef48e",
  "configured_source_type": "google_list_url",
  "configured_source_url": "https://maps.app.goo.gl/tWDDf11MmsXhaUgZA",
  "configured_source_path": null,
  "source_url": "https://maps.app.goo.gl/tWDDf11MmsXhaUgZA",
  "list_id": "5dgNsZCuX4uC5QqgfpQpKcDIPzMgHg",
  "title": "Alamaty, Kazakhstan 🇰🇿",
  "description": null,
  "places": [
    {
      "name": "Arba Wine",
      "address": "пр. Абылай хана 71 уг, Gogol St, Almaty",
      "note": null,
      "is_favorite": false,
      "lat": 43.259781,
      "lng": 76.940675,
      "maps_url": "https://maps.google.com/?cid=4072220247637081229",
      "cid": "4072220247637081229",
      "google_id": "/g/11bwl3tsh7",
      "maps_place_token": null
    },
    {
      "name": "Green Bazaar",
      "address": "улица Жибек Жолы 53, Almaty 050000",
      "note": null,
      "is_favorite": false,
      "lat": 43.26423,
      "lng": 76.9547506,
      "maps_url": "https://maps.google.com/?cid=4072220005960201221",
      "cid": "4072220005960201221",
      "google_id": "/g/1vm78v0x",
      "maps_place_token": null
    },
    {
      "name": "AUYL",
      "address": "улица Керей-Жанибек хандар 586, Almaty 050020",
      "note": null,
      "is_favorite": false,
      "lat": 43.1623194,
      "lng": 77.0598485,
      "maps_url": "https://maps.google.com/?cid=4072234151934355339",
      "cid": "4072234151934355339",
      "google_id": "/g/11trp6htx4",
      "maps_place_token": null
    },
    {
      "name": "Restoran Gruzinskoy Kukhni Chashnagiri",
      "address": "Ущелье Ой-Карагай, Горный курорт-отель Лесная Сказка",
      "note": null,
      "is_favorite": false,
      "lat": 43.2237845,
      "lng": 77.1486228,
      "maps_url": "https://maps.google.com/?cid=4072229891242703397",
      "cid": "4072229891242703397",
      "google_id": "/g/11cnb2c9qm",
      "maps_place_token": null
    },
    {
      "name": "Beefeater Dostyk",
      "address": "Dostyk Ave 43, Almaty 050000",
      "note": null,
      "is_favorite": false,
      "lat": 43.2516475,
      "lng": 76.9555176,
      "maps_url": "https://maps.google.com/?cid=4072220477509944179",
      "cid": "4072220477509944179",
      "google_id": "/g/11f_43pp5p",
      "maps_place_token": null
    },
    {
      "name": "Tangiers Lounge Satpaeva",
      "address": "Satpaev St 30/7, Almaty 050000",
      "note": null,
      "is_favorite": false,
      "lat": 43.236634099999996,
      "lng": 76.92249679999999,
      "maps_url": "https://maps.google.com/?cid=4072221525481709595",
      "cid": "4072221525481709595",
      "google_id": "/g/11kj87lb20",
      "maps_place_token": null
    },
    {
      "name": "Tangiers Lounge Almaty",
      "address": "Ulitsa Karasay Batyra 55, Almaty 050000",
      "note": null,
      "is_favorite": false,
      "lat": 43.251713099999996,
      "lng": 76.94631179999999,
      "maps_url": "https://maps.google.com/?cid=4072220774714111617",
      "cid": "4072220774714111617",
      "google_id": "/g/11j0bt8tnn",
      "maps_place_token": null
    },
    {
      "name": "Restaurant Sandyq",
      "address": "Abylai Khan Ave 55, Almaty 050000",
      "note": null,
      "is_favorite": false,
      "lat": 43.2627392,
      "lng": 76.9391521,
      "maps_url": "https://maps.google.com/?cid=4072221528961612763",
      "cid": "4072221528961612763",
      "google_id": "/g/11rnm19gwp",
      "maps_place_token": null
    },
    {
      "name": "Nuala",
      "address": "Bogenbai Batyr Street 134, Almaty 050000",
      "note": null,
      "is_favorite": false,
      "lat": 43.2526114,
      "lng": 76.943159,
      "maps_url": "https://maps.google.com/?cid=4072221519312044987",
      "cid": "4072221519312044987",
      "google_id": "/g/11rqkvdwm8",
      "maps_place_token": null
    },
    {
      "name": "Viktor Tsoi monument",
      "address": "6WXX+WJQ, Tolebaev St, Almaty 050000, Kazakhstan",
      "note": null,
      "is_favorite": false,
      "lat": 43.2498431,
      "lng": 76.9491156,
      "maps_url": "https://maps.google.com/?cid=4072220954428220463",
      "cid": "4072220954428220463",
      "google_id": "/g/11h1ywp2rl",
      "maps_place_token": null
    },
    {
      "name": "Ascension Cathedral",
      "address": "Gogol St 40в, Almaty 050010, Kazakhstan",
      "note": null,
      "is_favorite": false,
      "lat": 43.2587359,
      "lng": 76.952867,
      "maps_url": "https://maps.google.com/?cid=4072220044885827705",
      "cid": "4072220044885827705",
      "google_id": null,
      "maps_place_token": null
    },
    {
      "name": "Central State Museum of the Republic of Kazakhstan",
      "address": "Samal-1, 44, Almaty 050059",
      "note": null,
      "is_favorite": false,
      "lat": 43.2359413,
      "lng": 76.95074269999999,
      "maps_url": "https://maps.google.com/?cid=4072220409789408543",
      "cid": "4072220409789408543",
      "google_id": null,
      "maps_place_token": null
    }
  ]
}
