{
  "fetched_at": "2026-04-15T15:43:40.392941+00:00",
  "refresh_after": "2026-04-29T15:43:40.392941+00:00",
  "source_signature": "3b6964c293202860354d5e18b1e9df6862c0f75cde683b6d03abbcfc59605cf2",
  "configured_source_type": "google_list_url",
  "configured_source_url": "https://maps.app.goo.gl/5c2d8VV8LSM9SDf27",
  "configured_source_path": null,
  "source_url": "https://maps.app.goo.gl/5c2d8VV8LSM9SDf27",
  "list_id": "2cHu0w7mR3CIOUcfkVkDhA",
  "title": "Amsterdam, Netherlands 🇳🇱",
  "description": "Michael's Amsterdam, Netherlands 🇳🇱 bookmarks. See https://beacons.ai/demflyers for more.",
  "places": [
    {
      "name": "LAB111",
      "address": null,
      "note": null,
      "is_favorite": false,
      "lat": 52.363589399999995,
      "lng": 4.8673630999999995,
      "maps_url": "https://maps.google.com/?cid=5171788279844416643",
      "cid": "5171788279844416643",
      "google_id": null,
      "maps_place_token": null
    },
    {
      "name": "Vuurtoreneiland",
      "address": null,
      "note": null,
      "is_favorite": false,
      "lat": 52.3723898,
      "lng": 5.0135973,
      "maps_url": "https://maps.google.com/?cid=5171837645796424231",
      "cid": "5171837645796424231",
      "google_id": null,
      "maps_place_token": null
    },
    {
      "name": "Coffeeshopamsterdam Café",
      "address": "Singel 8, 1013 GA Amsterdam, Netherlands",
      "note": null,
      "is_favorite": false,
      "lat": 52.379165099999994,
      "lng": 4.8939214,
      "maps_url": "https://maps.google.com/?cid=5171831978218045075",
      "cid": "5171831978218045075",
      "google_id": "/g/11hcz4t0hc",
      "maps_place_token": null
    },
    {
      "name": "Stubbe's Haring",
      "address": "Singel 8n, 1013 GA Amsterdam, Netherlands",
      "note": null,
      "is_favorite": false,
      "lat": 52.3790853,
      "lng": 4.8942331999999995,
      "maps_url": "https://maps.google.com/?cid=5171831968738873829",
      "cid": "5171831968738873829",
      "google_id": "/g/1vr1vvcl",
      "maps_place_token": null
    },
    {
      "name": "Japanese Pancake World",
      "address": "Tweede Egelantiersdwarsstraat 24, 1015 SC Amsterdam, Netherlands",
      "note": null,
      "is_favorite": false,
      "lat": 52.3764767,
      "lng": 4.8822073999999995,
      "maps_url": "https://maps.google.com/?cid=5171832057348510685",
      "cid": "5171832057348510685",
      "google_id": "/g/1tfl8vzl",
      "maps_place_token": null
    },
    {
      "name": "Café 't Smalle",
      "address": "Egelantiersgracht 12, 1015 RL Amsterdam, Netherlands",
      "note": null,
      "is_favorite": false,
      "lat": 52.3767128,
      "lng": 4.8841696,
      "maps_url": "https://maps.google.com/?cid=5171831964981512715",
      "cid": "5171831964981512715",
      "google_id": "/g/1tk6zppd",
      "maps_place_token": null
    },
    {
      "name": "Black Gold Amsterdam",
      "address": "Korte Koningsstraat 13 H, 1011 EX Amsterdam, Netherlands",
      "note": null,
      "is_favorite": false,
      "lat": 52.371787999999995,
      "lng": 4.9030432,
      "maps_url": "https://maps.google.com/?cid=5171832036312954975",
      "cid": "5171832036312954975",
      "google_id": "/g/11btlskcjb",
      "maps_place_token": null
    },
    {
      "name": "De Koffieschenkerij",
      "address": "Oudekerksplein 27, 1012 GX Amsterdam, Netherlands",
      "note": null,
      "is_favorite": false,
      "lat": 52.3741148,
      "lng": 4.898346699999999,
      "maps_url": "https://maps.google.com/?cid=5171831911991106907",
      "cid": "5171831911991106907",
      "google_id": "/g/11b75kt4j0",
      "maps_place_token": null
    },
    {
      "name": "W Amsterdam",
      "address": "Spuistraat 175, 1012 VN Amsterdam, Netherlands",
      "note": null,
      "is_favorite": false,
      "lat": 52.3727871,
      "lng": 4.890005899999999,
      "maps_url": "https://maps.google.com/?cid=5171831971040069953",
      "cid": "5171831971040069953",
      "google_id": "/g/11b7t_km7l",
      "maps_place_token": null
    },
    {
      "name": "Van Stapele Koekmakerij",
      "address": "Heisteeg 4, 1012 WC Amsterdam, Netherlands",
      "note": null,
      "is_favorite": false,
      "lat": 52.371969799999995,
      "lng": 4.8933504,
      "maps_url": "https://maps.google.com/?cid=5171831948902819181",
      "cid": "5171831948902819181",
      "google_id": "/g/1pp2tvqrw",
      "maps_place_token": null
    },
    {
      "name": "Flying Dutchmen Cocktails",
      "address": "Singel 460, 1017 AW Amsterdam, Netherlands",
      "note": null,
      "is_favorite": false,
      "lat": 52.3674713,
      "lng": 4.8886771,
      "maps_url": "https://maps.google.com/?cid=5171831950825594947",
      "cid": "5171831950825594947",
      "google_id": "/g/11f1w_sl_v",
      "maps_place_token": null
    },
    {
      "name": "Frens Haringhandel",
      "address": null,
      "note": null,
      "is_favorite": false,
      "lat": 52.3672943,
      "lng": 4.8894322,
      "maps_url": "https://maps.google.com/?cid=5171832125405269793",
      "cid": "5171832125405269793",
      "google_id": null,
      "maps_place_token": null
    },
    {
      "name": "Door 74",
      "address": "Reguliersdwarsstraat 74, 1017 BN Amsterdam, Netherlands",
      "note": null,
      "is_favorite": false,
      "lat": 52.365940599999995,
      "lng": 4.8935964,
      "maps_url": "https://maps.google.com/?cid=5171832125669116339",
      "cid": "5171832125669116339",
      "google_id": "/g/1tgz9k8f",
      "maps_place_token": null
    },
    {
      "name": "Herring Stall Jonk",
      "address": "Spui 7a, 1012 WX Amsterdam, Netherlands",
      "note": null,
      "is_favorite": false,
      "lat": 52.368777099999996,
      "lng": 4.8908574,
      "maps_url": "https://maps.google.com/?cid=5171831949749030767",
      "cid": "5171831949749030767",
      "google_id": "/g/124yhcz13",
      "maps_place_token": null
    },
    {
      "name": "Restaurant Flore",
      "address": "Nieuwe Doelenstraat 2-14, 1012 CP Amsterdam, Netherlands",
      "note": null,
      "is_favorite": false,
      "lat": 52.3675491,
      "lng": 4.8940847,
      "maps_url": "https://maps.google.com/?cid=5171831942560817415",
      "cid": "5171831942560817415",
      "google_id": "/g/11t7fc4s1q",
      "maps_place_token": null
    },
    {
      "name": "Rembrandtplein",
      "address": "1017 CT Amsterdam, Netherlands",
      "note": null,
      "is_favorite": false,
      "lat": 52.3658559,
      "lng": 4.8969394,
      "maps_url": "https://maps.google.com/?cid=5171831759341175403",
      "cid": "5171831759341175403",
      "google_id": null,
      "maps_place_token": null
    },
    {
      "name": "Restaurant 212",
      "address": "Amstel 212, 1017 AH Amsterdam, Netherlands",
      "note": null,
      "is_favorite": false,
      "lat": 52.3658631,
      "lng": 4.900288,
      "maps_url": "https://maps.google.com/?cid=5171831761840634771",
      "cid": "5171831761840634771",
      "google_id": "/g/11f1ph3r24",
      "maps_place_token": null
    },
    {
      "name": "Salmuera",
      "address": "Rozengracht 106, 1016 NH Amsterdam, Netherlands",
      "note": null,
      "is_favorite": false,
      "lat": 52.373229599999995,
      "lng": 4.8793600999999995,
      "maps_url": "https://maps.google.com/?cid=5171832060326588657",
      "cid": "5171832060326588657",
      "google_id": "/g/1pp2x7c06",
      "maps_place_token": null
    },
    {
      "name": "Moeders",
      "address": "Rozengracht 251, 1016 SX Amsterdam, Netherlands",
      "note": null,
      "is_favorite": false,
      "lat": 52.3718246,
      "lng": 4.8749712999999995,
      "maps_url": "https://maps.google.com/?cid=5171832073912835923",
      "cid": "5171832073912835923",
      "google_id": "/g/1thclzpj",
      "maps_place_token": null
    },
    {
      "name": "Andaz Amsterdam Prinsengracht - a Concept by Hyatt",
      "address": "Prinsengracht 587, 1016 HT Amsterdam, Netherlands",
      "note": null,
      "is_favorite": false,
      "lat": 52.367796899999995,
      "lng": 4.8830608,
      "maps_url": "https://maps.google.com/?cid=5171831953648370279",
      "cid": "5171831953648370279",
      "google_id": "/g/11xphf3yp",
      "maps_place_token": null
    },
    {
      "name": "Coffee & Bites",
      "address": "Plantage Middenlaan 44-HS, 1018 DH Amsterdam, Netherlands",
      "note": null,
      "is_favorite": false,
      "lat": 52.365945499999995,
      "lng": 4.9125043999999995,
      "maps_url": "https://maps.google.com/?cid=5171831813651963813",
      "cid": "5171831813651963813",
      "google_id": "/g/1tzvvrnt",
      "maps_place_token": null
    },
    {
      "name": "Good Beans",
      "address": "Binnen Oranjestraat 4, 1013 JA Amsterdam, Netherlands",
      "note": null,
      "is_favorite": false,
      "lat": 52.382380999999995,
      "lng": 4.887274199999999,
      "maps_url": "https://maps.google.com/?cid=5171832067635325059",
      "cid": "5171832067635325059",
      "google_id": "/g/11c5_bf983",
      "maps_place_token": null
    },
    {
      "name": "Spectrum",
      "address": "Herengracht 542, 556, 1017 CG Amsterdam, Netherlands",
      "note": null,
      "is_favorite": false,
      "lat": 52.364590799999995,
      "lng": 4.8965796,
      "maps_url": "https://maps.google.com/?cid=5171831757913271623",
      "cid": "5171831757913271623",
      "google_id": null,
      "maps_place_token": null
    },
    {
      "name": "Blue Pepper",
      "address": "Nassaukade 366, 1054 AB Amsterdam, Netherlands",
      "note": null,
      "is_favorite": false,
      "lat": 52.365775299999996,
      "lng": 4.8780724,
      "maps_url": "https://maps.google.com/?cid=5171832112531960295",
      "cid": "5171832112531960295",
      "google_id": "/g/1trc44kk",
      "maps_place_token": null
    },
    {
      "name": "TonTon Club Westergas",
      "address": "Polonceaukade 27, 1014 DA Amsterdam, Netherlands",
      "note": null,
      "is_favorite": false,
      "lat": 52.386020599999995,
      "lng": 4.8660624,
      "maps_url": "https://maps.google.com/?cid=5171788780275979793",
      "cid": "5171788780275979793",
      "google_id": "/g/11bwm44gnb",
      "maps_place_token": null
    },
    {
      "name": "Rijksmuseum",
      "address": "Museumstraat 1, 1071 XX Amsterdam, Netherlands",
      "note": null,
      "is_favorite": false,
      "lat": 52.3599976,
      "lng": 4.8852188,
      "maps_url": "https://maps.google.com/?cid=5171832143138723557",
      "cid": "5171832143138723557",
      "google_id": null,
      "maps_place_token": null
    },
    {
      "name": "Ciel Bleu",
      "address": "Ferdinand Bolstraat 333, 1072 LH Amsterdam, Netherlands",
      "note": null,
      "is_favorite": false,
      "lat": 52.348858799999995,
      "lng": 4.8940157,
      "maps_url": "https://maps.google.com/?cid=5171831714964257331",
      "cid": "5171831714964257331",
      "google_id": null,
      "maps_place_token": null
    },
    {
      "name": "Aan de Poel",
      "address": "Handweg 1, 1185 TS Amstelveen, Netherlands",
      "note": null,
      "is_favorite": false,
      "lat": 52.299935999999995,
      "lng": 4.844916,
      "maps_url": "https://maps.google.com/?cid=5171786234357724267",
      "cid": "5171786234357724267",
      "google_id": null,
      "maps_place_token": null
    }
  ]
}
