{
  "fetched_at": "2026-04-15T23:49:17.224428+00:00",
  "refresh_after": "2026-04-29T23:49:17.224428+00:00",
  "source_signature": "b7907f02e03cc10c5dc2152780b21987463593a65ad38f3db9bfbf1b6806d170",
  "configured_source_type": "google_list_url",
  "configured_source_url": "https://maps.app.goo.gl/kDUwsyoCCXL3Q3TU8",
  "configured_source_path": null,
  "source_url": "https://maps.app.goo.gl/kDUwsyoCCXL3Q3TU8",
  "list_id": "iu8uEFez6uYJV8oHxyUDReydQAPqxw",
  "title": "Austin, Texas, USA 🇺🇲",
  "description": "Michael's Austin, Texas, USA 🇺🇲 bookmarks. See https://beacons.ai/demflyers for more.",
  "places": [
    {
      "name": "Franklin Barbecue",
      "address": "900 E 11th St, Austin, TX 78702, United States",
      "note": null,
      "is_favorite": false,
      "lat": 30.270121999999997,
      "lng": -97.73134209999999,
      "maps_url": "https://maps.google.com/?cid=3579139785445756036",
      "cid": "3579139785445756036",
      "google_id": null,
      "maps_place_token": null
    },
    {
      "name": "Oasis Texas Brewing Company",
      "address": "6650 Comanche Trail Suite #301, Austin, TX 78732, United States",
      "note": null,
      "is_favorite": false,
      "lat": 30.4060122,
      "lng": -97.874192,
      "maps_url": "https://maps.google.com/?cid=896230120428279408",
      "cid": "896230120428279408",
      "google_id": "/g/11b5w0tvk4",
      "maps_place_token": null
    },
    {
      "name": "The Picnic - Food Truck Park",
      "address": "1720 Barton Springs Rd, Austin, TX 78704, United States",
      "note": null,
      "is_favorite": false,
      "lat": 30.2635667,
      "lng": -97.7628972,
      "maps_url": "https://maps.google.com/?cid=1088958808265557517",
      "cid": "1088958808265557517",
      "google_id": "/g/1z449yzbf",
      "maps_place_token": null
    },
    {
      "name": "Terry Black's Barbecue",
      "address": "1003 Barton Springs Rd, Austin, TX 78704",
      "note": null,
      "is_favorite": false,
      "lat": 30.2597015,
      "lng": -97.75482339999999,
      "maps_url": "https://maps.google.com/?q=30.2597015,-97.7548234",
      "cid": null,
      "google_id": "/g/1ptw839c8",
      "maps_place_token": null
    },
    {
      "name": "DuMont's Down Low",
      "address": "214 W 4th St Suite B, Austin, TX 78701, United States",
      "note": null,
      "is_favorite": false,
      "lat": 30.2668732,
      "lng": -97.7454326,
      "maps_url": "https://maps.google.com/?cid=2371908426973362301",
      "cid": "2371908426973362301",
      "google_id": "/g/11fhng7shs",
      "maps_place_token": null
    },
    {
      "name": "Flower Child",
      "address": "500 W 2nd St Suite 133, Austin, TX 78701, United States",
      "note": null,
      "is_favorite": false,
      "lat": 30.266036099999997,
      "lng": -97.74965279999999,
      "maps_url": "https://maps.google.com/?q=30.2660361,-97.7496528",
      "cid": null,
      "google_id": "/g/11f37w1qvv",
      "maps_place_token": null
    },
    {
      "name": "Here Nor There",
      "address": "612 Brazos St, Austin, TX 78701, United States",
      "note": null,
      "is_favorite": false,
      "lat": 30.2684109,
      "lng": -97.7413784,
      "maps_url": "https://maps.google.com/?cid=685283831439639801",
      "cid": "685283831439639801",
      "google_id": "/g/11gsbmlkfz",
      "maps_place_token": null
    },
    {
      "name": "Small Victory",
      "address": "108 E 7th St, Austin, TX 78701, United States",
      "note": null,
      "is_favorite": false,
      "lat": 30.268925999999997,
      "lng": -97.7416927,
      "maps_url": "https://maps.google.com/?q=30.2689260,-97.7416927",
      "cid": null,
      "google_id": "/g/11bxfsn30w",
      "maps_place_token": null
    },
    {
      "name": "Happy Chicks",
      "address": "214 E 6th St, Austin, TX 78701, United States",
      "note": null,
      "is_favorite": false,
      "lat": 30.2676259,
      "lng": -97.7407858,
      "maps_url": "https://maps.google.com/?cid=5040330783418647592",
      "cid": "5040330783418647592",
      "google_id": "/g/11f03yrvns",
      "maps_place_token": null
    },
    {
      "name": "Kinfolk Lounge & Library",
      "address": "303 B Red River St, Austin, TX 78701, United States",
      "note": null,
      "is_favorite": false,
      "lat": 30.264063399999998,
      "lng": -97.7379309,
      "maps_url": "https://maps.google.com/?q=30.2640634,-97.7379309",
      "cid": null,
      "google_id": "/g/11sgktdmrv",
      "maps_place_token": null
    },
    {
      "name": "Las Perlas",
      "address": "405 E 7th St, Austin, TX 78701, United States",
      "note": null,
      "is_favorite": false,
      "lat": 30.2676883,
      "lng": -97.7386274,
      "maps_url": "https://maps.google.com/?q=30.2676883,-97.7386274",
      "cid": null,
      "google_id": "/g/11f0__r9xc",
      "maps_place_token": null
    },
    {
      "name": "Nickel City",
      "address": "1133 E 11th St, Austin, TX 78702, United States",
      "note": null,
      "is_favorite": false,
      "lat": 30.2686584,
      "lng": -97.72804939999999,
      "maps_url": "https://maps.google.com/?cid=7492122358231467023",
      "cid": "7492122358231467023",
      "google_id": "/g/11ddytpm42",
      "maps_place_token": null
    },
    {
      "name": "Vintage Bookstore and Wine Bar",
      "address": "1101 E 11th St, Austin, TX 78702, United States",
      "note": null,
      "is_favorite": false,
      "lat": 30.2690254,
      "lng": -97.72925459999999,
      "maps_url": "https://maps.google.com/?cid=1613765359628645237",
      "cid": "1613765359628645237",
      "google_id": "/g/11sx22bstl",
      "maps_place_token": null
    },
    {
      "name": "Try Hard Coffee Roasters",
      "address": "1115 E 11th St, Austin, TX 78702, United States",
      "note": null,
      "is_favorite": false,
      "lat": 30.2688103,
      "lng": -97.7287539,
      "maps_url": "https://maps.google.com/?q=30.2688103,-97.7287539",
      "cid": null,
      "google_id": "/g/11k5zn4k55",
      "maps_place_token": null
    },
    {
      "name": "Las Trancas Taco Stand",
      "address": "1210 E Cesar Chavez St, Austin, TX 78702, United States",
      "note": null,
      "is_favorite": false,
      "lat": 30.2598535,
      "lng": -97.73180579999999,
      "maps_url": "https://maps.google.com/?q=30.2598535,-97.7318058",
      "cid": null,
      "google_id": "/g/11bcd_2wvb",
      "maps_place_token": null
    },
    {
      "name": "Licha's Cantina",
      "address": "1306 E 6th St, Austin, TX 78702, United States",
      "note": null,
      "is_favorite": false,
      "lat": 30.263989799999997,
      "lng": -97.7288647,
      "maps_url": "https://maps.google.com/?cid=906797388716795360",
      "cid": "906797388716795360",
      "google_id": "/g/1pwfx8_lr",
      "maps_place_token": null
    },
    {
      "name": "High Noon",
      "address": "2000 E Cesar Chavez St, Austin, TX 78702, United States",
      "note": null,
      "is_favorite": false,
      "lat": 30.2569554,
      "lng": -97.7233859,
      "maps_url": "https://maps.google.com/?q=30.2569554,-97.7233859",
      "cid": null,
      "google_id": "/g/11j8lgfxx8",
      "maps_place_token": null
    },
    {
      "name": "The Grackle",
      "address": "1700 E 6th St, Austin, TX 78702, United States",
      "note": null,
      "is_favorite": false,
      "lat": 30.2626833,
      "lng": -97.7241581,
      "maps_url": "https://maps.google.com/?q=30.2626833,-97.7241581",
      "cid": null,
      "google_id": "/g/1hc8wq4_h",
      "maps_place_token": null
    },
    {
      "name": "Juniper",
      "address": "2400 E Cesar Chavez St UNIT 304, Austin, TX 78702, United States",
      "note": null,
      "is_favorite": false,
      "lat": 30.254677899999997,
      "lng": -97.7173081,
      "maps_url": "https://maps.google.com/?cid=2914414295542934348",
      "cid": "2914414295542934348",
      "google_id": "/g/11b7qxpk3s",
      "maps_place_token": null
    },
    {
      "name": "Drinks Lounge",
      "address": "2001 E Cesar Chavez St, Austin, TX 78702, United States",
      "note": null,
      "is_favorite": false,
      "lat": 30.256465,
      "lng": -97.7232574,
      "maps_url": "https://maps.google.com/?cid=4502994430924086984",
      "cid": "4502994430924086984",
      "google_id": "/g/11b62sjvgt",
      "maps_place_token": null
    },
    {
      "name": "La Holly",
      "address": "2500 E 6th St, Austin, TX 78702, United States",
      "note": null,
      "is_favorite": false,
      "lat": 30.2590196,
      "lng": -97.7144697,
      "maps_url": "https://maps.google.com/?cid=2162809300622987953",
      "cid": "2162809300622987953",
      "google_id": "/g/11c6tyjsbm",
      "maps_place_token": null
    },
    {
      "name": "Loro",
      "address": "2115 S Lamar Blvd, Austin, TX 78704, United States",
      "note": null,
      "is_favorite": false,
      "lat": 30.2477396,
      "lng": -97.7713502,
      "maps_url": "https://maps.google.com/?q=30.2477396,-97.7713502",
      "cid": null,
      "google_id": "/g/11gcqgwfn9",
      "maps_place_token": null
    },
    {
      "name": "De Nada Cantina",
      "address": "4715 E Cesar Chavez St, Austin, TX 78702, United States",
      "note": null,
      "is_favorite": false,
      "lat": 30.2514045,
      "lng": -97.7021716,
      "maps_url": "https://maps.google.com/?cid=5659552000657878281",
      "cid": "5659552000657878281",
      "google_id": "/g/11mw7352l3",
      "maps_place_token": null
    }
  ]
}
