{
  "fetched_at": "2026-04-15T23:44:38.813215+00:00",
  "refresh_after": "2026-04-29T23:44:38.813215+00:00",
  "source_signature": "6372284768278d1392c5abefd8546dba8db4dea398732625ab0f2df6a3a42f06",
  "configured_source_type": "google_list_url",
  "configured_source_url": "https://maps.app.goo.gl/M8RTmwqQLgV7LHuz9",
  "configured_source_path": null,
  "source_url": "https://maps.app.goo.gl/M8RTmwqQLgV7LHuz9",
  "list_id": "sX6iU5aHE1j2h0PiV0k5SkilYz07jQ",
  "title": "Baku, Azerbaijan 🇦🇿",
  "description": null,
  "places": [
    {
      "name": "Fillet House",
      "address": "145 Neftchilar Ave, Baku, Azerbaijan",
      "note": null,
      "is_favorite": false,
      "lat": 40.3745136,
      "lng": 49.8590496,
      "maps_url": "https://maps.google.com/?cid=4625334258349621939",
      "cid": "4625334258349621939",
      "google_id": "/g/1hc19vql6",
      "maps_place_token": null
    },
    {
      "name": "Galateya",
      "address": "9R8M+2MF, Baku 1000, Azerbaijan",
      "note": null,
      "is_favorite": false,
      "lat": 40.3646829,
      "lng": 49.834323999999995,
      "maps_url": "https://maps.google.com/?cid=4625335033037556631",
      "cid": "4625335033037556631",
      "google_id": "/g/11s55vpj64",
      "maps_place_token": null
    },
    {
      "name": "Mr and Mrs Desi Eatery Pakistani & Hind Restaurant",
      "address": null,
      "note": null,
      "is_favorite": false,
      "lat": 40.3731505,
      "lng": 49.8414558,
      "maps_url": "https://maps.google.com/?cid=4625334287591881639",
      "cid": "4625334287591881639",
      "google_id": null,
      "maps_place_token": null
    },
    {
      "name": "Caral Restaurant",
      "address": "20 Hazi Aslanov St, Baku 1005, Azerbaijan",
      "note": null,
      "is_favorite": false,
      "lat": 40.3721639,
      "lng": 49.8325165,
      "maps_url": "https://maps.google.com/?cid=4625335036935383913",
      "cid": "4625335036935383913",
      "google_id": "/g/11tmqc0y9x",
      "maps_place_token": null
    },
    {
      "name": "Megobari Georgian Restobar",
      "address": "19/13 Khagani Street, Baku 1005, Azerbaijan",
      "note": null,
      "is_favorite": false,
      "lat": 40.373162,
      "lng": 49.843168299999995,
      "maps_url": "https://maps.google.com/?cid=4625335220218625983",
      "cid": "4625335220218625983",
      "google_id": "/g/11v197mxff",
      "maps_place_token": null
    },
    {
      "name": "Mari Vanna",
      "address": "93 Zərifə Əliyeva Küçəsi, Bakı, Azerbaijan",
      "note": null,
      "is_favorite": false,
      "lat": 40.3727611,
      "lng": 49.849311099999994,
      "maps_url": "https://maps.google.com/?cid=4625334995691011943",
      "cid": "4625334995691011943",
      "google_id": "/g/1ptwg6zjv",
      "maps_place_token": null
    },
    {
      "name": "Baku Book Center",
      "address": "9RCR+GHC, Baku 1009, Azerbaijan",
      "note": null,
      "is_favorite": false,
      "lat": 40.371317399999995,
      "lng": 49.8413967,
      "maps_url": "https://maps.google.com/?cid=4625334552711694397",
      "cid": "4625334552711694397",
      "google_id": "/g/11gm6v56zp",
      "maps_place_token": null
    },
    {
      "name": "Meyzər Dessert Drinks",
      "address": "9 Узеир Гаджибеков, Baku, Azerbaijan",
      "note": null,
      "is_favorite": false,
      "lat": 40.3714052,
      "lng": 49.841692099999996,
      "maps_url": "https://maps.google.com/?cid=4625334770540912975",
      "cid": "4625334770540912975",
      "google_id": "/g/11ydg4_3j0",
      "maps_place_token": null
    },
    {
      "name": "Romeo Land Restaurant",
      "address": null,
      "note": null,
      "is_favorite": false,
      "lat": 40.3714802,
      "lng": 49.838757,
      "maps_url": "https://maps.google.com/?cid=4625334258254073323",
      "cid": "4625334258254073323",
      "google_id": null,
      "maps_place_token": null
    },
    {
      "name": "Merci Baku",
      "address": "Asaf Zeynalli,16, AZ1000 Baku, Azerbaijan, Kichik Qala, Bakı 1000, Azerbaijan",
      "note": null,
      "is_favorite": false,
      "lat": 40.364582299999995,
      "lng": 49.8349444,
      "maps_url": "https://maps.google.com/?cid=4625335127944526113",
      "cid": "4625335127944526113",
      "google_id": "/g/11b6nsvrwg",
      "maps_place_token": null
    },
    {
      "name": "Double Eleven Cocktail & Wine Bar",
      "address": "6C Haji Zeynalabdin Taghiyev St, Baku 1001, Azerbaijan",
      "note": null,
      "is_favorite": false,
      "lat": 40.3700298,
      "lng": 49.839159699999996,
      "maps_url": "https://maps.google.com/?cid=4625334410061376663",
      "cid": "4625334410061376663",
      "google_id": "/g/11rfq19pnl",
      "maps_place_token": null
    },
    {
      "name": "Kichin.baku",
      "address": "54 Nizami St, Baku, Azerbaijan",
      "note": null,
      "is_favorite": false,
      "lat": 40.3727279,
      "lng": 49.8397936,
      "maps_url": "https://maps.google.com/?cid=4625334283547771063",
      "cid": "4625334283547771063",
      "google_id": "/g/11xryjkf71",
      "maps_place_token": null
    },
    {
      "name": "Latitude & Longitude Bar Lounge",
      "address": "4, 6 Əziz Əliyev küçəsi, Bakı 1005, Azerbaijan",
      "note": null,
      "is_favorite": false,
      "lat": 40.368392899999996,
      "lng": 49.8380957,
      "maps_url": "https://maps.google.com/?cid=4625334388469715929",
      "cid": "4625334388469715929",
      "google_id": "/g/11qpz18q9d",
      "maps_place_token": null
    },
    {
      "name": "Xəngəland",
      "address": "9R8H+G5M, Rastrap, Baku, Azerbaijan",
      "note": null,
      "is_favorite": false,
      "lat": 40.366338299999995,
      "lng": 49.827926299999994,
      "maps_url": "https://maps.google.com/?cid=4625334874345803743",
      "cid": "4625334874345803743",
      "google_id": "/g/11fjbqjjmt",
      "maps_place_token": null
    },
    {
      "name": "Dukkan Khatai",
      "address": "35 Suleyman Vazirov, Baku 1005, Azerbaijan",
      "note": null,
      "is_favorite": false,
      "lat": 40.3842976,
      "lng": 49.8728932,
      "maps_url": "https://maps.google.com/?cid=4625334386864344219",
      "cid": "4625334386864344219",
      "google_id": "/g/11lm_63scg",
      "maps_place_token": null
    },
    {
      "name": "Gusto Moderno Restaurant",
      "address": "34 Neftchilar Ave, Baku 1010, Azerbaijan",
      "note": null,
      "is_favorite": false,
      "lat": 40.3696001,
      "lng": 49.845808899999994,
      "maps_url": "https://maps.google.com/?cid=4625334256438258981",
      "cid": "4625334256438258981",
      "google_id": "/g/11vy3mmxc0",
      "maps_place_token": null
    },
    {
      "name": "Xanliq restaurant",
      "address": "9R8M+V4R, Qesr, Bakı, Azerbaijan",
      "note": null,
      "is_favorite": false,
      "lat": 40.3672469,
      "lng": 49.8327964,
      "maps_url": "https://maps.google.com/?cid=4625334256504929145",
      "cid": "4625334256504929145",
      "google_id": "/g/11vym0r4cg",
      "maps_place_token": null
    },
    {
      "name": "Scalini Italian Restaurant",
      "address": "6 Bakıxanov Küçəsi, Bakı 1065, Azerbaijan",
      "note": null,
      "is_favorite": false,
      "lat": 40.3863458,
      "lng": 49.8254308,
      "maps_url": "https://maps.google.com/?cid=4625334922366350731",
      "cid": "4625334922366350731",
      "google_id": "/g/1tmbtltj",
      "maps_place_token": null
    },
    {
      "name": "Maiden Tower",
      "address": "Qız Qalası, Məmmədəmin Rəsulzadə, Bakı, Azerbaijan",
      "note": null,
      "is_favorite": false,
      "lat": 40.3661926,
      "lng": 49.8372749,
      "maps_url": "https://maps.google.com/?cid=4625335036379997709",
      "cid": "4625335036379997709",
      "google_id": "/g/11txzxv5lb",
      "maps_place_token": null
    },
    {
      "name": "Otdix",
      "address": "7 Hasan Salmani St, Baku 1005, Azerbaijan",
      "note": null,
      "is_favorite": false,
      "lat": 40.3822529,
      "lng": 49.862266,
      "maps_url": "https://maps.google.com/?cid=4625334278934206241",
      "cid": "4625334278934206241",
      "google_id": "/g/1tdgn9lv",
      "maps_place_token": null
    },
    {
      "name": "Mangal Steak House",
      "address": "5 Aydin Nasirov, Bakı, Azerbaijan",
      "note": null,
      "is_favorite": false,
      "lat": 40.3431184,
      "lng": 49.841200699999995,
      "maps_url": "https://maps.google.com/?cid=4625333290018822367",
      "cid": "4625333290018822367",
      "google_id": "/g/11b6s3gqym",
      "maps_place_token": null
    },
    {
      "name": "Shirvanshah Museum Restaurant",
      "address": "86 Salatın Əsgərova, Bakı 1009, Azerbaijan",
      "note": null,
      "is_favorite": false,
      "lat": 40.3794441,
      "lng": 49.8337442,
      "maps_url": "https://maps.google.com/?cid=4625334955912565385",
      "cid": "4625334955912565385",
      "google_id": "/g/11b634wvds",
      "maps_place_token": null
    },
    {
      "name": "Charles Leclerc (I am stupid)",
      "address": "33 Əziz Əliyev, Bakı 1002, Azerbaijan",
      "note": null,
      "is_favorite": false,
      "lat": 40.3687289,
      "lng": 49.8371479,
      "maps_url": "https://maps.google.com/?cid=4625334835387678325",
      "cid": "4625334835387678325",
      "google_id": "/g/11yh1hkj97",
      "maps_place_token": null
    },
    {
      "name": "Nar & Şərab",
      "address": "Namiq Quliyev, Baku, Azerbaijan",
      "note": null,
      "is_favorite": false,
      "lat": 40.3049313,
      "lng": 49.8246664,
      "maps_url": "https://maps.google.com/?cid=4625329689648389975",
      "cid": "4625329689648389975",
      "google_id": "/g/1hc5099gs",
      "maps_place_token": null
    },
    {
      "name": "Art Club Restaurant",
      "address": "Icherisheher, 9 Asaf Zeynalli street, Baku 1095, Azerbaijan",
      "note": null,
      "is_favorite": false,
      "lat": 40.3643809,
      "lng": 49.833813899999996,
      "maps_url": "https://maps.google.com/?cid=4625334441402379153",
      "cid": "4625334441402379153",
      "google_id": "/g/11s6t33vbh",
      "maps_place_token": null
    },
    {
      "name": "CASA",
      "address": "26b Mikayıl Useynov Prospekti, Baku 1003, Azerbaijan",
      "note": null,
      "is_favorite": false,
      "lat": 40.3582754,
      "lng": 49.8367997,
      "maps_url": "https://maps.google.com/?cid=4625335286939523697",
      "cid": "4625335286939523697",
      "google_id": "/g/11swcqvbv9",
      "maps_place_token": null
    },
    {
      "name": "Agabala Restaurant",
      "address": "Xaqani 95B, Bakı 1010, Azerbaijan",
      "note": null,
      "is_favorite": false,
      "lat": 40.376242999999995,
      "lng": 49.8537788,
      "maps_url": "https://maps.google.com/?cid=4625334335285604643",
      "cid": "4625334335285604643",
      "google_id": "/g/11k548zfv4",
      "maps_place_token": null
    },
    {
      "name": "KURBAN SAID Restaurant",
      "address": "Old City 82, Qesr, Baku 1000, Azerbaijan",
      "note": null,
      "is_favorite": false,
      "lat": 40.366838099999995,
      "lng": 49.8329695,
      "maps_url": "https://maps.google.com/?cid=4625334977369894639",
      "cid": "4625334977369894639",
      "google_id": "/g/11smxcd8h4",
      "maps_place_token": null
    },
    {
      "name": "Hanzade Restaurant",
      "address": "122G Samad Vurgun, Baku 1022, Azerbaijan",
      "note": null,
      "is_favorite": false,
      "lat": 40.3871106,
      "lng": 49.837194499999995,
      "maps_url": "https://maps.google.com/?cid=4625335062710168135",
      "cid": "4625335062710168135",
      "google_id": "/g/11l1r02fmw",
      "maps_place_token": null
    },
    {
      "name": "Fisincan Cafe & Restaurant",
      "address": null,
      "note": null,
      "is_favorite": false,
      "lat": 40.3714405,
      "lng": 49.8360601,
      "maps_url": "https://maps.google.com/?cid=4625335015251560981",
      "cid": "4625335015251560981",
      "google_id": null,
      "maps_place_token": null
    },
    {
      "name": "Qaynana Restaurant",
      "address": null,
      "note": null,
      "is_favorite": false,
      "lat": 40.368607,
      "lng": 49.8359697,
      "maps_url": "https://maps.google.com/?cid=4625335040289121117",
      "cid": "4625335040289121117",
      "google_id": null,
      "maps_place_token": null
    },
    {
      "name": "pakhlava boutique baku",
      "address": "188 Murtuza Mukhtarov, Baku 1065, Azerbaijan",
      "note": null,
      "is_favorite": false,
      "lat": 40.383997699999995,
      "lng": 49.8276034,
      "maps_url": "https://maps.google.com/?cid=4625335112914416483",
      "cid": "4625335112914416483",
      "google_id": "/g/11r9qqvtjl",
      "maps_place_token": null
    },
    {
      "name": "Firuze restaurant",
      "address": null,
      "note": null,
      "is_favorite": false,
      "lat": 40.370468699999996,
      "lng": 49.837714899999995,
      "maps_url": "https://maps.google.com/?cid=4625335041635087331",
      "cid": "4625335041635087331",
      "google_id": null,
      "maps_place_token": null
    },
    {
      "name": "Matbakh Restaurant",
      "address": null,
      "note": null,
      "is_favorite": false,
      "lat": 40.3764843,
      "lng": 49.8532261,
      "maps_url": "https://maps.google.com/?cid=5582347957531868318",
      "cid": "5582347957531868318",
      "google_id": null,
      "maps_place_token": null
    },
    {
      "name": "Dolma Restaurant",
      "address": null,
      "note": null,
      "is_favorite": false,
      "lat": 40.3698307,
      "lng": 49.836900299999996,
      "maps_url": "https://maps.google.com/?cid=4625335041453269131",
      "cid": "4625335041453269131",
      "google_id": null,
      "maps_place_token": null
    },
    {
      "name": "Xezer Restaurant",
      "address": null,
      "note": null,
      "is_favorite": false,
      "lat": 40.3694999,
      "lng": 49.8365343,
      "maps_url": "https://maps.google.com/?cid=4625334569965121377",
      "cid": "4625334569965121377",
      "google_id": null,
      "maps_place_token": null
    },
    {
      "name": "Desidine restaurant",
      "address": null,
      "note": null,
      "is_favorite": false,
      "lat": 40.3713919,
      "lng": 49.838707,
      "maps_url": "https://maps.google.com/?cid=4625334320737674625",
      "cid": "4625334320737674625",
      "google_id": null,
      "maps_place_token": null
    },
    {
      "name": "Flavors Fusion Cuisine Indian Restaurant",
      "address": "103 Inshaatchilar avenue, Baku, Azerbaijan",
      "note": null,
      "is_favorite": false,
      "lat": 40.3845019,
      "lng": 49.823294399999995,
      "maps_url": "https://maps.google.com/?cid=4625334389366179747",
      "cid": "4625334389366179747",
      "google_id": "/g/11f6dp_28_",
      "maps_place_token": null
    },
    {
      "name": "Nergiz Restaurant",
      "address": "Fountain Square, 9 Tərlan Əliyarbəyov, Bakı 1000, Azerbaijan",
      "note": null,
      "is_favorite": false,
      "lat": 40.3703791,
      "lng": 49.8372886,
      "maps_url": "https://maps.google.com/?cid=4625335017197919753",
      "cid": "4625335017197919753",
      "google_id": "/g/11bxc5y30k",
      "maps_place_token": null
    },
    {
      "name": "Marani Restaurant",
      "address": null,
      "note": null,
      "is_favorite": false,
      "lat": 40.372591199999995,
      "lng": 49.845945699999994,
      "maps_url": "https://maps.google.com/?cid=4625334897405978301",
      "cid": "4625334897405978301",
      "google_id": null,
      "maps_place_token": null
    },
    {
      "name": "Yanar Dag",
      "address": null,
      "note": null,
      "is_favorite": false,
      "lat": 40.501861,
      "lng": 49.89125,
      "maps_url": "https://maps.google.com/?cid=4625350707528204245",
      "cid": "4625350707528204245",
      "google_id": null,
      "maps_place_token": null
    },
    {
      "name": "Gobustan Rock Art Cultural Landscape",
      "address": null,
      "note": null,
      "is_favorite": false,
      "lat": 40.111446099999995,
      "lng": 49.378386,
      "maps_url": "https://maps.google.com/?cid=4628279315384480485",
      "cid": "4628279315384480485",
      "google_id": null,
      "maps_place_token": null
    },
    {
      "name": "Heydar Mosque",
      "address": null,
      "note": null,
      "is_favorite": false,
      "lat": 40.4287837,
      "lng": 49.8242054,
      "maps_url": "https://maps.google.com/?cid=4625346146023256955",
      "cid": "4625346146023256955",
      "google_id": null,
      "maps_place_token": null
    },
    {
      "name": "Bibiheybat",
      "address": null,
      "note": null,
      "is_favorite": false,
      "lat": 40.3085327,
      "lng": 49.8204346,
      "maps_url": "https://maps.google.com/?cid=4625329685866657773",
      "cid": "4625329685866657773",
      "google_id": null,
      "maps_place_token": null
    },
    {
      "name": "Nizami Street",
      "address": null,
      "note": null,
      "is_favorite": false,
      "lat": 40.3741221,
      "lng": 49.845397399999996,
      "maps_url": "https://maps.google.com/?cid=4625335007918714765",
      "cid": "4625335007918714765",
      "google_id": null,
      "maps_place_token": null
    },
    {
      "name": "Ganjlik Mall",
      "address": null,
      "note": null,
      "is_favorite": false,
      "lat": 40.4001309,
      "lng": 49.8529446,
      "maps_url": "https://maps.google.com/?cid=4625334657207767045",
      "cid": "4625334657207767045",
      "google_id": null,
      "maps_place_token": null
    },
    {
      "name": "Atashgah Zoroastrian Fire Temple",
      "address": null,
      "note": null,
      "is_favorite": false,
      "lat": 40.4158969,
      "lng": 50.009068299999996,
      "maps_url": "https://maps.google.com/?cid=4625306623300716347",
      "cid": "4625306623300716347",
      "google_id": null,
      "maps_place_token": null
    },
    {
      "name": "Azerbaijan Carpet Museum",
      "address": null,
      "note": null,
      "is_favorite": false,
      "lat": 40.359929799999996,
      "lng": 49.8358238,
      "maps_url": "https://maps.google.com/?cid=4625333378402376789",
      "cid": "4625333378402376789",
      "google_id": null,
      "maps_place_token": null
    },
    {
      "name": "Palace of the Shirvanshahs",
      "address": null,
      "note": null,
      "is_favorite": false,
      "lat": 40.366560299999996,
      "lng": 49.8330422,
      "maps_url": "https://maps.google.com/?cid=4625335124317630587",
      "cid": "4625335124317630587",
      "google_id": null,
      "maps_place_token": null
    },
    {
      "name": "Flame Towers",
      "address": null,
      "note": null,
      "is_favorite": false,
      "lat": 40.3596193,
      "lng": 49.826117499999995,
      "maps_url": "https://maps.google.com/?cid=4625335160976160535",
      "cid": "4625335160976160535",
      "google_id": null,
      "maps_place_token": null
    },
    {
      "name": "Baku Boulevard",
      "address": null,
      "note": null,
      "is_favorite": false,
      "lat": 40.368525399999996,
      "lng": 49.8434891,
      "maps_url": "https://maps.google.com/?cid=4625333486154751265",
      "cid": "4625333486154751265",
      "google_id": null,
      "maps_place_token": null
    },
    {
      "name": "Heydar Aliyev Center",
      "address": null,
      "note": null,
      "is_favorite": false,
      "lat": 40.3958984,
      "lng": 49.867815099999994,
      "maps_url": "https://maps.google.com/?cid=4625334533828748989",
      "cid": "4625334533828748989",
      "google_id": null,
      "maps_place_token": null
    }
  ]
}
