{
  "fetched_at": "2026-04-15T15:23:02.189530+00:00",
  "refresh_after": "2026-04-29T15:23:02.189530+00:00",
  "source_signature": "a027a1bfee6a17c16f55ebdfca9000cb3a8a5a7a093f095112a3170aec94ad10",
  "configured_source_type": "google_list_url",
  "configured_source_url": "https://maps.app.goo.gl/VP4zg8Gqp9PoH54f6",
  "configured_source_path": null,
  "source_url": "https://maps.app.goo.gl/VP4zg8Gqp9PoH54f6",
  "list_id": "OzI11UmISFygYeSQxWIrXqgKS-SlDg",
  "title": "Bali, Indonesia 🇮🇩",
  "description": "Michael & Micca’s Bali, Indonesia 🇮🇩 bookmarks. See https://beacons.ai/demflyers for more, or follow on Instagram / Threads / BlueSky @demflyers",
  "places": [
    {
      "name": "Sardine Restaurant",
      "address": "Petitenget St No.21, Kerobokan Kelod, Kuta Utara, Badung Regency, Bali 80361, Indonesia",
      "note": null,
      "is_favorite": false,
      "lat": -8.6716082,
      "lng": 115.1627364,
      "maps_url": "https://maps.google.com/?cid=3301780001592214991",
      "cid": "3301780001592214991",
      "google_id": "/g/119vcnfcv",
      "maps_place_token": null
    },
    {
      "name": "BAR RASA",
      "address": "Jl. Lebak Sari, Br. Taman, Petitenget, Kuta, Kerobokan Kelod, Kuta Utara, Badung Regency, Bali 80361, Indonesia",
      "note": null,
      "is_favorite": false,
      "lat": -8.6774165,
      "lng": 115.1610618,
      "maps_url": "https://maps.google.com/?cid=3301779543034726655",
      "cid": "3301779543034726655",
      "google_id": "/g/11yqrc58kw",
      "maps_place_token": null
    },
    {
      "name": "Papi Sapi Bali - Neighbourhood Grill",
      "address": null,
      "note": null,
      "is_favorite": false,
      "lat": -8.8124375,
      "lng": 115.10681249999999,
      "maps_url": "https://maps.google.com/?cid=3301778431128022861",
      "cid": "3301778431128022861",
      "google_id": null,
      "maps_place_token": null
    },
    {
      "name": "Ohana Bali Restaurant & Bar",
      "address": "Jl. Raya Uluwatu Pecatu Jl. Raya Uluwatu No.888, Ungasan, Kec. Kuta Sel., Kabupaten Badung, Bali 80361, Indonesia",
      "note": null,
      "is_favorite": false,
      "lat": -8.8244813,
      "lng": 115.14197229999999,
      "maps_url": "https://maps.google.com/?cid=3301802158787818967",
      "cid": "3301802158787818967",
      "google_id": "/g/11t437v6wm",
      "maps_place_token": null
    },
    {
      "name": "Teja Uluwatu",
      "address": "08, Pecatu, Kec. Kuta Sel., Kabupaten Badung, Bali 80361, Indonesia",
      "note": null,
      "is_favorite": false,
      "lat": -8.8160175,
      "lng": 115.09069819999999,
      "maps_url": "https://maps.google.com/?cid=3301788936424318247",
      "cid": "3301788936424318247",
      "google_id": "/g/11vrsmdvjy",
      "maps_place_token": null
    },
    {
      "name": "Crate Cafe",
      "address": "Jl. Canggu Padang Linjong No.49F, Canggu, Kec. Kuta Utara, Kabupaten Badung, Bali 80351, Indonesia",
      "note": null,
      "is_favorite": false,
      "lat": -8.6408826,
      "lng": 115.1339577,
      "maps_url": "https://maps.google.com/?cid=3301763569394164025",
      "cid": "3301763569394164025",
      "google_id": "/g/11b7gt2198",
      "maps_place_token": null
    },
    {
      "name": "Rockfish at The Uluwatu",
      "address": "Br Dinas Karang Boma, Jl. Batu Bolong, Pecatu, Uluwatu, Badung Regency, Bali 80361, Indonesia",
      "note": null,
      "is_favorite": false,
      "lat": -8.840677399999999,
      "lng": 115.10334879999999,
      "maps_url": "https://maps.google.com/?cid=3301802140923763267",
      "cid": "3301802140923763267",
      "google_id": "/g/11yf41yc60",
      "maps_place_token": null
    },
    {
      "name": "Bale Udang Kuta",
      "address": "Jl. Nakula No.88, Pemecutan Klod, Kec. Denpasar Bar., Kota Denpasar, Bali 80119, Indonesia",
      "note": null,
      "is_favorite": false,
      "lat": -8.699907999999999,
      "lng": 115.1828,
      "maps_url": "https://maps.google.com/?cid=3301779291853187537",
      "cid": "3301779291853187537",
      "google_id": "/g/11g_kskvx",
      "maps_place_token": null
    },
    {
      "name": "Malini Uluwatu - SEAFOOD & SUNSET",
      "address": "Jalan Raya Malini No.151, Karangboma, Pecatu, Kec. Kuta Sel., Kabupaten Badung, Bali 80361, Indonesia",
      "note": null,
      "is_favorite": false,
      "lat": -8.832207499999999,
      "lng": 115.0870435,
      "maps_url": "https://maps.google.com/?cid=3301789503385122809",
      "cid": "3301789503385122809",
      "google_id": "/g/11bzt31jsz",
      "maps_place_token": null
    },
    {
      "name": "Múse Store. Bingin",
      "address": "Modjo Villas Bingin, Shop, Jl. Pantai Bingin No.3, Pecatu, Kec. Kuta Sel., Kabupaten Badung, Bali 80361, Indonesia",
      "note": null,
      "is_favorite": false,
      "lat": -8.8089955,
      "lng": 115.11462279999999,
      "maps_url": "https://maps.google.com/?cid=3301777829355442983",
      "cid": "3301777829355442983",
      "google_id": "/g/11rp3q1d8_",
      "maps_place_token": null
    },
    {
      "name": "Pretty Things Store",
      "address": "Jl. Pantai Pererenan No.121, Pererenan, Kec. Mengwi, Kabupaten Badung, Bali 80361, Indonesia",
      "note": null,
      "is_favorite": false,
      "lat": -8.6471649,
      "lng": 115.1250946,
      "maps_url": "https://maps.google.com/?cid=3301764149026659043",
      "cid": "3301764149026659043",
      "google_id": "/g/11vym5cxzy",
      "maps_place_token": null
    },
    {
      "name": "Nate concept store uluwatu",
      "address": "Jl. Labuansait No.81, Pecatu, Uluwatu, Kabupaten Badung, Bali 80361 Uluwatu, Kabupaten Badung, Bali 80361, Indonesia",
      "note": null,
      "is_favorite": false,
      "lat": -8.8138091,
      "lng": 115.11036419999999,
      "maps_url": "https://maps.google.com/?cid=3301778420271329607",
      "cid": "3301778420271329607",
      "google_id": "/g/11wfs7__vm",
      "maps_place_token": null
    },
    {
      "name": "Cove. Bingin",
      "address": "Modjo Villas Bingin, Shop 6, Jl. Pantai Bingin, Pecatu, Kec. Kuta Sel., Kabupaten Badung, Bali 80361, Indonesia",
      "note": null,
      "is_favorite": false,
      "lat": -8.8092354,
      "lng": 115.1147527,
      "maps_url": "https://maps.google.com/?cid=3301777921418624757",
      "cid": "3301777921418624757",
      "google_id": "/g/11pf7zpb0d",
      "maps_place_token": null
    },
    {
      "name": "Cin Cin Batu Bolong",
      "address": "Jl. Pantai Batu Bolong No.73a, Canggu, Kec. Kuta Utara, Kabupaten Badung, Bali 80351, Indonesia",
      "note": null,
      "is_favorite": false,
      "lat": -8.652797,
      "lng": 115.1326713,
      "maps_url": "https://maps.google.com/?cid=3301764149995334939",
      "cid": "3301764149995334939",
      "google_id": "/g/11wqmv7wdm",
      "maps_place_token": null
    },
    {
      "name": "YUKI Uluwatu",
      "address": "53MV+5H5, Jl. Labuansait, Pecatu, Kec. Kuta Sel., Kabupaten Badung, Bali 80361, Indonesia",
      "note": null,
      "is_favorite": false,
      "lat": -8.8170893,
      "lng": 115.09397729999999,
      "maps_url": "https://maps.google.com/?cid=3301789214622022763",
      "cid": "3301789214622022763",
      "google_id": "/g/11v0y3p_1r",
      "maps_place_token": null
    },
    {
      "name": "The Warung",
      "address": "Alila Villas Uluwatu Restaurant Jl. Belimbing Sari Banjar, Pecatu, Kec. Kuta Sel., Kabupaten Badung, Bali 80364, Indonesia",
      "note": null,
      "is_favorite": false,
      "lat": -8.8462627,
      "lng": 115.1370369,
      "maps_url": "https://maps.google.com/?cid=3301801377182231713",
      "cid": "3301801377182231713",
      "google_id": "/g/1pzvzb1dn",
      "maps_place_token": null
    },
    {
      "name": "HELLO DJ SCHOOL (HDJ)",
      "address": "Jl. Merta Nadi No.2, Kuta, Kec. Kuta, Kabupaten Badung, Bali 80361, Indonesia",
      "note": null,
      "is_favorite": false,
      "lat": -8.7093859,
      "lng": 115.1836874,
      "maps_url": "https://maps.google.com/?cid=3301779543794500943",
      "cid": "3301779543794500943",
      "google_id": "/g/11lcssvrp3",
      "maps_place_token": null
    },
    {
      "name": "Win Spa Uluwatu Bali",
      "address": "Jl. Raya Uluwatu Pecatu No.108, Ungasan, Kec. Kuta Sel., Kabupaten Badung, Bali 80361, Indonesia",
      "note": null,
      "is_favorite": false,
      "lat": -8.8262108,
      "lng": 115.1403089,
      "maps_url": "https://maps.google.com/?cid=3301777828178650565",
      "cid": "3301777828178650565",
      "google_id": "/g/11mm088zt7",
      "maps_place_token": null
    },
    {
      "name": "MASONRY. Restaurant Uluwatu",
      "address": null,
      "note": null,
      "is_favorite": false,
      "lat": -8.8165104,
      "lng": 115.09257459999999,
      "maps_url": "https://maps.google.com/?cid=3301778283465305459",
      "cid": "3301778283465305459",
      "google_id": null,
      "maps_place_token": null
    },
    {
      "name": "Milk & Madu Uluwatu",
      "address": "Jl. Labuansait, Pecatu, Kec. Kuta Sel., Kabupaten Badung, Bali 80361",
      "note": null,
      "is_favorite": false,
      "lat": -8.813091,
      "lng": 115.1077342,
      "maps_url": "https://maps.google.com/?cid=3301777770020447373",
      "cid": "3301777770020447373",
      "google_id": null,
      "maps_place_token": null
    },
    {
      "name": "Tarragon Georgian Restaurant and Lounge Bar",
      "address": "Jl. Labuansait No.73, Pecatu, Kec. Kuta Sel., Kabupaten Badung, Bali 80361, Indonesia",
      "note": null,
      "is_favorite": false,
      "lat": -8.8117517,
      "lng": 115.1045479,
      "maps_url": "https://maps.google.com/?cid=3301778077120544385",
      "cid": "3301778077120544385",
      "google_id": "/g/11whnv1z_g",
      "maps_place_token": null
    },
    {
      "name": "Shakira Beauty",
      "address": "Jl. Bali Cliff, Ungasan, Kec. Kuta Sel., Kabupaten Badung, Bali 80364, Indonesia",
      "note": null,
      "is_favorite": false,
      "lat": -8.817285799999999,
      "lng": 115.1577476,
      "maps_url": "https://maps.google.com/?cid=3301801897698217625",
      "cid": "3301801897698217625",
      "google_id": "/g/11rj4hy3gm",
      "maps_place_token": null
    },
    {
      "name": "Revolver Canggu",
      "address": "Jl. Nelayan No.5, Canggu, Kec. Kuta Utara, Kabupaten Badung, Bali 80361, Indonesia",
      "note": null,
      "is_favorite": false,
      "lat": -8.6532822,
      "lng": 115.1356362,
      "maps_url": "https://maps.google.com/?cid=3301764890894438301",
      "cid": "3301764890894438301",
      "google_id": "/g/11lfl5nvjn",
      "maps_place_token": null
    },
    {
      "name": "chela",
      "address": "Jl. Pantai Bingin No.3, Pecatu, Kec. Kuta Sel., Kabupaten Badung, Bali 80361, Indonesia",
      "note": null,
      "is_favorite": false,
      "lat": -8.8120496,
      "lng": 115.11332469999999,
      "maps_url": "https://maps.google.com/?cid=3301777408593740965",
      "cid": "3301777408593740965",
      "google_id": "/g/11hfstxr5b",
      "maps_place_token": null
    },
    {
      "name": "Studio K - Movement and Streetwear",
      "address": "Jl. Pantai Bingin No.03, Pecatu, Kec. Kuta Sel., Kabupaten Badung, Bali 80361, Indonesia",
      "note": null,
      "is_favorite": false,
      "lat": -8.8123931,
      "lng": 115.11304489999999,
      "maps_url": "https://maps.google.com/?cid=3301777926579778059",
      "cid": "3301777926579778059",
      "google_id": "/g/11vk2mvmbb",
      "maps_place_token": null
    },
    {
      "name": "Happy Puppy Yoga Bali - Uluwatu",
      "address": "Jl. Pantai Bingin No.03, Pecatu, Kec. Kuta Sel., Kabupaten Badung, Bali 80361, Indonesia",
      "note": null,
      "is_favorite": false,
      "lat": -8.8122357,
      "lng": 115.1132355,
      "maps_url": "https://maps.google.com/?cid=3301777535175379173",
      "cid": "3301777535175379173",
      "google_id": "/g/11xd3tw6zj",
      "maps_place_token": null
    },
    {
      "name": "Rolling Fork Padang Padang",
      "address": "Jl. Labuansait, Pecatu, Kec. Kuta Sel., Kabupaten Badung, Bali 80361, Indonesia",
      "note": null,
      "is_favorite": false,
      "lat": -8.817322299999999,
      "lng": 115.11385639999999,
      "maps_url": "https://maps.google.com/?cid=3301777572187688109",
      "cid": "3301777572187688109",
      "google_id": "/g/11fxd_d3rn",
      "maps_place_token": null
    },
    {
      "name": "TAKK Bali",
      "address": "Jl. Petitenget No.12b, Kerobokan Kelod, Kec. Kuta Utara, Kabupaten Badung, Bali 80361, Indonesia",
      "note": null,
      "is_favorite": false,
      "lat": -8.6745247,
      "lng": 115.15694289999999,
      "maps_url": "https://maps.google.com/?cid=3301779633009073451",
      "cid": "3301779633009073451",
      "google_id": "/g/11yn9sbwvl",
      "maps_place_token": null
    },
    {
      "name": "nailedit.ubud",
      "address": "Jl. Gootama No.7, Padang Tegal Kaja, Kecamatan Ubud, Kabupaten Gianyar, Bali 80571, Indonesia",
      "note": null,
      "is_favorite": false,
      "lat": -8.5089133,
      "lng": 115.26434839999999,
      "maps_url": "https://maps.google.com/?cid=3301768556775078239",
      "cid": "3301768556775078239",
      "google_id": "/g/11krh3_85b",
      "maps_place_token": null
    },
    {
      "name": "Santanera",
      "address": "Jl. Tanah Barak No.55-57, Canggu, Kec. Kuta Utara, Kabupaten Badung, Bali 80351, Indonesia",
      "note": null,
      "is_favorite": false,
      "lat": -8.6518645,
      "lng": 115.1310544,
      "maps_url": "https://maps.google.com/?cid=3301765120458639457",
      "cid": "3301765120458639457",
      "google_id": "/g/11q7zycd7v",
      "maps_place_token": null
    },
    {
      "name": "Aged and Butchered, Canggu",
      "address": "Jl. Pantai Berawa No.99, Tibubeneng, Kec. Kuta Utara, Kabupaten Badung, Bali 80361, Indonesia",
      "note": null,
      "is_favorite": false,
      "lat": -8.6607033,
      "lng": 115.1394693,
      "maps_url": "https://maps.google.com/?cid=3301780240305034373",
      "cid": "3301780240305034373",
      "google_id": "/g/11y4bwtz86",
      "maps_place_token": null
    },
    {
      "name": "The Botanist by Desa Eko",
      "address": "Jl. Kayu Putih, Munduk, Kab, Kabupaten Buleleng, Bali 81152, Indonesia",
      "note": null,
      "is_favorite": false,
      "lat": -8.2538548,
      "lng": 115.07595649999999,
      "maps_url": "https://maps.google.com/?cid=3301566465406081611",
      "cid": "3301566465406081611",
      "google_id": "/g/11j3tb7v1z",
      "maps_place_token": null
    },
    {
      "name": "The Sayan House Restaurant",
      "address": "Jl. Raya Sayan No.70, Sayan, Kecamatan Ubud, Kabupaten Gianyar, Bali 80571, Indonesia",
      "note": null,
      "is_favorite": false,
      "lat": -8.4988078,
      "lng": 115.2440165,
      "maps_url": "https://maps.google.com/?cid=3301768708845828063",
      "cid": "3301768708845828063",
      "google_id": "/g/11b6gdv5k4",
      "maps_place_token": null
    },
    {
      "name": "Seniman Coffee",
      "address": "Jl. Sri Wedari No.5, Banjar Taman Kelod, Kecamatan Ubud, Kabupaten Gianyar, Bali 80571, Indonesia",
      "note": null,
      "is_favorite": false,
      "lat": -8.506749899999999,
      "lng": 115.265208,
      "maps_url": "https://maps.google.com/?cid=3301769002398488763",
      "cid": "3301769002398488763",
      "google_id": "/g/1tdz276b",
      "maps_place_token": null
    },
    {
      "name": "SISTA Dumpling",
      "address": "Jl. Raya Semat No.7, Tibubeneng, Kec. Kuta Utara, Kabupaten Badung, Bali 80361, Indonesia",
      "note": null,
      "is_favorite": false,
      "lat": -8.6578942,
      "lng": 115.14050429999999,
      "maps_url": "https://maps.google.com/?cid=3301780217746587255",
      "cid": "3301780217746587255",
      "google_id": "/g/11gvxx_8xd",
      "maps_place_token": null
    },
    {
      "name": "Arcadia",
      "address": "Jl. Raya Campuhan, Sayan, Kecamatan Ubud, Kabupaten Gianyar, Bali 80571, Indonesia",
      "note": null,
      "is_favorite": false,
      "lat": -8.505003199999999,
      "lng": 115.25442199999999,
      "maps_url": "https://maps.google.com/?cid=3301768882331503981",
      "cid": "3301768882331503981",
      "google_id": "/g/11sbfxp6rc",
      "maps_place_token": null
    },
    {
      "name": "Pison, Petitenget",
      "address": "Petitenget St No.19A, Kerobokan Kelod, Kuta Utara, Badung Regency, Bali 80361, Indonesia",
      "note": null,
      "is_favorite": false,
      "lat": -8.672681899999999,
      "lng": 115.16009349999999,
      "maps_url": "https://maps.google.com/?cid=3301780003458506895",
      "cid": "3301780003458506895",
      "google_id": "/g/11b70khnwh",
      "maps_place_token": null
    },
    {
      "name": "Api Jiwa at Capella Ubud",
      "address": "Banjar Triwangsa, Jl. RY Dalem, Keliki, Kec. Tegallalang, Kabupaten Gianyar, Bali 80561, Indonesia",
      "note": null,
      "is_favorite": false,
      "lat": -8.448286699999999,
      "lng": 115.26821059999999,
      "maps_url": "https://maps.google.com/?cid=3301740645792217927",
      "cid": "3301740645792217927",
      "google_id": "/g/11gmwskxj5",
      "maps_place_token": null
    },
    {
      "name": "Mads Lange at Capella Ubud",
      "address": "Banjar Triwangsa, Jl. RY Dalem, Keliki, Kec. Tegallalang, Kabupaten Gianyar, Bali 80561, Indonesia",
      "note": null,
      "is_favorite": false,
      "lat": -8.448232899999999,
      "lng": 115.2682236,
      "maps_url": "https://maps.google.com/?cid=3301740423952691639",
      "cid": "3301740423952691639",
      "google_id": "/g/11f8jxy876",
      "maps_place_token": null
    },
    {
      "name": "Alila Ubud",
      "address": "Melinggih Kelod, Ubud, Gianyar Regency, Bali 80572, Indonesia",
      "note": null,
      "is_favorite": false,
      "lat": -8.4619577,
      "lng": 115.2406779,
      "maps_url": "https://maps.google.com/?cid=3301739953952833495",
      "cid": "3301739953952833495",
      "google_id": "/g/1ptzsb721",
      "maps_place_token": null
    },
    {
      "name": "Alila Seminyak",
      "address": "Jl. Taman Ganesha Jl. Petitenget No.9, Seminyak, Bali, Kabupaten Badung, Bali 80361, Indonesia",
      "note": null,
      "is_favorite": false,
      "lat": -8.680272,
      "lng": 115.150606,
      "maps_url": "https://maps.google.com/?cid=3301779604378260493",
      "cid": "3301779604378260493",
      "google_id": "/g/11b6_jhr15",
      "maps_place_token": null
    },
    {
      "name": "Ulekan",
      "address": "Jl. Tegal Sari Jl. Pantai Berawa No.34, Tibubeneng, Kec. Kuta Utara, Kabupaten Badung, Bali 80361, Indonesia",
      "note": null,
      "is_favorite": false,
      "lat": -8.660189299999999,
      "lng": 115.1430501,
      "maps_url": "https://maps.google.com/?cid=3301780060945392053",
      "cid": "3301780060945392053",
      "google_id": "/g/11c601xyv6",
      "maps_place_token": null
    },
    {
      "name": "Locavore NXT",
      "address": "Jl. A.A. Gede Rai Gang Pura Panti Bija, Lodtunduh, Kecamatan Ubud, Kabupaten Gianyar, Bali 80571, Indonesia",
      "note": null,
      "is_favorite": false,
      "lat": -8.5422753,
      "lng": 115.2573302,
      "maps_url": "https://maps.google.com/?cid=3301769616040713675",
      "cid": "3301769616040713675",
      "google_id": "/g/11l3253902",
      "maps_place_token": null
    },
    {
      "name": "Mauri Restaurant",
      "address": "Jl. Petitenget No.100, Seminyak, Kec. Kuta Utara, Kabupaten Badung, Bali 80361, Indonesia",
      "note": null,
      "is_favorite": false,
      "lat": -8.6774544,
      "lng": 115.154106,
      "maps_url": "https://maps.google.com/?cid=3301779652161669917",
      "cid": "3301779652161669917",
      "google_id": "/g/11gxmgk1j6",
      "maps_place_token": null
    },
    {
      "name": "Terapung Float Club",
      "address": "Jl. Drupadi No.99A, Seminyak, Kec. Kuta, Kabupaten Badung, Bali 80361, Indonesia",
      "note": null,
      "is_favorite": false,
      "lat": -8.689511099999999,
      "lng": 115.1647462,
      "maps_url": "https://maps.google.com/?cid=3301780295318386919",
      "cid": "3301780295318386919",
      "google_id": "/g/11h5rfm15k",
      "maps_place_token": null
    },
    {
      "name": "Ettore Gelato",
      "address": "Jl. Pantai Pererenan No.88, Canggu, Kec. Mengwi, Kabupaten Badung, Bali 80351, Pererenan, Bali 80361, Indonesia",
      "note": null,
      "is_favorite": false,
      "lat": -8.6431472,
      "lng": 115.12874649999999,
      "maps_url": "https://maps.google.com/?cid=3301764333367500141",
      "cid": "3301764333367500141",
      "google_id": "/g/11srgh26ss",
      "maps_place_token": null
    },
    {
      "name": "Rejuvo Life",
      "address": "Jl. Pantai Berawa No.8, Tibubeneng, Kec. Kuta Utara, Kabupaten Badung, Bali 80361, Indonesia",
      "note": null,
      "is_favorite": false,
      "lat": -8.6463564,
      "lng": 115.1514766,
      "maps_url": "https://maps.google.com/?cid=3301779545002183653",
      "cid": "3301779545002183653",
      "google_id": "/g/11stjv651s",
      "maps_place_token": null
    },
    {
      "name": "Warung Sika",
      "address": "Jl. Tanah Barak No.45, Canggu, Kec. Kuta Utara, Kabupaten Badung, Bali 80351, Indonesia",
      "note": null,
      "is_favorite": false,
      "lat": -8.6509024,
      "lng": 115.13213359999999,
      "maps_url": "https://maps.google.com/?cid=3301763571427418393",
      "cid": "3301763571427418393",
      "google_id": "/g/11bwq6w9vl",
      "maps_place_token": null
    },
    {
      "name": "Inklusiv Warung",
      "address": "Jl. Munduk Catu No.8A, Canggu, Kec. Kuta Utara, Kabupaten Badung, Bali 80361, Indonesia",
      "note": null,
      "is_favorite": false,
      "lat": -8.6530431,
      "lng": 115.13081729999999,
      "maps_url": "https://maps.google.com/?cid=3301764164212875547",
      "cid": "3301764164212875547",
      "google_id": "/g/11t2vcym8c",
      "maps_place_token": null
    },
    {
      "name": "HoiAn by MeVui",
      "address": "Jl. Padang Linjong, Canggu, Kec. Kuta Utara, Kabupaten Badung, Bali 80351, Indonesia",
      "note": null,
      "is_favorite": false,
      "lat": -8.638014199999999,
      "lng": 115.14121159999999,
      "maps_url": "https://maps.google.com/?cid=3301764267495051647",
      "cid": "3301764267495051647",
      "google_id": "/g/11pcsxngff",
      "maps_place_token": null
    },
    {
      "name": "Mimpi Grocery",
      "address": "Jl. Pantai Batu Mejan No.67H, Canggu, Kec. Kuta Utara, Kabupaten Badung, Bali 80351, Indonesia",
      "note": null,
      "is_favorite": false,
      "lat": -8.644844599999999,
      "lng": 115.133135,
      "maps_url": "https://maps.google.com/?cid=3301764424321560781",
      "cid": "3301764424321560781",
      "google_id": "/g/11fsz8z6yc",
      "maps_place_token": null
    },
    {
      "name": "Hot Bamboo Spa Canggu - Massage Therapy & Relaxation",
      "address": "Jl. Tanah Barak No.2, Canggu, Kec. Kuta Utara, Kabupaten Badung, Bali 80351, Indonesia",
      "note": null,
      "is_favorite": false,
      "lat": -8.648494099999999,
      "lng": 115.13659519999999,
      "maps_url": "https://maps.google.com/?cid=3301764200697497705",
      "cid": "3301764200697497705",
      "google_id": "/g/11vwnj__gy",
      "maps_place_token": null
    },
    {
      "name": "GOLDUST SPA",
      "address": "Jl. Pantai Batu Bolong Gg. Nyepi, Canggu, Kec. Kuta Utara, Kabupaten Badung, Bali 80361, Indonesia",
      "note": null,
      "is_favorite": false,
      "lat": -8.65329,
      "lng": 115.13213019999999,
      "maps_url": "https://maps.google.com/?cid=3301763569222678579",
      "cid": "3301763569222678579",
      "google_id": "/g/12qg46gwz",
      "maps_place_token": null
    },
    {
      "name": "Pyramids Of Chi",
      "address": "Banjar Bentuyung Ubud, Jalan Kelebang Moding No.22, Tegallalang, Kec. Tegallalang, Kabupaten Gianyar, Bali 80571, Indonesia",
      "note": null,
      "is_favorite": false,
      "lat": -8.478625599999999,
      "lng": 115.2641707,
      "maps_url": "https://maps.google.com/?cid=3301739645840115197",
      "cid": "3301739645840115197",
      "google_id": "/g/11bwm71s53",
      "maps_place_token": null
    },
    {
      "name": "Café del Mar Beach Club Bali",
      "address": "Jl. Subak Sari, Canggu, Tibubeneng, Kec. Kuta Utara, Kabupaten Badung, Bali 80361, Indonesia",
      "note": null,
      "is_favorite": false,
      "lat": -8.6708008,
      "lng": 115.1444988,
      "maps_url": "https://maps.google.com/?cid=3301779709923924533",
      "cid": "3301779709923924533",
      "google_id": "/g/11gxs038dg",
      "maps_place_token": null
    },
    {
      "name": "Udara Bali Yoga Detox & Spa",
      "address": "Jl. Pura Kramat Jl. Pantai Seseh, Cemagi, Kec. Mengwi, Kabupaten Badung, Bali 80351, Indonesia",
      "note": null,
      "is_favorite": false,
      "lat": -8.6469152,
      "lng": 115.11474349999999,
      "maps_url": "https://maps.google.com/?cid=3301763128935972775",
      "cid": "3301763128935972775",
      "google_id": "/g/11gcqwj13v",
      "maps_place_token": null
    },
    {
      "name": "Nirvana Life Fitness and Wellness Club",
      "address": "Jl. Pantai Berawa No.8, Canggu, Kec. Kuta Utara, Kabupaten Badung, Bali 80361, Indonesia",
      "note": null,
      "is_favorite": false,
      "lat": -8.642678,
      "lng": 115.15444029999999,
      "maps_url": "https://maps.google.com/?cid=3301763668989294323",
      "cid": "3301763668989294323",
      "google_id": "/g/11hbkc2kfz",
      "maps_place_token": null
    },
    {
      "name": "Bodyworks Spa",
      "address": "Jl. Lb. Sari Jl. Petitenget No.3, Seminyak, Kec. Kuta Utara, Kabupaten Badung, Bali 80361, Indonesia",
      "note": null,
      "is_favorite": false,
      "lat": -8.6761838,
      "lng": 115.1572097,
      "maps_url": "https://maps.google.com/?cid=3301779611569310005",
      "cid": "3301779611569310005",
      "google_id": "/g/1tf3dvh0",
      "maps_place_token": null
    },
    {
      "name": "AMO SPA - LIFE. STYLE. SPA. CAFE. CLINIC. WELLNESS.",
      "address": "Jl. Pantai Batu Bolong No.69, Canggu, Kec. Kuta Utara, Kabupaten Badung, Bali 80361, Indonesia",
      "note": null,
      "is_favorite": false,
      "lat": -8.6512523,
      "lng": 115.13449879999999,
      "maps_url": "https://maps.google.com/?cid=3301763570713021947",
      "cid": "3301763570713021947",
      "google_id": "/g/113jw8909",
      "maps_place_token": null
    },
    {
      "name": "Bebek Tepi Sawah",
      "address": "banjar teges, Jl. Raya Goa Gajah, Peliatan, Kecamatan Ubud, Kabupaten Gianyar, Bali 80571, Indonesia",
      "note": null,
      "is_favorite": false,
      "lat": -8.523743999999999,
      "lng": 115.27284949999999,
      "maps_url": "https://maps.google.com/?cid=3301769062804091801",
      "cid": "3301769062804091801",
      "google_id": "/g/11gdsfzh5h",
      "maps_place_token": null
    },
    {
      "name": "Pison, Ubud",
      "address": "Jl. Hanoman No.10X, Ubud, Kecamatan Ubud, Kabupaten Gianyar, Bali 80571, Indonesia",
      "note": null,
      "is_favorite": false,
      "lat": -8.518244,
      "lng": 115.2635779,
      "maps_url": "https://maps.google.com/?cid=3301769071573666917",
      "cid": "3301769071573666917",
      "google_id": "/g/11hdqwr36k",
      "maps_place_token": null
    },
    {
      "name": "Cretya Ubud",
      "address": "Jl. Raya Tegallalang, Tegallalang, Kec. Tegallalang, Kabupaten Gianyar, Bali 80561, Indonesia",
      "note": null,
      "is_favorite": false,
      "lat": -8.4399679,
      "lng": 115.2809321,
      "maps_url": "https://maps.google.com/?cid=3301739406212799107",
      "cid": "3301739406212799107",
      "google_id": "/g/11fzf9y79b",
      "maps_place_token": null
    },
    {
      "name": "ADDA YOGA CANGGU - Meditation | Breath | Sound",
      "address": "Jl. Kayu Manis, Canggu, Kec. Kuta Utara, Kabupaten Badung, Bali 80351, Indonesia",
      "note": null,
      "is_favorite": false,
      "lat": -8.643315,
      "lng": 115.1427276,
      "maps_url": "https://maps.google.com/?cid=3301764202795871523",
      "cid": "3301764202795871523",
      "google_id": "/g/11vdw2ywln",
      "maps_place_token": null
    },
    {
      "name": "Alchemy Yoga and Meditation Center Uluwatu",
      "address": "Jl. Pantai Bingin No.9, Pecatu, Kec. Kuta Sel., Kabupaten Badung, Bali 80363, Indonesia",
      "note": null,
      "is_favorite": false,
      "lat": -8.814519899999999,
      "lng": 115.1131037,
      "maps_url": "https://maps.google.com/?cid=8553789650023306546",
      "cid": "8553789650023306546",
      "google_id": "/g/11kjf_1_fq",
      "maps_place_token": null
    },
    {
      "name": "Alchemy Yoga and Meditation Center Ubud",
      "address": "Jl. Penestanan, Sayan, Kecamatan Ubud, Kabupaten Gianyar, Bali 80571, Indonesia",
      "note": null,
      "is_favorite": false,
      "lat": -8.5059496,
      "lng": 115.25145169999999,
      "maps_url": "https://maps.google.com/?cid=3301768906966683385",
      "cid": "3301768906966683385",
      "google_id": "/g/11smc3nwsp",
      "maps_place_token": null
    },
    {
      "name": "The Iron Fairies Bali",
      "address": "Jl. Petitenget No.19x, Kerobokan Kelod, Kec. Kuta Utara, Kabupaten Badung, Bali 80361, Indonesia",
      "note": null,
      "is_favorite": false,
      "lat": -8.6771175,
      "lng": 115.15511939999999,
      "maps_url": "https://maps.google.com/?cid=3301780628994496835",
      "cid": "3301780628994496835",
      "google_id": "/g/11v5xqjv_5",
      "maps_place_token": null
    },
    {
      "name": "The Lawn Canggu Beach Club",
      "address": "Jl. Pura Dalem, Canggu, Kec. Kuta Utara, Kabupaten Badung, Bali 80361, Indonesia",
      "note": null,
      "is_favorite": false,
      "lat": -8.658523599999999,
      "lng": 115.1296167,
      "maps_url": "https://maps.google.com/?cid=3301780125541992329",
      "cid": "3301780125541992329",
      "google_id": "/g/11clsyj_pt",
      "maps_place_token": null
    },
    {
      "name": "Old Man's",
      "address": "Jl. Pantai Batu Bolong No.117X, Canggu, Kec. Kuta Utara, Kabupaten Badung, Bali 80351, Indonesia",
      "note": null,
      "is_favorite": false,
      "lat": -8.6589741,
      "lng": 115.13080289999999,
      "maps_url": "https://maps.google.com/?cid=3301763589269968347",
      "cid": "3301763589269968347",
      "google_id": "/g/11b75j7hy1",
      "maps_place_token": null
    },
    {
      "name": "Beach Bar - Alila Seminyak",
      "address": "Inside Alila Seminyak, Jl. Taman Ganesha Jl. Petitenget No.9A, Seminyak, Kec. Kuta Utara, Kabupaten Badung, Bali 80361, Indonesia",
      "note": null,
      "is_favorite": false,
      "lat": -8.680134299999999,
      "lng": 115.1501385,
      "maps_url": "https://maps.google.com/?cid=3301779604533447075",
      "cid": "3301779604533447075",
      "google_id": "/g/11f4l9cjv6",
      "maps_place_token": null
    },
    {
      "name": "Ubud Palace",
      "address": "Jl. Raya Ubud No.8, Ubud, Kecamatan Ubud, Kabupaten Gianyar, Bali 80571, Indonesia",
      "note": null,
      "is_favorite": false,
      "lat": -8.5065977,
      "lng": 115.2625884,
      "maps_url": "https://maps.google.com/?cid=3301769006376989259",
      "cid": "3301769006376989259",
      "google_id": null,
      "maps_place_token": null
    },
    {
      "name": "Penataran Agung Lempuyang Temple",
      "address": "Tri Buana, Abang, Karangasem Regency, Bali, Indonesia",
      "note": null,
      "is_favorite": false,
      "lat": -8.3917974,
      "lng": 115.6315595,
      "maps_url": "https://maps.google.com/?cid=3301709273576384659",
      "cid": "3301709273576384659",
      "google_id": "/g/11gdkpxymn",
      "maps_place_token": null
    },
    {
      "name": "Chongqing Liuyishou Hotpot Bali Sunset Road",
      "address": "Jl. Sunset Road No.77C, Kuta, Kec. Kuta, Kabupaten Badung, Bali 80361, Indonesia",
      "note": null,
      "is_favorite": false,
      "lat": -8.716308,
      "lng": 115.18521,
      "maps_url": "https://maps.google.com/?cid=3301779600711772585",
      "cid": "3301779600711772585",
      "google_id": "/g/11fsrdrbtm",
      "maps_place_token": null
    },
    {
      "name": "Warung Chef Bagus Kuta",
      "address": "Jl. Bakung Sari No.43, Kuta, Kec. Kuta Sel., Kabupaten Badung, Bali 80361",
      "note": null,
      "is_favorite": false,
      "lat": -8.724639699999999,
      "lng": 115.17403209999999,
      "maps_url": "https://maps.google.com/?cid=3301779151962218807",
      "cid": "3301779151962218807",
      "google_id": null,
      "maps_place_token": null
    },
    {
      "name": "Loco Love & Coconuts",
      "address": "Canggu, Kuta Utara, Badung Regency, Bali, Indonesia",
      "note": null,
      "is_favorite": false,
      "lat": -8.6531171,
      "lng": 115.1309751,
      "maps_url": "https://maps.google.com/?cid=3301763572549622441",
      "cid": "3301763572549622441",
      "google_id": "/g/11j30yj11v",
      "maps_place_token": null
    },
    {
      "name": "Piramid Spa",
      "address": "Jl. Bypass Ngurah Rai No.16B, Jimbaran, Kec. Kuta Sel., Kabupaten Badung, Bali 80361, Indonesia",
      "note": null,
      "is_favorite": false,
      "lat": -8.7837898,
      "lng": 115.18818619999999,
      "maps_url": "https://maps.google.com/?cid=3301775439635233295",
      "cid": "3301775439635233295",
      "google_id": "/g/11j3rqn01b",
      "maps_place_token": null
    },
    {
      "name": "Palmilla Bali Beach Club",
      "address": "Ungasan, South Kuta, Badung Regency, Bali, Indonesia",
      "note": null,
      "is_favorite": false,
      "lat": -8.8478506,
      "lng": 115.15781199999999,
      "maps_url": "https://maps.google.com/?cid=3301802508889526715",
      "cid": "3301802508889526715",
      "google_id": "/g/11fkdz08s3",
      "maps_place_token": null
    },
    {
      "name": "Alila Villas Uluwatu",
      "address": "Jl. Belimbing Sari, Banjar Tambiyak, Pecatu, Uluwatu, Kabupaten Badung, Bali 80361, Indonesia",
      "note": null,
      "is_favorite": false,
      "lat": -8.8442372,
      "lng": 115.1381182,
      "maps_url": "https://maps.google.com/?cid=3301801384000086465",
      "cid": "3301801384000086465",
      "google_id": "/g/1v2gb4_0",
      "maps_place_token": null
    },
    {
      "name": "La Favela",
      "address": "Jalan Laksamana Oberoi No.177X, Seminyak, Kec. Kuta, Kabupaten Badung, Bali 80561, Indonesia",
      "note": null,
      "is_favorite": false,
      "lat": -8.6838641,
      "lng": 115.1628655,
      "maps_url": "https://maps.google.com/?cid=3301779643202910155",
      "cid": "3301779643202910155",
      "google_id": "/g/1q5bsf7dr",
      "maps_place_token": null
    },
    {
      "name": "Bali Pulina",
      "address": "Jl. Raya Pujung Kelod No.Br, Sebatu, Kec. Tegallalang, Kabupaten Gianyar, Bali 80561, Indonesia",
      "note": null,
      "is_favorite": false,
      "lat": -8.422796,
      "lng": 115.27903839999999,
      "maps_url": "https://maps.google.com/?cid=3301739517341464843",
      "cid": "3301739517341464843",
      "google_id": "/g/11bc7r5jvk",
      "maps_place_token": null
    },
    {
      "name": "Joueta Resort Wear Canggu",
      "address": "Jl. Pantai Batu Bolong No.45, Canggu, Kec. Kuta Utara, Kabupaten Badung, Bali 80361, Indonesia",
      "note": null,
      "is_favorite": false,
      "lat": -8.6487607,
      "lng": 115.1380511,
      "maps_url": "https://maps.google.com/?cid=3301764188850997775",
      "cid": "3301764188850997775",
      "google_id": "/g/11wnmmg7bh",
      "maps_place_token": null
    },
    {
      "name": "Deus Ex Machina - Temple of Enthusiasm",
      "address": "Jl. Batu Mejan Canggu No.8, Canggu, Kec. Kuta Utara, Kabupaten Badung, Bali 80361",
      "note": null,
      "is_favorite": false,
      "lat": -8.6511827,
      "lng": 115.13325999999999,
      "maps_url": "https://maps.google.com/?cid=3301763571039121587",
      "cid": "3301763571039121587",
      "google_id": null,
      "maps_place_token": null
    },
    {
      "name": "Island Traders Canggu",
      "address": "Jl. Batu Mejan Canggu, Canggu, Kec. Kuta Utara, Kabupaten Badung, Bali 80361, Indonesia",
      "note": null,
      "is_favorite": false,
      "lat": -8.6517369,
      "lng": 115.1294142,
      "maps_url": "https://maps.google.com/?cid=3301764544946115059",
      "cid": "3301764544946115059",
      "google_id": "/g/11sf9t4gq_",
      "maps_place_token": null
    },
    {
      "name": "Mekar Ubud Jungle Spa by K club",
      "address": "Jalan Raya Cebok , Kedisan, Tegallalang, Kecamatan Ubud, Bali 80561, Indonesia",
      "note": null,
      "is_favorite": false,
      "lat": -8.4412252,
      "lng": 115.2850948,
      "maps_url": "https://maps.google.com/?cid=3301729496707754797",
      "cid": "3301729496707754797",
      "google_id": "/g/11rql5gjqf",
      "maps_place_token": null
    },
    {
      "name": "K Club Ubud",
      "address": "Jalan Raya Cebok , Kedisan Tegallalang, Kedisan, Kecamatan Ubud, Kabupaten Gianyar, Bali 80561, Indonesia",
      "note": null,
      "is_favorite": false,
      "lat": -8.4412349,
      "lng": 115.2855699,
      "maps_url": "https://maps.google.com/?cid=3301729951861347237",
      "cid": "3301729951861347237",
      "google_id": "/g/11j2p0sk9_",
      "maps_place_token": null
    },
    {
      "name": "La Brisa Sunday Market",
      "address": "Jl. Pantai Batu Mejan, Canggu, Kec. Kuta Utara, Kabupaten Badung, Bali, Indonesia",
      "note": null,
      "is_favorite": false,
      "lat": -8.6542078,
      "lng": 115.1256241,
      "maps_url": "https://maps.google.com/?cid=3301764150329931889",
      "cid": "3301764150329931889",
      "google_id": "/g/11y5508p56",
      "maps_place_token": null
    },
    {
      "name": "The Yoga Barn",
      "address": "F7M8+PVG, Jl. Sukma Kesuma, Peliatan, Kecamatan Ubud, Kabupaten Gianyar, Bali 80571, Indonesia",
      "note": null,
      "is_favorite": false,
      "lat": -8.5195835,
      "lng": 115.266139,
      "maps_url": "https://maps.google.com/?cid=3301769229643871827",
      "cid": "3301769229643871827",
      "google_id": "/g/1hm4sm2mp",
      "maps_place_token": null
    },
    {
      "name": "Hibiscus Restaurant Seminyak",
      "address": "Jl. Drupadi No.23-B, Seminyak, Kec. Kuta, Kabupaten Badung, Bali 80361, Indonesia",
      "note": null,
      "is_favorite": false,
      "lat": -8.6877196,
      "lng": 115.1649635,
      "maps_url": "https://maps.google.com/?cid=3301779647935938945",
      "cid": "3301779647935938945",
      "google_id": "/g/11df1v22_5",
      "maps_place_token": null
    },
    {
      "name": "CRAYFISH Seafood&Bar Seminyak",
      "address": "Jl. Drupadi No.2000, Seminyak, Kec. Kuta, Kabupaten Badung, Bali 80361, Indonesia",
      "note": null,
      "is_favorite": false,
      "lat": -8.6865258,
      "lng": 115.16484299999999,
      "maps_url": "https://maps.google.com/?cid=3301780400381945415",
      "cid": "3301780400381945415",
      "google_id": "/g/11sckjr45s",
      "maps_place_token": null
    },
    {
      "name": "Terra Spa & Wellness",
      "address": "Jl. Drupadi No.20xx, Seminyak, Kec. Kuta, Kabupaten Badung, Bali 80361, Indonesia",
      "note": null,
      "is_favorite": false,
      "lat": -8.685838799999999,
      "lng": 115.164148,
      "maps_url": "https://maps.google.com/?cid=3301779823476326489",
      "cid": "3301779823476326489",
      "google_id": "/g/11fkrtrgl_",
      "maps_place_token": null
    },
    {
      "name": "ShiShi Nightclub & Izakaya Lounge",
      "address": "Jl. Petitenget No.208X, Kerobokan Kelod, Kec. Kuta Utara, Kabupaten Badung, Bali 80361, Indonesia",
      "note": null,
      "is_favorite": false,
      "lat": -8.6772723,
      "lng": 115.15387779999999,
      "maps_url": "https://maps.google.com/?cid=3301779800606812837",
      "cid": "3301779800606812837",
      "google_id": "/g/11h8cr52cp",
      "maps_place_token": null
    },
    {
      "name": "Bhava Spa Nusa Dua",
      "address": "Jl. Pratama No.87, Tanjung, Benoa, Nusa Dua, Kabupaten Badung, Bali 80363, Indonesia",
      "note": null,
      "is_favorite": false,
      "lat": -8.7704641,
      "lng": 115.2220304,
      "maps_url": "https://maps.google.com/?cid=3301775781089737845",
      "cid": "3301775781089737845",
      "google_id": "/g/11j0ycdlxs",
      "maps_place_token": null
    },
    {
      "name": "Spa Yasmin",
      "address": "Jl. Raya Seminyak No.22, Seminyak, Kec. Kuta, Kabupaten Badung, Bali 80361, Indonesia",
      "note": null,
      "is_favorite": false,
      "lat": -8.6938742,
      "lng": 115.1681868,
      "maps_url": "https://maps.google.com/?cid=3301779402557500853",
      "cid": "3301779402557500853",
      "google_id": "/g/1hm59_ff8",
      "maps_place_token": null
    },
    {
      "name": "Ki Ashiatsu + Massage Studio, Seminyak",
      "address": "Jl. Sunset Road No.151, Kerobokan Kelod, Kec. Kuta Utara, Kabupaten Badung, Bali 80361, Indonesia",
      "note": null,
      "is_favorite": false,
      "lat": -8.6824476,
      "lng": 115.16549239999999,
      "maps_url": "https://maps.google.com/?cid=3301780604060122623",
      "cid": "3301780604060122623",
      "google_id": "/g/11gbf9hzdv",
      "maps_place_token": null
    },
    {
      "name": "De Nyuh Spa Seminyak",
      "address": "Grandmas Plus Hotel Seminyak, Jl. Camplung Tanduk No.99 5th Floor, Seminyak, Kuta, Badung Regency, Bali 80361, Indonesia",
      "note": null,
      "is_favorite": false,
      "lat": -8.6921415,
      "lng": 115.16156769999999,
      "maps_url": "https://maps.google.com/?cid=3301779675145529863",
      "cid": "3301779675145529863",
      "google_id": "/g/1jky8qbb2",
      "maps_place_token": null
    },
    {
      "name": "Warung Babi Guling Pak Malen",
      "address": "Jl. Sunset Road No.554, Seminyak, Kec. Kuta, Kabupaten Badung, Bali 80361, Indonesia",
      "note": null,
      "is_favorite": false,
      "lat": -8.684961999999999,
      "lng": 115.1687434,
      "maps_url": "https://maps.google.com/?cid=3301779805060007495",
      "cid": "3301779805060007495",
      "google_id": "/g/11b6t42gzt",
      "maps_place_token": null
    },
    {
      "name": "Kaveri Spa at The Udaya",
      "address": "Jl. Sri Wedari No.48B, Ubud, Kecamatan Ubud, Kabupaten Gianyar, Bali 80571, Indonesia",
      "note": null,
      "is_favorite": false,
      "lat": -8.4863062,
      "lng": 115.2667498,
      "maps_url": "https://maps.google.com/?cid=3301768876126542857",
      "cid": "3301768876126542857",
      "google_id": "/g/11g6px3cqb",
      "maps_place_token": null
    },
    {
      "name": "Warung Nia Balinese Food & Pork Ribs",
      "address": null,
      "note": null,
      "is_favorite": false,
      "lat": -8.686033,
      "lng": 115.1566185,
      "maps_url": "https://maps.google.com/?cid=3301779655401779159",
      "cid": "3301779655401779159",
      "google_id": null,
      "maps_place_token": null
    },
    {
      "name": "Merah Putih",
      "address": "Jalan Petitenget. 100X Kerobokan Kelod, Seminyak, Kuta Utara, Badung Regency, Bali 80361, Indonesia",
      "note": null,
      "is_favorite": false,
      "lat": -8.6767071,
      "lng": 115.15456069999999,
      "maps_url": "https://maps.google.com/?cid=3301779621796727443",
      "cid": "3301779621796727443",
      "google_id": "/g/12qg3fxg8",
      "maps_place_token": null
    },
    {
      "name": "Bambu Indah",
      "address": "Jl. Baung, Sayan, Kecamatan Ubud, Kabupaten Gianyar, Bali 80571, Indonesia",
      "note": null,
      "is_favorite": false,
      "lat": -8.5121895,
      "lng": 115.23845929999999,
      "maps_url": "https://maps.google.com/?cid=3301768824598888821",
      "cid": "3301768824598888821",
      "google_id": "/g/1tg97sbc",
      "maps_place_token": null
    },
    {
      "name": "Sacred Monkey Forest Sanctuary",
      "address": "Jl. Monkey Forest, Ubud, Kecamatan Ubud, Kabupaten Gianyar, Bali 80571",
      "note": null,
      "is_favorite": false,
      "lat": -8.5193727,
      "lng": 115.2606299,
      "maps_url": "https://maps.google.com/?cid=3301768838916905831",
      "cid": "3301768838916905831",
      "google_id": null,
      "maps_place_token": null
    },
    {
      "name": "Kuta Beach",
      "address": "Kuta, Badung Regency, Bali, Indonesia",
      "note": null,
      "is_favorite": false,
      "lat": -8.7184926,
      "lng": 115.16863219999999,
      "maps_url": "https://maps.google.com/?cid=3301779250800430403",
      "cid": "3301779250800430403",
      "google_id": "/g/11c1p6r11n",
      "maps_place_token": null
    },
    {
      "name": "Ulaman Eco Luxury Retreat",
      "address": "Ulaman Road, Buwit, Kediri, Tabanan Regency, Bali 82121, Indonesia",
      "note": null,
      "is_favorite": false,
      "lat": -8.5934636,
      "lng": 115.13081509999999,
      "maps_url": "https://maps.google.com/?cid=3301764291628979987",
      "cid": "3301764291628979987",
      "google_id": "/g/11h9gv96bv",
      "maps_place_token": null
    },
    {
      "name": "FINNS Beach Club",
      "address": "Jl. Pantai Berawa No.99, Canggu, Kec. Kuta Utara, Kabupaten Badung, Bali 80361, Indonesia",
      "note": null,
      "is_favorite": false,
      "lat": -8.6667652,
      "lng": 115.13939839999999,
      "maps_url": "https://maps.google.com/?cid=3301780518421535305",
      "cid": "3301780518421535305",
      "google_id": "/g/11n0cbw837",
      "maps_place_token": null
    },
    {
      "name": "Discovery Shopping Mall",
      "address": "Discovery Shopping Mall, Jl. Kartika Plaza, Kuta, Kec. Kuta, Kabupaten Badung, Bali 80361, Indonesia",
      "note": null,
      "is_favorite": false,
      "lat": -8.728339499999999,
      "lng": 115.1677948,
      "maps_url": "https://maps.google.com/?cid=3301779139288729945",
      "cid": "3301779139288729945",
      "google_id": "/g/11b6_9l2fy",
      "maps_place_token": null
    },
    {
      "name": "Potato Head Beach Club",
      "address": "Petitenget St No.51B, Seminyak, Kuta Utara, Badung Regency, Bali 80361, Indonesia",
      "note": null,
      "is_favorite": false,
      "lat": -8.6794353,
      "lng": 115.14993419999999,
      "maps_url": "https://maps.google.com/?cid=3301779619439146749",
      "cid": "3301779619439146749",
      "google_id": "/g/1tf7j_07",
      "maps_place_token": null
    },
    {
      "name": "Warung Babi Guling Putra Celagi",
      "address": "Jl. Desa Apuan No.87, Apuan, Kec. Susut, Kabupaten Bangli, Bali 80661, Indonesia",
      "note": null,
      "is_favorite": false,
      "lat": -8.4944996,
      "lng": 115.3290871,
      "maps_url": "https://maps.google.com/?cid=3301727443242690767",
      "cid": "3301727443242690767",
      "google_id": "/g/11dyrf0sz7",
      "maps_place_token": null
    },
    {
      "name": "Wapa di Ume Sidemen",
      "address": "Banjar Dinas, Jl. Raya Tebola, Telaga Tawang, Kec. Sidemen, Kabupaten Karangasem, Bali 80864, Indonesia",
      "note": null,
      "is_favorite": false,
      "lat": -8.477483099999999,
      "lng": 115.43871349999999,
      "maps_url": "https://maps.google.com/?cid=3301719581303136123",
      "cid": "3301719581303136123",
      "google_id": "/g/11gdtw91k5",
      "maps_place_token": null
    },
    {
      "name": "Tukad Cepung Waterfall",
      "address": "Jl. Tembuku, Tembuku, Kec. Tembuku, Kabupaten Bangli, Bali 80671, Indonesia",
      "note": null,
      "is_favorite": false,
      "lat": -8.4410173,
      "lng": 115.3868079,
      "maps_url": "https://maps.google.com/?cid=3301731852034550339",
      "cid": "3301731852034550339",
      "google_id": "/g/11qnkky0r9",
      "maps_place_token": null
    },
    {
      "name": "Alas Harum Bali",
      "address": "Jl. Raya Tegallalang, Tegallalang, Kec. Tegallalang, Kabupaten Gianyar, Bali 80561",
      "note": null,
      "is_favorite": false,
      "lat": -8.439799599999999,
      "lng": 115.28072739999999,
      "maps_url": "https://maps.google.com/?cid=3301739405141770259",
      "cid": "3301739405141770259",
      "google_id": null,
      "maps_place_token": null
    },
    {
      "name": "YUKI Canggu",
      "address": "84RH+RM2, Canggu, Kuta Utara, Badung Regency, Bali, Indonesia",
      "note": null,
      "is_favorite": false,
      "lat": -8.6579733,
      "lng": 115.12926159999999,
      "maps_url": "https://maps.google.com/?cid=3301779796550837135",
      "cid": "3301779796550837135",
      "google_id": "/g/11pk9dq8dj",
      "maps_place_token": null
    },
    {
      "name": "ORIGEN Mexican Restaurant",
      "address": "Jl. Pantai Pererenan No.123, Pererenan, Kec. Mengwi, Kabupaten Badung, Bali 80351, Indonesia",
      "note": null,
      "is_favorite": false,
      "lat": -8.6490174,
      "lng": 115.12357689999999,
      "maps_url": "https://maps.google.com/?cid=3301765090382314689",
      "cid": "3301765090382314689",
      "google_id": "/g/11vq2p969n",
      "maps_place_token": null
    },
    {
      "name": "meimei | southeast asian barbeque",
      "address": "Jl. Pantai Batu Bolong Beach No.87, Canggu, Kec. Kuta Utara, Kabupaten Badung, Bali 80361, Indonesia",
      "note": null,
      "is_favorite": false,
      "lat": -8.6545206,
      "lng": 115.1317401,
      "maps_url": "https://maps.google.com/?cid=3301765193191225649",
      "cid": "3301765193191225649",
      "google_id": "/g/11lyg6chg0",
      "maps_place_token": null
    },
    {
      "name": "The edge",
      "address": "Jalan Pura Goa Lempeh Banjar Dinas Kangin Pecatu, Uluwatu, Kec. Kuta Sel., Kabupaten Badung, Bali 80361, Indonesia",
      "note": null,
      "is_favorite": false,
      "lat": -8.8454804,
      "lng": 115.1255132,
      "maps_url": "https://maps.google.com/?cid=3301801457416445159",
      "cid": "3301801457416445159",
      "google_id": "/g/1q5bmy23c",
      "maps_place_token": null
    },
    {
      "name": "Lazy Cats Cafe",
      "address": "Jl. Raya Ubud No.11, Ubud, Kecamatan Ubud, Kabupaten Gianyar, Bali 80571, Indonesia",
      "note": null,
      "is_favorite": false,
      "lat": -8.505293,
      "lng": 115.2582465,
      "maps_url": "https://maps.google.com/?cid=3301768821342395447",
      "cid": "3301768821342395447",
      "google_id": "/g/11c2ksvw65",
      "maps_place_token": null
    },
    {
      "name": "Naughty Nuri's Warung Seminyak",
      "address": "Jalan Mertanadi No. 62 Kerobokan Seminyak, Kerobokan Kelod, Kec. Kuta Utara, Kabupaten Badung, Bali 80361, Indonesia",
      "note": null,
      "is_favorite": false,
      "lat": -8.6775526,
      "lng": 115.1676799,
      "maps_url": "https://maps.google.com/?cid=3301776716738197911",
      "cid": "3301776716738197911",
      "google_id": "/g/11b88m223n",
      "maps_place_token": null
    },
    {
      "name": "Desa Kitsuné",
      "address": "Jl. Munduk Catu No.9, Canggu, Kec. Kuta Utara, Kabupaten Badung, Bali 80363, Indonesia",
      "note": null,
      "is_favorite": false,
      "lat": -8.6550545,
      "lng": 115.12935259999999,
      "maps_url": "https://maps.google.com/?cid=3301765185282588917",
      "cid": "3301765185282588917",
      "google_id": "/g/11v4jdg89t",
      "maps_place_token": null
    },
    {
      "name": "Penny Lane",
      "address": "Jl. Munduk Catu No.9, Canggu, Kec. Kuta Utara, Kabupaten Badung, Bali, Indonesia",
      "note": null,
      "is_favorite": false,
      "lat": -8.653381,
      "lng": 115.13061169999999,
      "maps_url": "https://maps.google.com/?cid=3301764320993812973",
      "cid": "3301764320993812973",
      "google_id": "/g/11fmkx1lvh",
      "maps_place_token": null
    }
  ]
}
