{
  "fetched_at": "2026-04-15T15:28:42.357629+00:00",
  "refresh_after": "2026-04-29T15:28:42.357629+00:00",
  "source_signature": "1152a804af05c5ee23f02dfcb6be5a6dfc7acab0010df57cbfde76a4ec0dc879",
  "configured_source_type": "google_list_url",
  "configured_source_url": "https://maps.app.goo.gl/coLsZiK75aujHidb7",
  "configured_source_path": null,
  "source_url": "https://maps.app.goo.gl/coLsZiK75aujHidb7",
  "list_id": "Uo2RSLwvRXqcM_B3xVlcRw",
  "title": "Bangkok, Thailand 🇹🇭",
  "description": "Michael’s Bangkok, Thailand 🇹🇭 bookmarks. See https://beacons.ai/demflyers for more.",
  "places": [
    {
      "name": "Dib Bangkok",
      "address": "111 Soi Sukhumvit 40, Phra Khanong, Khlong Toei, Bangkok 10110, Thailand",
      "note": null,
      "is_favorite": false,
      "lat": 13.7129126,
      "lng": 100.57976529999999,
      "maps_url": "https://maps.google.com/?cid=3522552681634008249",
      "cid": "3522552681634008249",
      "google_id": "/g/11w2fk9nct",
      "maps_place_token": null
    },
    {
      "name": "etcha",
      "address": "7th Floor, Chatrium Grand Bangkok, 728 Phetchaburi Rd, Khwaeng Thanon Phetchaburi, Khet Ratchathewi, Bangkok 10400, Thailand",
      "note": null,
      "is_favorite": false,
      "lat": 13.7498873,
      "lng": 100.5348944,
      "maps_url": "https://maps.google.com/?cid=3522552876497211257",
      "cid": "3522552876497211257",
      "google_id": "/g/11wg92v4mt",
      "maps_place_token": null
    },
    {
      "name": "Fried Banana Rama 5",
      "address": "116/ Soi 1, บางสีทอง Bang Kruai District, Nonthaburi 11130, Thailand",
      "note": null,
      "is_favorite": false,
      "lat": 13.8230662,
      "lng": 100.47928619999999,
      "maps_url": "https://maps.google.com/?cid=3522547544661204065",
      "cid": "3522547544661204065",
      "google_id": "/g/11bxgmgxn_",
      "maps_place_token": null
    },
    {
      "name": "Kinnaree by Vanessa WU",
      "address": "43 Soi Sukhumvit 8, Khlong Toei, Bangkok 10110, Thailand",
      "note": null,
      "is_favorite": false,
      "lat": 13.7380768,
      "lng": 100.5564138,
      "maps_url": "https://maps.google.com/?cid=3522552548720971717",
      "cid": "3522552548720971717",
      "google_id": "/g/1tdmgy0b",
      "maps_place_token": null
    },
    {
      "name": "The Photobooth",
      "address": "ชั้น, Bantathong Rd Wang Mai, 1 Banthat Thong Rd, Khet, Pathum Wan, Bangkok 10330, Thailand",
      "note": null,
      "is_favorite": false,
      "lat": 13.7362317,
      "lng": 100.5216746,
      "maps_url": "https://maps.google.com/?cid=3522552821564798863",
      "cid": "3522552821564798863",
      "google_id": "/g/11f5t4c8xh",
      "maps_place_token": null
    },
    {
      "name": "Pa Nee Kung Chae Nam Pla",
      "address": "36 ซอย จุฬาฯ 14 Wang Mai, Pathum Wan, Bangkok 10330, Thailand",
      "note": null,
      "is_favorite": false,
      "lat": 13.7428715,
      "lng": 100.523698,
      "maps_url": "https://maps.google.com/?cid=3522546883408937865",
      "cid": "3522546883408937865",
      "google_id": "/g/11t7btwj_x",
      "maps_place_token": null
    },
    {
      "name": "Aey Seafood",
      "address": "1664 Banthat Thong Rd, Rong Mueang, Pathum Wan, Bangkok 10330, Thailand",
      "note": null,
      "is_favorite": false,
      "lat": 13.7404931,
      "lng": 100.5223453,
      "maps_url": "https://maps.google.com/?cid=3522546260836056887",
      "cid": "3522546260836056887",
      "google_id": "/g/1thd43v7",
      "maps_place_token": null
    },
    {
      "name": "Dry Wave Cocktail Studio",
      "address": "2nd Floor SODALITY, 263 Thong Lo 13 Alley, 10110, Thailand",
      "note": null,
      "is_favorite": false,
      "lat": 13.733720499999999,
      "lng": 100.5806374,
      "maps_url": "https://maps.google.com/?cid=3522552681188301921",
      "cid": "3522552681188301921",
      "google_id": "/g/11lcq1lnd_",
      "maps_place_token": null
    },
    {
      "name": "Mahaniyom Cocktail Bar",
      "address": "2nd floor, 104 Maha Set Rd, Si Phraya, Bang Rak, Bangkok 10500, Thailand",
      "note": null,
      "is_favorite": false,
      "lat": 13.729091599999999,
      "lng": 100.5182821,
      "maps_url": "https://maps.google.com/?cid=3522547164124082537",
      "cid": "3522547164124082537",
      "google_id": "/g/11rn7jzqf5",
      "maps_place_token": null
    },
    {
      "name": "Lon Lon Local Diner",
      "address": null,
      "note": null,
      "is_favorite": false,
      "lat": 13.7246309,
      "lng": 100.53076259999999,
      "maps_url": "https://maps.google.com/?cid=3522552813016421365",
      "cid": "3522552813016421365",
      "google_id": null,
      "maps_place_token": null
    },
    {
      "name": "Juksunchae",
      "address": "PHMG+4PR Town Hall, Sukhumvit 49, Khlong Tan Nuea, Watthana, Bangkok 10110, Thailand",
      "note": null,
      "is_favorite": false,
      "lat": 13.732798599999999,
      "lng": 100.57668,
      "maps_url": "https://maps.google.com/?cid=3522552935723177215",
      "cid": "3522552935723177215",
      "google_id": "/g/11thlhvx2g",
      "maps_place_token": null
    },
    {
      "name": "Samrub Samrub Thai",
      "address": "39/11 Yommarat Alley, Si Lom, Bang Rak, Bangkok 10500, Thailand",
      "note": null,
      "is_favorite": false,
      "lat": 13.7268983,
      "lng": 100.53746149999999,
      "maps_url": "https://maps.google.com/?cid=3522546878688258879",
      "cid": "3522546878688258879",
      "google_id": "/g/11g0hmtnhv",
      "maps_place_token": null
    },
    {
      "name": "Polo Fried Chicken (Soi Polo)",
      "address": "137/1-3 Sanam Khli Alley, Lumphini, Pathum Wan, Bangkok 10330, Thailand",
      "note": null,
      "is_favorite": false,
      "lat": 13.7322464,
      "lng": 100.5459616,
      "maps_url": "https://maps.google.com/?cid=3522552849329548027",
      "cid": "3522552849329548027",
      "google_id": "/g/1hc2zzhff",
      "maps_place_token": null
    },
    {
      "name": "Thea Cafe",
      "address": null,
      "note": null,
      "is_favorite": false,
      "lat": 13.728022399999999,
      "lng": 100.576966,
      "maps_url": "https://maps.google.com/?cid=3522553079569302523",
      "cid": "3522553079569302523",
      "google_id": null,
      "maps_place_token": null
    },
    {
      "name": "Bar Us",
      "address": "61/37 Floor, Opposite side of security kiosk ( Glass door) Floor 1, 1 Soi Sukhumvit 26, Khlong Tan, Khlong Toei, Bangkok 10110, Thailand",
      "note": null,
      "is_favorite": false,
      "lat": 13.725584,
      "lng": 100.56944089999999,
      "maps_url": "https://maps.google.com/?cid=3522552966070047771",
      "cid": "3522552966070047771",
      "google_id": "/g/11sd_0xlhh",
      "maps_place_token": null
    },
    {
      "name": "#FindTheLockerRoom",
      "address": "406 Thong Lo, Khlong Tan Nuea, Watthana, Bangkok 10110, Thailand",
      "note": null,
      "is_favorite": false,
      "lat": 13.7333573,
      "lng": 100.58253909999999,
      "maps_url": "https://maps.google.com/?cid=3522553425295063097",
      "cid": "3522553425295063097",
      "google_id": "/g/11fz4vrft6",
      "maps_place_token": null
    },
    {
      "name": "Baan Somtum Sukhumvit",
      "address": "15 Soi Sukhumvit 40, Phra Khanong, Khlong Toei, Bangkok 10110, Thailand",
      "note": null,
      "is_favorite": false,
      "lat": 13.717354499999999,
      "lng": 100.58219439999999,
      "maps_url": "https://maps.google.com/?cid=3522553386433981923",
      "cid": "3522553386433981923",
      "google_id": "/g/11g72bs2jb",
      "maps_place_token": null
    },
    {
      "name": "Mae Varee Mango Sticky Rice",
      "address": "1 Thong Lo, Khlong Tan Nuea, Watthana, Bangkok 10110, Thailand",
      "note": null,
      "is_favorite": false,
      "lat": 13.7240179,
      "lng": 100.5793321,
      "maps_url": "https://maps.google.com/?cid=3522553406093703789",
      "cid": "3522553406093703789",
      "google_id": "/g/1hd_47m88",
      "maps_place_token": null
    },
    {
      "name": "Oyatsu no Jikan",
      "address": "Velaa Sindhorn Village 87 Lang Suan Rd, Lumphini, Pathum Wan, Bangkok 10330, Thailand",
      "note": null,
      "is_favorite": false,
      "lat": 13.7370348,
      "lng": 100.5430173,
      "maps_url": "https://maps.google.com/?cid=3522553301426593135",
      "cid": "3522553301426593135",
      "google_id": "/g/11vx0zymd_",
      "maps_place_token": null
    },
    {
      "name": "Gaa",
      "address": "46 Sukhumvit 53 Alley, Khlong Tan Nuea, Watthana, Bangkok 10110, Thailand",
      "note": null,
      "is_favorite": false,
      "lat": 13.7273792,
      "lng": 100.5782473,
      "maps_url": "https://maps.google.com/?cid=3522552518954916341",
      "cid": "3522552518954916341",
      "google_id": "/g/11c6__9v01",
      "maps_place_token": null
    },
    {
      "name": "Nawa Thai Cuisine",
      "address": "Park Lane Ekkamai, Khwaeng Khlong Tan Nuea, Watthana, Bangkok 10110, Thailand",
      "note": null,
      "is_favorite": false,
      "lat": 13.7232756,
      "lng": 100.5838735,
      "maps_url": "https://maps.google.com/?cid=3522553002476096261",
      "cid": "3522553002476096261",
      "google_id": "/g/11tp2j21h7",
      "maps_place_token": null
    },
    {
      "name": "MIA Bangkok",
      "address": "30 Attha Kawi 1 Alley, Khlong Tan, Khlong Toei, Bangkok 10110, Thailand",
      "note": null,
      "is_favorite": false,
      "lat": 13.7213487,
      "lng": 100.5712787,
      "maps_url": "https://maps.google.com/?cid=3522552843557387341",
      "cid": "3522552843557387341",
      "google_id": "/g/11fm6gnf7n",
      "maps_place_token": null
    },
    {
      "name": "Restaurant Resonance",
      "address": "108, 4 Sukhumvit 65, Phra Khanong Nuea, Watthana, Bangkok 10110, Thailand",
      "note": null,
      "is_favorite": false,
      "lat": 13.721366699999999,
      "lng": 100.59198839999999,
      "maps_url": "https://maps.google.com/?cid=3522553545206501749",
      "cid": "3522553545206501749",
      "google_id": "/g/11p5thqtfr",
      "maps_place_token": null
    },
    {
      "name": "Baan Tepa Culinary Space",
      "address": "561 Ramkhamhaeng Rd, Hua Mak, Bang Kapi District, Bangkok 10240, Thailand",
      "note": null,
      "is_favorite": false,
      "lat": 13.7608005,
      "lng": 100.6263537,
      "maps_url": "https://maps.google.com/?cid=3539092116600937347",
      "cid": "3539092116600937347",
      "google_id": "/g/11flbr6llt",
      "maps_place_token": null
    },
    {
      "name": "Supanniga Eating Room by Khun Yai",
      "address": "160, 11 Thong Lo, Khlong Tan Nuea, Watthana, Bangkok 10110, Thailand",
      "note": null,
      "is_favorite": false,
      "lat": 13.730221799999999,
      "lng": 100.5815349,
      "maps_url": "https://maps.google.com/?cid=3522553422109812833",
      "cid": "3522553422109812833",
      "google_id": "/g/1hjh8m6h_",
      "maps_place_token": null
    },
    {
      "name": "Restaurant POTONG",
      "address": "422 ถนน วาณิช 1 เขตสัมพันธวงศ์, Samphanthawong, สัมพันธวงศ์, Bangkok 10100, Thailand",
      "note": null,
      "is_favorite": false,
      "lat": 13.7391543,
      "lng": 100.5084926,
      "maps_url": "https://maps.google.com/?cid=3522546184150038647",
      "cid": "3522546184150038647",
      "google_id": "/g/11fsb6vs_m",
      "maps_place_token": null
    },
    {
      "name": "Kid Mai Death Awareness Cafe",
      "address": "1191 Phahon Yothin Rd, แขวงพญาไท Phaya Thai, Bangkok 10400, Thailand",
      "note": null,
      "is_favorite": false,
      "lat": 13.778436699999999,
      "lng": 100.5438983,
      "maps_url": "https://maps.google.com/?cid=3522552301253538721",
      "cid": "3522552301253538721",
      "google_id": "/g/11f4v01pss",
      "maps_place_token": null
    },
    {
      "name": "Talad Noi Crab Fried Rice",
      "address": "33 Charoen Krung Road, Talat Noi, Samphanthawong, Bangkok 10100, Thailand",
      "note": null,
      "is_favorite": false,
      "lat": 13.7331459,
      "lng": 100.5145696,
      "maps_url": "https://maps.google.com/?cid=3522545915895244009",
      "cid": "3522545915895244009",
      "google_id": "/g/11c5_q7rq8",
      "maps_place_token": null
    },
    {
      "name": "After You Dessert Cafe @ centralwOrld",
      "address": "4, 4/5 Ratchadamri Rd, Pathum Wan, Bangkok 10330, Thailand",
      "note": null,
      "is_favorite": false,
      "lat": 13.745011799999999,
      "lng": 100.53959309999999,
      "maps_url": "https://maps.google.com/?cid=3522553005216230249",
      "cid": "3522553005216230249",
      "google_id": "/g/11j359x80v",
      "maps_place_token": null
    },
    {
      "name": "Arun Thai Cuisine by SEE FAH",
      "address": "ชั้น L Grande Centre Point Ratchadamri 153/2 Mahatlek Luang 1 Alley, Lumphini, Pathum Wan, Bangkok 10330, Thailand",
      "note": null,
      "is_favorite": false,
      "lat": 13.7416802,
      "lng": 100.54114369999999,
      "maps_url": "https://maps.google.com/?cid=3522553404512777209",
      "cid": "3522553404512777209",
      "google_id": "/g/11pd3lx1mk",
      "maps_place_token": null
    },
    {
      "name": "The Dining Room",
      "address": "494 Grand Hyatt Erawan Bangkok, Ratchadamri Rd, Lumphini, Pathum Wan, Bangkok 10330, Thailand",
      "note": null,
      "is_favorite": false,
      "lat": 13.7434544,
      "lng": 100.54061209999999,
      "maps_url": "https://maps.google.com/?cid=3522553765099169005",
      "cid": "3522553765099169005",
      "google_id": "/g/1ym82slmc",
      "maps_place_token": null
    },
    {
      "name": "Tamnanthai Restaurant Nana Ploenchit",
      "address": null,
      "note": null,
      "is_favorite": false,
      "lat": 13.7396496,
      "lng": 100.5527559,
      "maps_url": "https://maps.google.com/?cid=3522552533187196511",
      "cid": "3522552533187196511",
      "google_id": null,
      "maps_place_token": null
    },
    {
      "name": "Mookrata Pinto",
      "address": null,
      "note": null,
      "is_favorite": false,
      "lat": 13.7324085,
      "lng": 100.51847169999999,
      "maps_url": "https://maps.google.com/?cid=3522545909897673893",
      "cid": "3522545909897673893",
      "google_id": null,
      "maps_place_token": null
    },
    {
      "name": "Lord Jim's",
      "address": null,
      "note": null,
      "is_favorite": false,
      "lat": 13.724027699999999,
      "lng": 100.5141708,
      "maps_url": "https://maps.google.com/?cid=3522545829510398999",
      "cid": "3522545829510398999",
      "google_id": null,
      "maps_place_token": null
    },
    {
      "name": "Ping's Surawong",
      "address": "294, 3-4 Thanon Surawong, Si Phraya, Bang Rak, Bangkok 10500, Thailand",
      "note": null,
      "is_favorite": false,
      "lat": 13.7265838,
      "lng": 100.5204291,
      "maps_url": "https://maps.google.com/?cid=3522545879154990671",
      "cid": "3522545879154990671",
      "google_id": "/g/1hf4jzbhy",
      "maps_place_token": null
    },
    {
      "name": "ชงเจริญ",
      "address": "PGWQ+49R, G อาคาร Groove ชั้น 2, 117 Rama I Rd, Pathum Wan, Bangkok 10330, Thailand",
      "note": null,
      "is_favorite": false,
      "lat": 13.745185999999999,
      "lng": 100.5380261,
      "maps_url": "https://maps.google.com/?cid=3522553423943510905",
      "cid": "3522553423943510905",
      "google_id": "/g/11h6lcz_c0",
      "maps_place_token": null
    },
    {
      "name": "House of HEALS",
      "address": "ชั้น 33 โรงแรมเรเนซองส์ 518/8 Phloen Chit Rd, ปทุมวัน Pathum Wan, Bangkok 10330, Thailand",
      "note": null,
      "is_favorite": false,
      "lat": 13.7427773,
      "lng": 100.5416692,
      "maps_url": "https://maps.google.com/?cid=3522552696038473943",
      "cid": "3522552696038473943",
      "google_id": "/g/11jbp1cxz_",
      "maps_place_token": null
    },
    {
      "name": "Tew's Barber Shop (Siam)",
      "address": "432, Wang Mai, Pathum Wan, Bangkok 10330, Thailand",
      "note": null,
      "is_favorite": false,
      "lat": 13.7441903,
      "lng": 100.5335637,
      "maps_url": "https://maps.google.com/?cid=3522552484524508819",
      "cid": "3522552484524508819",
      "google_id": "/g/11bxgbkbd9",
      "maps_place_token": null
    },
    {
      "name": "Crimson Room",
      "address": "87 Lang Suan Road Lumphini, Pathum Wan, Bangkok 10330 タイ",
      "note": null,
      "is_favorite": false,
      "lat": 13.736739,
      "lng": 100.5429571,
      "maps_url": "https://maps.google.com/?cid=3522552690410550095",
      "cid": "3522552690410550095",
      "google_id": "/g/11fntz57c9",
      "maps_place_token": null
    },
    {
      "name": "Space plus bangkok",
      "address": null,
      "note": null,
      "is_favorite": false,
      "lat": 13.747033,
      "lng": 100.580219,
      "maps_url": "https://maps.google.com/?cid=3522553542414510487",
      "cid": "3522553542414510487",
      "google_id": null,
      "maps_place_token": null
    },
    {
      "name": "Route66",
      "address": null,
      "note": null,
      "is_favorite": false,
      "lat": 13.751484399999999,
      "lng": 100.5753316,
      "maps_url": "https://maps.google.com/?cid=3522551991135121587",
      "cid": "3522551991135121587",
      "google_id": null,
      "maps_place_token": null
    },
    {
      "name": "ทิวสนก๋วยเตี๋ยวไก่ บะหมี่ไข่ทำเอง",
      "address": null,
      "note": null,
      "is_favorite": false,
      "lat": 13.7491641,
      "lng": 100.5685209,
      "maps_url": "https://maps.google.com/?cid=3522552617799861939",
      "cid": "3522552617799861939",
      "google_id": null,
      "maps_place_token": null
    },
    {
      "name": "Prai Raya",
      "address": null,
      "note": null,
      "is_favorite": false,
      "lat": 13.7366709,
      "lng": 100.5560716,
      "maps_url": "https://maps.google.com/?cid=3522552547932123571",
      "cid": "3522552547932123571",
      "google_id": null,
      "maps_place_token": null
    },
    {
      "name": "Ping's",
      "address": null,
      "note": null,
      "is_favorite": false,
      "lat": 13.7403107,
      "lng": 100.5617291,
      "maps_url": "https://maps.google.com/?cid=3522552687819289757",
      "cid": "3522552687819289757",
      "google_id": null,
      "maps_place_token": null
    },
    {
      "name": "Sunrise Tacos",
      "address": null,
      "note": null,
      "is_favorite": false,
      "lat": 13.737971,
      "lng": 100.5603725,
      "maps_url": "https://maps.google.com/?cid=3522552559064951493",
      "cid": "3522552559064951493",
      "google_id": null,
      "maps_place_token": null
    },
    {
      "name": "THE COFFEE CLUB - Maitria Hotel",
      "address": null,
      "note": null,
      "is_favorite": false,
      "lat": 13.732743399999999,
      "lng": 100.562682,
      "maps_url": "https://maps.google.com/?cid=3522552806962736329",
      "cid": "3522552806962736329",
      "google_id": null,
      "maps_place_token": null
    },
    {
      "name": "Brewski",
      "address": null,
      "note": null,
      "is_favorite": false,
      "lat": 13.735310799999999,
      "lng": 100.5640981,
      "maps_url": "https://maps.google.com/?cid=3522552669229521767",
      "cid": "3522552669229521767",
      "google_id": null,
      "maps_place_token": null
    },
    {
      "name": "LAHNYAI - หลานยาย Nusara",
      "address": null,
      "note": null,
      "is_favorite": false,
      "lat": 13.7222034,
      "lng": 100.5384119,
      "maps_url": "https://maps.google.com/?cid=3522552786062950239",
      "cid": "3522552786062950239",
      "google_id": null,
      "maps_place_token": null
    },
    {
      "name": "Vesper Cocktail Bar",
      "address": null,
      "note": null,
      "is_favorite": false,
      "lat": 13.727053199999999,
      "lng": 100.5334582,
      "maps_url": "https://maps.google.com/?cid=3522552870981241143",
      "cid": "3522552870981241143",
      "google_id": null,
      "maps_place_token": null
    },
    {
      "name": "The Loft",
      "address": null,
      "note": null,
      "is_favorite": false,
      "lat": 13.7425284,
      "lng": 100.5405162,
      "maps_url": "https://maps.google.com/?cid=3522552753256798311",
      "cid": "3522552753256798311",
      "google_id": null,
      "maps_place_token": null
    },
    {
      "name": "Wattana Panich Beef Broth",
      "address": null,
      "note": null,
      "is_favorite": false,
      "lat": 13.7341798,
      "lng": 100.5876535,
      "maps_url": "https://maps.google.com/?cid=3522551897480028921",
      "cid": "3522551897480028921",
      "google_id": null,
      "maps_place_token": null
    },
    {
      "name": "Tuba",
      "address": null,
      "note": null,
      "is_favorite": false,
      "lat": 13.738416599999999,
      "lng": 100.5884871,
      "maps_url": "https://maps.google.com/?cid=3522553435017062951",
      "cid": "3522553435017062951",
      "google_id": null,
      "maps_place_token": null
    },
    {
      "name": "Philippe",
      "address": null,
      "note": null,
      "is_favorite": false,
      "lat": 13.7325334,
      "lng": 100.5711898,
      "maps_url": "https://maps.google.com/?cid=3522552563735842219",
      "cid": "3522552563735842219",
      "google_id": null,
      "maps_place_token": null
    },
    {
      "name": "BAR 335",
      "address": null,
      "note": null,
      "is_favorite": false,
      "lat": 13.736655899999999,
      "lng": 100.5732615,
      "maps_url": "https://maps.google.com/?cid=3522552990121268295",
      "cid": "3522552990121268295",
      "google_id": null,
      "maps_place_token": null
    },
    {
      "name": "Hyotan Kappo",
      "address": null,
      "note": null,
      "is_favorite": false,
      "lat": 13.7367127,
      "lng": 100.5849896,
      "maps_url": "https://maps.google.com/?cid=3522551933898653073",
      "cid": "3522551933898653073",
      "google_id": null,
      "maps_place_token": null
    },
    {
      "name": "Sobakiri Gonoji",
      "address": null,
      "note": null,
      "is_favorite": false,
      "lat": 13.7367475,
      "lng": 100.5850274,
      "maps_url": "https://maps.google.com/?cid=3522551933903390845",
      "cid": "3522551933903390845",
      "google_id": null,
      "maps_place_token": null
    },
    {
      "name": "Shades of Retro",
      "address": null,
      "note": null,
      "is_favorite": false,
      "lat": 13.7367419,
      "lng": 100.584384,
      "maps_url": "https://maps.google.com/?cid=3522551934650712657",
      "cid": "3522551934650712657",
      "google_id": null,
      "maps_place_token": null
    },
    {
      "name": "Terroir Expression",
      "address": null,
      "note": null,
      "is_favorite": false,
      "lat": 13.734242799999999,
      "lng": 100.58711219999999,
      "maps_url": "https://maps.google.com/?cid=3522553122168387723",
      "cid": "3522553122168387723",
      "google_id": null,
      "maps_place_token": null
    },
    {
      "name": "Beer Belly",
      "address": null,
      "note": null,
      "is_favorite": false,
      "lat": 13.734767999999999,
      "lng": 100.58310929999999,
      "maps_url": "https://maps.google.com/?cid=3522551939942408693",
      "cid": "3522551939942408693",
      "google_id": null,
      "maps_place_token": null
    },
    {
      "name": "BADMOTEL",
      "address": null,
      "note": null,
      "is_favorite": false,
      "lat": 13.7347159,
      "lng": 100.5826233,
      "maps_url": "https://maps.google.com/?cid=3522551937953989901",
      "cid": "3522551937953989901",
      "google_id": null,
      "maps_place_token": null
    },
    {
      "name": "THE COMMONS",
      "address": null,
      "note": null,
      "is_favorite": false,
      "lat": 13.7351289,
      "lng": 100.5822299,
      "maps_url": "https://maps.google.com/?cid=3522551938022150809",
      "cid": "3522551938022150809",
      "google_id": null,
      "maps_place_token": null
    },
    {
      "name": "Japanese Fresh Wholesale Market 日本生鮮卸売市場",
      "address": null,
      "note": null,
      "is_favorite": false,
      "lat": 13.734372899999999,
      "lng": 100.5801335,
      "maps_url": "https://maps.google.com/?cid=3522552739845692747",
      "cid": "3522552739845692747",
      "google_id": null,
      "maps_place_token": null
    },
    {
      "name": "Sumi Tei Yakiniku",
      "address": null,
      "note": null,
      "is_favorite": false,
      "lat": 13.728205599999999,
      "lng": 100.5813841,
      "maps_url": "https://maps.google.com/?cid=3522553416335563379",
      "cid": "3522553416335563379",
      "google_id": null,
      "maps_place_token": null
    },
    {
      "name": "SWAY",
      "address": null,
      "note": null,
      "is_favorite": false,
      "lat": 13.7247364,
      "lng": 100.57792579999999,
      "maps_url": "https://maps.google.com/?cid=3522553425243151235",
      "cid": "3522553425243151235",
      "google_id": null,
      "maps_place_token": null
    },
    {
      "name": "008",
      "address": null,
      "note": null,
      "is_favorite": false,
      "lat": 13.730720999999999,
      "lng": 100.5817804,
      "maps_url": "https://maps.google.com/?cid=3522553714037051923",
      "cid": "3522553714037051923",
      "google_id": null,
      "maps_place_token": null
    },
    {
      "name": "R-HAAN, 2 Michelin Stars (ทองหล่อ)",
      "address": null,
      "note": null,
      "is_favorite": false,
      "lat": 13.7318321,
      "lng": 100.5795655,
      "maps_url": "https://maps.google.com/?cid=3522553416864553465",
      "cid": "3522553416864553465",
      "google_id": null,
      "maps_place_token": null
    },
    {
      "name": "Canvas",
      "address": null,
      "note": null,
      "is_favorite": false,
      "lat": 13.728877299999999,
      "lng": 100.5807505,
      "maps_url": "https://maps.google.com/?cid=3522553421697291101",
      "cid": "3522553421697291101",
      "google_id": null,
      "maps_place_token": null
    },
    {
      "name": "Baan Ice",
      "address": null,
      "note": null,
      "is_favorite": false,
      "lat": 13.7290537,
      "lng": 100.580688,
      "maps_url": "https://maps.google.com/?cid=3522553421647423529",
      "cid": "3522553421647423529",
      "google_id": null,
      "maps_place_token": null
    },
    {
      "name": "Rabbit Hole",
      "address": null,
      "note": null,
      "is_favorite": false,
      "lat": 13.7298215,
      "lng": 100.58104399999999,
      "maps_url": "https://maps.google.com/?cid=3522553421937413823",
      "cid": "3522553421937413823",
      "google_id": null,
      "maps_place_token": null
    },
    {
      "name": "เฮียให้ Here Hai Restaurant",
      "address": null,
      "note": null,
      "is_favorite": false,
      "lat": 13.7302655,
      "lng": 100.586342,
      "maps_url": "https://maps.google.com/?cid=3522552901393009485",
      "cid": "3522552901393009485",
      "google_id": null,
      "maps_place_token": null
    },
    {
      "name": "The Cassette Music Bar",
      "address": null,
      "note": null,
      "is_favorite": false,
      "lat": 13.729164899999999,
      "lng": 100.5866247,
      "maps_url": "https://maps.google.com/?cid=3522553447509209037",
      "cid": "3522553447509209037",
      "google_id": null,
      "maps_place_token": null
    },
    {
      "name": "Octave Rooftop Lounge & Bar",
      "address": null,
      "note": null,
      "is_favorite": false,
      "lat": 13.7236098,
      "lng": 100.5803906,
      "maps_url": "https://maps.google.com/?cid=3522553390483708807",
      "cid": "3522553390483708807",
      "google_id": null,
      "maps_place_token": null
    },
    {
      "name": "Bo.lan",
      "address": null,
      "note": null,
      "is_favorite": false,
      "lat": 13.7262913,
      "lng": 100.5779429,
      "maps_url": "https://maps.google.com/?cid=3522552708830612161",
      "cid": "3522552708830612161",
      "google_id": null,
      "maps_place_token": null
    },
    {
      "name": "Mutual Bar",
      "address": null,
      "note": null,
      "is_favorite": false,
      "lat": 13.7295421,
      "lng": 100.5695045,
      "maps_url": "https://maps.google.com/?cid=3522552753701457591",
      "cid": "3522552753701457591",
      "google_id": null,
      "maps_place_token": null
    },
    {
      "name": "Taling Pling",
      "address": null,
      "note": null,
      "is_favorite": false,
      "lat": 13.7246305,
      "lng": 100.57320829999999,
      "maps_url": "https://maps.google.com/?cid=3522552711178611147",
      "cid": "3522552711178611147",
      "google_id": null,
      "maps_place_token": null
    },
    {
      "name": "Sugar Ray, You've Just Been Poisoned",
      "address": null,
      "note": null,
      "is_favorite": false,
      "lat": 13.726838599999999,
      "lng": 100.5675144,
      "maps_url": "https://maps.google.com/?cid=3522551922398836681",
      "cid": "3522551922398836681",
      "google_id": null,
      "maps_place_token": null
    },
    {
      "name": "Tichuca Rooftop Bar",
      "address": null,
      "note": null,
      "is_favorite": false,
      "lat": 13.722243599999999,
      "lng": 100.58064449999999,
      "maps_url": "https://maps.google.com/?cid=3522552770281109053",
      "cid": "3522552770281109053",
      "google_id": null,
      "maps_place_token": null
    },
    {
      "name": "Tamnak Isan Ekkamai",
      "address": null,
      "note": null,
      "is_favorite": false,
      "lat": 13.7277928,
      "lng": 100.58558359999999,
      "maps_url": "https://maps.google.com/?cid=3522553429196742673",
      "cid": "3522553429196742673",
      "google_id": null,
      "maps_place_token": null
    },
    {
      "name": "SAHA Steak and Butcher",
      "address": null,
      "note": null,
      "is_favorite": false,
      "lat": 13.7780843,
      "lng": 100.6296564,
      "maps_url": "https://maps.google.com/?cid=3539094382917694383",
      "cid": "3539094382917694383",
      "google_id": null,
      "maps_place_token": null
    },
    {
      "name": "Khun Ple Mookata",
      "address": null,
      "note": null,
      "is_favorite": false,
      "lat": 13.782363199999999,
      "lng": 100.58168549999999,
      "maps_url": "https://maps.google.com/?cid=3522551404153987605",
      "cid": "3522551404153987605",
      "google_id": null,
      "maps_place_token": null
    },
    {
      "name": "Museum of Contemporary Art (MOCA BANGKOK)",
      "address": null,
      "note": null,
      "is_favorite": false,
      "lat": 13.8523198,
      "lng": 100.5630092,
      "maps_url": "https://maps.google.com/?cid=3522550220836803399",
      "cid": "3522550220836803399",
      "google_id": null,
      "maps_place_token": null
    },
    {
      "name": "Ja-woo Korean Pork",
      "address": null,
      "note": null,
      "is_favorite": false,
      "lat": 13.7997651,
      "lng": 100.53615479999999,
      "maps_url": "https://maps.google.com/?cid=3522551290956742059",
      "cid": "3522551290956742059",
      "google_id": null,
      "maps_place_token": null
    },
    {
      "name": "Factory หมูกระทะ",
      "address": null,
      "note": null,
      "is_favorite": false,
      "lat": 13.8035964,
      "lng": 100.52060449999999,
      "maps_url": "https://maps.google.com/?cid=3522548889199375511",
      "cid": "3522548889199375511",
      "google_id": null,
      "maps_place_token": null
    },
    {
      "name": "Ja Oo Grilled Pork",
      "address": null,
      "note": null,
      "is_favorite": false,
      "lat": 13.7930415,
      "lng": 100.53005449999999,
      "maps_url": "https://maps.google.com/?cid=3522549417244996495",
      "cid": "3522549417244996495",
      "google_id": null,
      "maps_place_token": null
    },
    {
      "name": "Soei",
      "address": null,
      "note": null,
      "is_favorite": false,
      "lat": 13.7853841,
      "lng": 100.5364243,
      "maps_url": "https://maps.google.com/?cid=3522549399344323843",
      "cid": "3522549399344323843",
      "google_id": null,
      "maps_place_token": null
    },
    {
      "name": "จอมพล หมูกระทะ",
      "address": null,
      "note": null,
      "is_favorite": false,
      "lat": 13.785311799999999,
      "lng": 100.5376629,
      "maps_url": "https://maps.google.com/?cid=3522550954952369731",
      "cid": "3522550954952369731",
      "google_id": null,
      "maps_place_token": null
    },
    {
      "name": "The cafe mookata Ari",
      "address": null,
      "note": null,
      "is_favorite": false,
      "lat": 13.775856399999999,
      "lng": 100.5391191,
      "maps_url": "https://maps.google.com/?cid=3522553371750422557",
      "cid": "3522553371750422557",
      "google_id": null,
      "maps_place_token": null
    },
    {
      "name": "Bangkok Poutine",
      "address": null,
      "note": null,
      "is_favorite": false,
      "lat": 13.7633586,
      "lng": 100.4989026,
      "maps_url": "https://maps.google.com/?cid=3522546534104803009",
      "cid": "3522546534104803009",
      "google_id": null,
      "maps_place_token": null
    },
    {
      "name": "Jay Fai",
      "address": null,
      "note": null,
      "is_favorite": false,
      "lat": 13.7526037,
      "lng": 100.5047577,
      "maps_url": "https://maps.google.com/?cid=3522546182481779307",
      "cid": "3522546182481779307",
      "google_id": null,
      "maps_place_token": null
    },
    {
      "name": "Pe Aor Tom Yum Kung Noodle",
      "address": null,
      "note": null,
      "is_favorite": false,
      "lat": 13.7558844,
      "lng": 100.52943479999999,
      "maps_url": "https://maps.google.com/?cid=3522546311825616305",
      "cid": "3522546311825616305",
      "google_id": null,
      "maps_place_token": null
    },
    {
      "name": "Villa Frantzén",
      "address": null,
      "note": null,
      "is_favorite": false,
      "lat": 13.7117633,
      "lng": 100.545267,
      "maps_url": "https://maps.google.com/?cid=3522553452929961323",
      "cid": "3522553452929961323",
      "google_id": null,
      "maps_place_token": null
    },
    {
      "name": "BKK Social Club",
      "address": null,
      "note": null,
      "is_favorite": false,
      "lat": 13.712043699999999,
      "lng": 100.51034039999999,
      "maps_url": "https://maps.google.com/?cid=3522546680557799727",
      "cid": "3522546680557799727",
      "google_id": null,
      "maps_place_token": null
    },
    {
      "name": "Le Du",
      "address": null,
      "note": null,
      "is_favorite": false,
      "lat": 13.725033,
      "lng": 100.5293571,
      "maps_url": "https://maps.google.com/?cid=3522545889682702127",
      "cid": "3522545889682702127",
      "google_id": null,
      "maps_place_token": null
    },
    {
      "name": "Sra Bua by Kiin Kiin",
      "address": null,
      "note": null,
      "is_favorite": false,
      "lat": 13.748521799999999,
      "lng": 100.5351244,
      "maps_url": "https://maps.google.com/?cid=3522552465389966369",
      "cid": "3522552465389966369",
      "google_id": null,
      "maps_place_token": null
    },
    {
      "name": "Jim Thompson",
      "address": null,
      "note": null,
      "is_favorite": false,
      "lat": 13.7491007,
      "lng": 100.5285935,
      "maps_url": "https://maps.google.com/?cid=3522546697423772201",
      "cid": "3522546697423772201",
      "google_id": null,
      "maps_place_token": null
    },
    {
      "name": "Inter Restaurants since 1981",
      "address": null,
      "note": null,
      "is_favorite": false,
      "lat": 13.744237,
      "lng": 100.5335022,
      "maps_url": "https://maps.google.com/?cid=3539092636000736599",
      "cid": "3539092636000736599",
      "google_id": null,
      "maps_place_token": null
    },
    {
      "name": "Jeh O Chula",
      "address": null,
      "note": null,
      "is_favorite": false,
      "lat": 13.742505699999999,
      "lng": 100.52251899999999,
      "maps_url": "https://maps.google.com/?cid=3522546285348672277",
      "cid": "3522546285348672277",
      "google_id": null,
      "maps_place_token": null
    },
    {
      "name": "Ann Guay Tiew Kua Gai",
      "address": null,
      "note": null,
      "is_favorite": false,
      "lat": 13.746709599999999,
      "lng": 100.5111996,
      "maps_url": "https://maps.google.com/?cid=3522546235408797247",
      "cid": "3522546235408797247",
      "google_id": null,
      "maps_place_token": null
    },
    {
      "name": "TAX",
      "address": null,
      "note": null,
      "is_favorite": false,
      "lat": 13.7396976,
      "lng": 100.51479599999999,
      "maps_url": "https://maps.google.com/?cid=3522546439601724057",
      "cid": "3522546439601724057",
      "google_id": null,
      "maps_place_token": null
    },
    {
      "name": "Nai Mong Hoi Thod",
      "address": null,
      "note": null,
      "is_favorite": false,
      "lat": 13.742195299999999,
      "lng": 100.510739,
      "maps_url": "https://maps.google.com/?cid=3522546237478387055",
      "cid": "3522546237478387055",
      "google_id": null,
      "maps_place_token": null
    },
    {
      "name": "Pa Tong Go Savoey",
      "address": null,
      "note": null,
      "is_favorite": false,
      "lat": 13.739607699999999,
      "lng": 100.51138549999999,
      "maps_url": "https://maps.google.com/?cid=3522547060606630009",
      "cid": "3522547060606630009",
      "google_id": null,
      "maps_place_token": null
    },
    {
      "name": "TEP BAR - Cultural Bar of Thailand",
      "address": null,
      "note": null,
      "is_favorite": false,
      "lat": 13.739674899999999,
      "lng": 100.5144313,
      "maps_url": "https://maps.google.com/?cid=3522546249539841211",
      "cid": "3522546249539841211",
      "google_id": null,
      "maps_place_token": null
    },
    {
      "name": "Porwa",
      "address": null,
      "note": null,
      "is_favorite": false,
      "lat": 13.7549082,
      "lng": 100.5340859,
      "maps_url": "https://maps.google.com/?cid=3522552449893957169",
      "cid": "3522552449893957169",
      "google_id": null,
      "maps_place_token": null
    },
    {
      "name": "Petits Plats Bangkok",
      "address": null,
      "note": null,
      "is_favorite": false,
      "lat": 13.7374926,
      "lng": 100.54305889999999,
      "maps_url": "https://maps.google.com/?cid=3522552853076043813",
      "cid": "3522552853076043813",
      "google_id": null,
      "maps_place_token": null
    },
    {
      "name": "OFTR Bar",
      "address": null,
      "note": null,
      "is_favorite": false,
      "lat": 13.737991099999999,
      "lng": 100.5666463,
      "maps_url": "https://maps.google.com/?cid=3522553303077822663",
      "cid": "3522553303077822663",
      "google_id": null,
      "maps_place_token": null
    },
    {
      "name": "BLAQ LYTE 11",
      "address": null,
      "note": null,
      "is_favorite": false,
      "lat": 13.701564999999999,
      "lng": 100.603293,
      "maps_url": "https://maps.google.com/?cid=3522553296090940387",
      "cid": "3522553296090940387",
      "google_id": null,
      "maps_place_token": null
    }
  ]
}
