{
  "fetched_at": "2026-04-15T15:26:38.994105+00:00",
  "refresh_after": "2026-04-29T15:26:38.994105+00:00",
  "source_signature": "82e3f594d2f09c6232d9fa2e7f6175a25ef1ea38c5590cb8cc42e1dff4e33476",
  "configured_source_type": "google_list_url",
  "configured_source_url": "https://maps.app.goo.gl/Cm5rEKT86Nx24QY18",
  "configured_source_path": null,
  "source_url": "https://maps.app.goo.gl/Cm5rEKT86Nx24QY18",
  "list_id": "9s6_-mw_SleM28ahtQ1pAw",
  "title": "Busan, Korea 🇰🇷",
  "description": null,
  "places": [
    {
      "name": "신사꽂게당 해운대점 Haeundae Marinated Crab – Korean Gejang Restaurant | \n海雲台ケジャン専門店｜韓国カニ料理",
      "address": "627-1 U-dong, Haeundae-gu, Busan, South Korea",
      "note": null,
      "is_favorite": false,
      "lat": 35.159708099999996,
      "lng": 129.1595155,
      "maps_url": "https://maps.google.com/?cid=3848481427193590259",
      "cid": "3848481427193590259",
      "google_id": "/g/11xdb8z0b5",
      "maps_place_token": null
    },
    {
      "name": "Vinyl Pub Muse On",
      "address": "South Korea, Busan, Haeundae-gu, Jungdong 1-ro, 39 예담빌딩 2층",
      "note": null,
      "is_favorite": false,
      "lat": 35.1622445,
      "lng": 129.1635947,
      "maps_url": "https://maps.google.com/?cid=3848481359178637889",
      "cid": "3848481359178637889",
      "google_id": "/g/11bw5w3jn4",
      "maps_place_token": null
    },
    {
      "name": "Dongbaegba",
      "address": "522-4 U-dong, Haeundae-gu, Busan, South Korea",
      "note": null,
      "is_favorite": false,
      "lat": 35.1652026,
      "lng": 129.1589123,
      "maps_url": "https://maps.google.com/?cid=3848481176056884241",
      "cid": "3848481176056884241",
      "google_id": "/g/11kpsn4d3y",
      "maps_place_token": null
    },
    {
      "name": "Haeundae Amsogalbi-jip",
      "address": "333 Haeundaehaebyeon-ro, Haeundae-gu, Busan, South Korea",
      "note": null,
      "is_favorite": false,
      "lat": 35.163246199999996,
      "lng": 129.1662962,
      "maps_url": "https://maps.google.com/?cid=3848481363464209987",
      "cid": "3848481363464209987",
      "google_id": "/g/1tczn72r",
      "maps_place_token": null
    },
    {
      "name": "거대 곰탕",
      "address": "163 Haeundaehaebyeon-ro, Haeundae-gu, Busan, South Korea",
      "note": null,
      "is_favorite": false,
      "lat": 35.158186199999996,
      "lng": 129.1505326,
      "maps_url": "https://maps.google.com/?cid=3848487524022556387",
      "cid": "3848487524022556387",
      "google_id": "/g/11gvqp2vqg",
      "maps_place_token": null
    },
    {
      "name": "Mulmangcho",
      "address": null,
      "note": null,
      "is_favorite": false,
      "lat": 35.158151499999995,
      "lng": 129.1222974,
      "maps_url": "https://maps.google.com/?cid=3848587522504886793",
      "cid": "3848587522504886793",
      "google_id": null,
      "maps_place_token": null
    },
    {
      "name": "울트라바이트",
      "address": null,
      "note": null,
      "is_favorite": false,
      "lat": 35.1577384,
      "lng": 129.1228784,
      "maps_url": "https://maps.google.com/?cid=3848586855680597523",
      "cid": "3848586855680597523",
      "google_id": null,
      "maps_place_token": null
    },
    {
      "name": "Yulling",
      "address": null,
      "note": null,
      "is_favorite": false,
      "lat": 35.158442,
      "lng": 129.171134,
      "maps_url": "https://maps.google.com/?cid=3848481516906313227",
      "cid": "3848481516906313227",
      "google_id": null,
      "maps_place_token": null
    },
    {
      "name": "Suwol Gyeonghwa",
      "address": null,
      "note": null,
      "is_favorite": false,
      "lat": 35.1761003,
      "lng": 129.1965876,
      "maps_url": "https://maps.google.com/?cid=3848481693950561839",
      "cid": "3848481693950561839",
      "google_id": null,
      "maps_place_token": null
    },
    {
      "name": "프레스트",
      "address": null,
      "note": null,
      "is_favorite": false,
      "lat": 35.2569734,
      "lng": 129.21702589999998,
      "maps_url": "https://maps.google.com/?cid=3848484027103494881",
      "cid": "3848484027103494881",
      "google_id": null,
      "maps_place_token": null
    },
    {
      "name": "카페385",
      "address": null,
      "note": null,
      "is_favorite": false,
      "lat": 35.084268099999996,
      "lng": 129.07630699999999,
      "maps_url": "https://maps.google.com/?cid=3848589013321977881",
      "cid": "3848589013321977881",
      "google_id": null,
      "maps_place_token": null
    },
    {
      "name": "Gorilla Brewing",
      "address": "1829 Jung-dong, Haeundae-gu, Busan, South Korea",
      "note": null,
      "is_favorite": false,
      "lat": 35.1597846,
      "lng": 129.16884629999998,
      "maps_url": "https://maps.google.com/?cid=3848487283697437123",
      "cid": "3848487283697437123",
      "google_id": "/g/11c209p7j6",
      "maps_place_token": null
    },
    {
      "name": "Mideum",
      "address": null,
      "note": null,
      "is_favorite": false,
      "lat": 35.1610949,
      "lng": 129.1703796,
      "maps_url": "https://maps.google.com/?cid=3848481384791164463",
      "cid": "3848481384791164463",
      "google_id": null,
      "maps_place_token": null
    },
    {
      "name": "Galbiga Masitda",
      "address": null,
      "note": null,
      "is_favorite": false,
      "lat": 35.1623978,
      "lng": 129.1601647,
      "maps_url": "https://maps.google.com/?cid=3848481316185984661",
      "cid": "3848481316185984661",
      "google_id": null,
      "maps_place_token": null
    },
    {
      "name": "Jinurin Haejang(Hangover)",
      "address": null,
      "note": null,
      "is_favorite": false,
      "lat": 35.1618893,
      "lng": 129.1633981,
      "maps_url": "https://maps.google.com/?cid=3848481608455130543",
      "cid": "3848481608455130543",
      "google_id": null,
      "maps_place_token": null
    },
    {
      "name": "스무고개",
      "address": null,
      "note": null,
      "is_favorite": false,
      "lat": 35.1646492,
      "lng": 129.1751047,
      "maps_url": "https://maps.google.com/?cid=3848481093203780167",
      "cid": "3848481093203780167",
      "google_id": null,
      "maps_place_token": null
    },
    {
      "name": "Samhwan Chuksan, Jung-dong",
      "address": null,
      "note": null,
      "is_favorite": false,
      "lat": 35.1642444,
      "lng": 129.16867009999999,
      "maps_url": "https://maps.google.com/?cid=3848481482645658225",
      "cid": "3848481482645658225",
      "google_id": null,
      "maps_place_token": null
    },
    {
      "name": "거대갈비 신관",
      "address": null,
      "note": null,
      "is_favorite": false,
      "lat": 35.1621932,
      "lng": 129.1706912,
      "maps_url": "https://maps.google.com/?cid=3848481375587962951",
      "cid": "3848481375587962951",
      "google_id": null,
      "maps_place_token": null
    },
    {
      "name": "Gwanganmok Haeundae",
      "address": null,
      "note": null,
      "is_favorite": false,
      "lat": 35.1623515,
      "lng": 129.1595484,
      "maps_url": "https://maps.google.com/?cid=3848480912975012431",
      "cid": "3848480912975012431",
      "google_id": null,
      "maps_place_token": null
    },
    {
      "name": "Show me the Gogi Haeundae",
      "address": null,
      "note": null,
      "is_favorite": false,
      "lat": 35.1638654,
      "lng": 129.1619181,
      "maps_url": "https://maps.google.com/?cid=3848481823270539493",
      "cid": "3848481823270539493",
      "google_id": null,
      "maps_place_token": null
    },
    {
      "name": "해운대 미포참새 조개찜",
      "address": null,
      "note": null,
      "is_favorite": false,
      "lat": 35.1577974,
      "lng": 129.1722548,
      "maps_url": "https://maps.google.com/?cid=3848481195356474511",
      "cid": "3848481195356474511",
      "google_id": null,
      "maps_place_token": null
    },
    {
      "name": "퍼주는집",
      "address": null,
      "note": null,
      "is_favorite": false,
      "lat": 35.160892,
      "lng": 129.173438,
      "maps_url": "https://maps.google.com/?cid=3848481372567040795",
      "cid": "3848481372567040795",
      "google_id": null,
      "maps_place_token": null
    },
    {
      "name": "화나베본점",
      "address": "South Korea, 좌동 1310번지 지하동 1층 111호 해운대화목타운 해운대구 부산광역시 KR",
      "note": null,
      "is_favorite": false,
      "lat": 35.1719556,
      "lng": 129.17881839999998,
      "maps_url": "https://maps.google.com/?cid=3848480962993619561",
      "cid": "3848480962993619561",
      "google_id": "/g/11ghrgysvb",
      "maps_place_token": null
    },
    {
      "name": "Cheongsapo",
      "address": null,
      "note": null,
      "is_favorite": false,
      "lat": 35.1603874,
      "lng": 129.19234559999998,
      "maps_url": "https://maps.google.com/?cid=3848481081520865305",
      "cid": "3848481081520865305",
      "google_id": null,
      "maps_place_token": null
    },
    {
      "name": "Haeundae Blueline Park",
      "address": null,
      "note": null,
      "is_favorite": false,
      "lat": 35.1613733,
      "lng": 129.1918758,
      "maps_url": "https://maps.google.com/?cid=3848481814972400563",
      "cid": "3848481814972400563",
      "google_id": null,
      "maps_place_token": null
    },
    {
      "name": "비비비당(Bibibidang)",
      "address": null,
      "note": null,
      "is_favorite": false,
      "lat": 35.1624833,
      "lng": 129.1850753,
      "maps_url": "https://maps.google.com/?cid=3848480981523029511",
      "cid": "3848480981523029511",
      "google_id": null,
      "maps_place_token": null
    },
    {
      "name": "스파스위첸",
      "address": null,
      "note": null,
      "is_favorite": false,
      "lat": 35.1725573,
      "lng": 129.1767156,
      "maps_url": "https://maps.google.com/?cid=3848480960399483699",
      "cid": "3848480960399483699",
      "google_id": null,
      "maps_place_token": null
    },
    {
      "name": "Cheonhaga",
      "address": null,
      "note": null,
      "is_favorite": false,
      "lat": 35.1677252,
      "lng": 129.1725256,
      "maps_url": "https://maps.google.com/?cid=3848481404495169263",
      "cid": "3848481404495169263",
      "google_id": null,
      "maps_place_token": null
    },
    {
      "name": "McQUEEN'S Bar",
      "address": "268-32 Gijanghaean-ro, Gijang-eup, Gijang-gun, Busan, South Korea",
      "note": null,
      "is_favorite": false,
      "lat": 35.1978551,
      "lng": 129.22836569999998,
      "maps_url": "https://maps.google.com/?cid=3848484148969334961",
      "cid": "3848484148969334961",
      "google_id": "/g/11hymm9nqw",
      "maps_place_token": null
    },
    {
      "name": "Haeundae Ogtap Rooftop",
      "address": null,
      "note": null,
      "is_favorite": false,
      "lat": 35.1588625,
      "lng": 129.170619,
      "maps_url": "https://maps.google.com/?cid=3848481196141760299",
      "cid": "3848481196141760299",
      "google_id": null,
      "maps_place_token": null
    },
    {
      "name": "Hello India Al Waha",
      "address": null,
      "note": null,
      "is_favorite": false,
      "lat": 35.1619696,
      "lng": 129.1605855,
      "maps_url": "https://maps.google.com/?cid=3848481316118596023",
      "cid": "3848481316118596023",
      "google_id": null,
      "maps_place_token": null
    },
    {
      "name": "Busan korean bbq restaurant haeundae famous korean beef ribs galbi",
      "address": null,
      "note": null,
      "is_favorite": false,
      "lat": 35.1619104,
      "lng": 129.1671691,
      "maps_url": "https://maps.google.com/?cid=3848481360635324245",
      "cid": "3848481360635324245",
      "google_id": null,
      "maps_place_token": null
    },
    {
      "name": "Attic (애틱) & Dormer",
      "address": "3rd Floor, 11 Gunam-ro, gu, Haeundae-gu, Busan, South Korea",
      "note": null,
      "is_favorite": false,
      "lat": 35.162983499999996,
      "lng": 129.15974599999998,
      "maps_url": "https://maps.google.com/?cid=3848481091258582765",
      "cid": "3848481091258582765",
      "google_id": "/g/11fy27t_fc",
      "maps_place_token": null
    },
    {
      "name": "ZIGZAG ART CENTER(지그재그아트센터:현대미술관)",
      "address": null,
      "note": null,
      "is_favorite": false,
      "lat": 35.1611638,
      "lng": 129.1678246,
      "maps_url": "https://maps.google.com/?cid=3848480914617015543",
      "cid": "3848480914617015543",
      "google_id": null,
      "maps_place_token": null
    },
    {
      "name": "해운온천대중탕",
      "address": null,
      "note": null,
      "is_favorite": false,
      "lat": 35.1617421,
      "lng": 129.1658354,
      "maps_url": "https://maps.google.com/?cid=3848481359745714363",
      "cid": "3848481359745714363",
      "google_id": null,
      "maps_place_token": null
    },
    {
      "name": "Hi asia Pakistani & Indian halal restaurant 펀자브",
      "address": "31 Gunam-ro, Haeundae-gu, Busan, South Korea",
      "note": null,
      "is_favorite": false,
      "lat": 35.1613821,
      "lng": 129.1610316,
      "maps_url": "https://maps.google.com/?cid=3848481315375622699",
      "cid": "3848481315375622699",
      "google_id": "/g/11c549qmn_",
      "maps_place_token": null
    },
    {
      "name": "Haeundae Obok Dwaeji-gukbap Restaurant",
      "address": null,
      "note": null,
      "is_favorite": false,
      "lat": 35.1626121,
      "lng": 129.1600382,
      "maps_url": "https://maps.google.com/?cid=3848481316370889393",
      "cid": "3848481316370889393",
      "google_id": null,
      "maps_place_token": null
    },
    {
      "name": "해운대원조할매국밥",
      "address": null,
      "note": null,
      "is_favorite": false,
      "lat": 35.1633286,
      "lng": 129.1613654,
      "maps_url": "https://maps.google.com/?cid=3848481356863456759",
      "cid": "3848481356863456759",
      "google_id": null,
      "maps_place_token": null
    },
    {
      "name": "Haemok Haeundae",
      "address": null,
      "note": null,
      "is_favorite": false,
      "lat": 35.161780799999995,
      "lng": 129.15966659999998,
      "maps_url": "https://maps.google.com/?cid=3848481315897861881",
      "cid": "3848481315897861881",
      "google_id": null,
      "maps_place_token": null
    },
    {
      "name": "Dongbaekseom",
      "address": "Dongbaekseom, Busan",
      "note": null,
      "is_favorite": false,
      "lat": 35.1545312,
      "lng": 129.1525517,
      "maps_url": "https://maps.google.com/?cid=3848487133145618887",
      "cid": "3848487133145618887",
      "google_id": "/g/11b76dpywl",
      "maps_place_token": null
    },
    {
      "name": "O' Kim's",
      "address": "67 Dongbaek-ro, Haeundae-gu, Busan, South Korea",
      "note": null,
      "is_favorite": false,
      "lat": 35.1563704,
      "lng": 129.1542197,
      "maps_url": "https://maps.google.com/?cid=3848487131961936187",
      "cid": "3848487131961936187",
      "google_id": "/g/1vsppcpp",
      "maps_place_token": null
    },
    {
      "name": "Oh Banjang",
      "address": null,
      "note": null,
      "is_favorite": false,
      "lat": 35.1615099,
      "lng": 129.1591675,
      "maps_url": "https://maps.google.com/?cid=3848481318531415573",
      "cid": "3848481318531415573",
      "google_id": null,
      "maps_place_token": null
    },
    {
      "name": "Bulia",
      "address": null,
      "note": null,
      "is_favorite": false,
      "lat": 35.1615586,
      "lng": 129.1598267,
      "maps_url": "https://maps.google.com/?cid=3848481357655535349",
      "cid": "3848481357655535349",
      "google_id": null,
      "maps_place_token": null
    },
    {
      "name": "Poong Won Jang Cockle Restaurant",
      "address": "38 Marine city 2-ro, Haeundae-gu, Busan, South Korea",
      "note": null,
      "is_favorite": false,
      "lat": 35.1549902,
      "lng": 129.1425554,
      "maps_url": "https://maps.google.com/?cid=3848487175825448829",
      "cid": "3848487175825448829",
      "google_id": "/g/11c5gjnrnh",
      "maps_place_token": null
    },
    {
      "name": "Haeundae Marine City",
      "address": "155 Marine city 1-ro, U-dong, Haeundae-gu, Busan, South Korea",
      "note": null,
      "is_favorite": false,
      "lat": 35.157235799999995,
      "lng": 129.14826879999998,
      "maps_url": "https://maps.google.com/?cid=3848487932056361089",
      "cid": "3848487932056361089",
      "google_id": "/g/11fl08htxy",
      "maps_place_token": null
    },
    {
      "name": "Galmegi Brewing Haeundae",
      "address": null,
      "note": null,
      "is_favorite": false,
      "lat": 35.1603318,
      "lng": 129.16076329999999,
      "maps_url": "https://maps.google.com/?cid=3848481308754625967",
      "cid": "3848481308754625967",
      "google_id": null,
      "maps_place_token": null
    },
    {
      "name": "On The Plate",
      "address": null,
      "note": null,
      "is_favorite": false,
      "lat": 35.1599291,
      "lng": 129.1640967,
      "maps_url": "https://maps.google.com/?cid=3848481199261821335",
      "cid": "3848481199261821335",
      "google_id": null,
      "maps_place_token": null
    },
    {
      "name": "Spain Club Haeundae",
      "address": null,
      "note": null,
      "is_favorite": false,
      "lat": 35.160087499999996,
      "lng": 129.16637559999998,
      "maps_url": "https://maps.google.com/?cid=3848481198803421381",
      "cid": "3848481198803421381",
      "google_id": null,
      "maps_place_token": null
    },
    {
      "name": "Geodae Galbi Head Store",
      "address": null,
      "note": null,
      "is_favorite": false,
      "lat": 35.1615085,
      "lng": 129.1668928,
      "maps_url": "https://maps.google.com/?cid=3848481366487320141",
      "cid": "3848481366487320141",
      "google_id": null,
      "maps_place_token": null
    },
    {
      "name": "초원복국 해운대점",
      "address": null,
      "note": null,
      "is_favorite": false,
      "lat": 35.162901399999996,
      "lng": 129.1659596,
      "maps_url": "https://maps.google.com/?cid=3848481361027361773",
      "cid": "3848481361027361773",
      "google_id": null,
      "maps_place_token": null
    },
    {
      "name": "Sobaya Ilmiya",
      "address": null,
      "note": null,
      "is_favorite": false,
      "lat": 35.1631753,
      "lng": 129.1655144,
      "maps_url": "https://maps.google.com/?cid=3848481361067174445",
      "cid": "3848481361067174445",
      "google_id": null,
      "maps_place_token": null
    },
    {
      "name": "Anga Sutbul-gui",
      "address": null,
      "note": null,
      "is_favorite": false,
      "lat": 35.1650831,
      "lng": 129.16919529999998,
      "maps_url": "https://maps.google.com/?cid=3848481387913873387",
      "cid": "3848481387913873387",
      "google_id": null,
      "maps_place_token": null
    },
    {
      "name": "Fiotto",
      "address": null,
      "note": null,
      "is_favorite": false,
      "lat": 35.161867099999995,
      "lng": 129.1735612,
      "maps_url": "https://maps.google.com/?cid=3848481759510780757",
      "cid": "3848481759510780757",
      "google_id": null,
      "maps_place_token": null
    },
    {
      "name": "Jeongjitgan",
      "address": null,
      "note": null,
      "is_favorite": false,
      "lat": 35.0957261,
      "lng": 128.962501,
      "maps_url": "https://maps.google.com/?cid=3848540201281994019",
      "cid": "3848540201281994019",
      "google_id": null,
      "maps_place_token": null
    },
    {
      "name": "palate",
      "address": "154 Dalmaji-gil 65beon-gil, Haeundae-gu, Busan, South Korea",
      "note": null,
      "is_favorite": false,
      "lat": 35.1566861,
      "lng": 129.17848999999998,
      "maps_url": "https://maps.google.com/?cid=3848587305766243517",
      "cid": "3848587305766243517",
      "google_id": "/g/11fqj57fgt",
      "maps_place_token": null
    },
    {
      "name": "Gyeongseong Yuk Hoegwan",
      "address": "South Korea, Busan, Suyeong-gu, Millak-ro 14beon-gil, 6 1층",
      "note": null,
      "is_favorite": false,
      "lat": 35.1567951,
      "lng": 129.1227716,
      "maps_url": "https://maps.google.com/?cid=3848587177411892483",
      "cid": "3848587177411892483",
      "google_id": "/g/11sc3gp8vq",
      "maps_place_token": null
    },
    {
      "name": "Haeundae Milmyeon",
      "address": "21 Jungdong 2-ro 10beon-gil, Haeundae-gu, Busan, South Korea",
      "note": null,
      "is_favorite": false,
      "lat": 35.1634343,
      "lng": 129.1656191,
      "maps_url": "https://maps.google.com/?cid=3848481361703059837",
      "cid": "3848481361703059837",
      "google_id": "/g/11bzsdhnr1",
      "maps_place_token": null
    },
    {
      "name": "Hongdan",
      "address": "23 1F Gwangan-ro 61beon-gil, Suyeong-gu, Busan, South Korea",
      "note": null,
      "is_favorite": false,
      "lat": 35.1559556,
      "lng": 129.1203309,
      "maps_url": "https://maps.google.com/?cid=3848587058542796375",
      "cid": "3848587058542796375",
      "google_id": "/g/11t74cb7_2",
      "maps_place_token": null
    },
    {
      "name": "henry17 (앙리17)",
      "address": "171-23 Millak-dong, Suyeong-gu, Busan, South Korea",
      "note": null,
      "is_favorite": false,
      "lat": 35.1569974,
      "lng": 129.1213846,
      "maps_url": "https://maps.google.com/?cid=3848586778383394561",
      "cid": "3848586778383394561",
      "google_id": "/g/11ghpmqk2g",
      "maps_place_token": null
    },
    {
      "name": "바 모로가도(Bar Morogado)",
      "address": "South Korea, Busan, Suyeong-gu, Gwangnam-ro, 151 지하 1층",
      "note": null,
      "is_favorite": false,
      "lat": 35.154888899999996,
      "lng": 129.1177574,
      "maps_url": "https://maps.google.com/?cid=3848586663918676895",
      "cid": "3848586663918676895",
      "google_id": "/g/11r_dmj48r",
      "maps_place_token": null
    },
    {
      "name": "Pyolyu",
      "address": "South Korea, Busan, Suyeong-gu, Gwanganhaebyeon-ro 255beon-gil, 20-2 1층",
      "note": null,
      "is_favorite": false,
      "lat": 35.155906099999996,
      "lng": 129.1216234,
      "maps_url": "https://maps.google.com/?cid=3848586652553223815",
      "cid": "3848586652553223815",
      "google_id": "/g/11rv174b_y",
      "maps_place_token": null
    },
    {
      "name": "Coralani",
      "address": "32 Gijanghaean-ro, Gijang-gun, Busan, South Korea",
      "note": null,
      "is_favorite": false,
      "lat": 35.1824072,
      "lng": 129.2088791,
      "maps_url": "https://maps.google.com/?cid=3848481962946111853",
      "cid": "3848481962946111853",
      "google_id": "/g/11p5js941p",
      "maps_place_token": null
    },
    {
      "name": "Moti（mottie ）",
      "address": "669 Mangyang-ro, Dong-gu, Busan, South Korea",
      "note": null,
      "is_favorite": false,
      "lat": 35.126535,
      "lng": 129.03935239999998,
      "maps_url": "https://maps.google.com/?cid=3848585158232971813",
      "cid": "3848585158232971813",
      "google_id": "/g/11g7_jyr2l",
      "maps_place_token": null
    },
    {
      "name": "TAE TAE TAE",
      "address": "22-9 Seojeon-ro 10beon-gil, Busanjin District, Busan, South Korea",
      "note": null,
      "is_favorite": false,
      "lat": 35.157044,
      "lng": 129.05991219999999,
      "maps_url": "https://maps.google.com/?cid=3848584364093896721",
      "cid": "3848584364093896721",
      "google_id": "/g/11k56n785b",
      "maps_place_token": null
    },
    {
      "name": "Dormer",
      "address": "11-2 Gunam-ro, Haeundae-gu, Busan, South Korea",
      "note": null,
      "is_favorite": false,
      "lat": 35.1628636,
      "lng": 129.1598419,
      "maps_url": "https://maps.google.com/?cid=3848481034105619271",
      "cid": "3848481034105619271",
      "google_id": "/g/11h7d8132f",
      "maps_place_token": null
    },
    {
      "name": "Songdo Bay Station",
      "address": "171 Songdohaebyeon-ro, Seo-gu, Busan, South Korea",
      "note": null,
      "is_favorite": false,
      "lat": 35.0763876,
      "lng": 129.0236199,
      "maps_url": "https://maps.google.com/?cid=3848581262109632577",
      "cid": "3848581262109632577",
      "google_id": "/g/1q65drpc_",
      "maps_place_token": null
    },
    {
      "name": "Garage",
      "address": "15 Jungang-daero 680beonga-gil, Busanjin District, Busan, South Korea",
      "note": null,
      "is_favorite": false,
      "lat": 35.1561962,
      "lng": 129.0614081,
      "maps_url": "https://maps.google.com/?cid=3848584793658654793",
      "cid": "3848584793658654793",
      "google_id": "/g/11d_8czktb",
      "maps_place_token": null
    },
    {
      "name": "Pavox Bar 파복스 서면점",
      "address": "30 Jungang-daero 680beon-gil, Busanjin District, Busan, South Korea",
      "note": null,
      "is_favorite": false,
      "lat": 35.1532456,
      "lng": 129.0608331,
      "maps_url": "https://maps.google.com/?cid=3848584976890523153",
      "cid": "3848584976890523153",
      "google_id": "/g/11gwnv294z",
      "maps_place_token": null
    },
    {
      "name": "loundry shop",
      "address": "31-6 Seojeon-ro 10beon-gil, Bujeon-dong, Busanjin District, Busan, South Korea",
      "note": null,
      "is_favorite": false,
      "lat": 35.1562547,
      "lng": 129.06010799999999,
      "maps_url": "https://maps.google.com/?cid=3848584745949363231",
      "cid": "3848584745949363231",
      "google_id": "/g/11hbgsnh1s",
      "maps_place_token": null
    },
    {
      "name": "WOOD SIDE BAR",
      "address": "South Korea, Busan, Busanjin District, Seomyeon-ro, 23 미소미빌딩 6F",
      "note": null,
      "is_favorite": false,
      "lat": 35.152773499999995,
      "lng": 129.05761239999998,
      "maps_url": "https://maps.google.com/?cid=3848584752231779353",
      "cid": "3848584752231779353",
      "google_id": "/g/11fzf6s__1",
      "maps_place_token": null
    },
    {
      "name": "Yongkkum",
      "address": "19 Beomgok-ro, Dong-gu, Busan, South Korea",
      "note": null,
      "is_favorite": false,
      "lat": 35.1398529,
      "lng": 129.05576299999998,
      "maps_url": "https://maps.google.com/?cid=3848584936999494765",
      "cid": "3848584936999494765",
      "google_id": "/g/11g6bt8d1q",
      "maps_place_token": null
    },
    {
      "name": "Seomyeon Food Alley",
      "address": "부전제2동 Busanjin District, Busan, South Korea",
      "note": null,
      "is_favorite": false,
      "lat": 35.1558452,
      "lng": 129.0584293,
      "maps_url": "https://maps.google.com/?cid=3848585182775312235",
      "cid": "3848585182775312235",
      "google_id": "/g/11f8bqv2v1",
      "maps_place_token": null
    },
    {
      "name": "SINKI INDUSTRY CAFE",
      "address": "2 Wachi-ro 51beon-gil, Yeongdo-gu, Busan, South Korea",
      "note": null,
      "is_favorite": false,
      "lat": 35.0881227,
      "lng": 129.06089559999998,
      "maps_url": "https://maps.google.com/?cid=3848582308116770327",
      "cid": "3848582308116770327",
      "google_id": "/g/1tg_tz9k",
      "maps_place_token": null
    },
    {
      "name": "Daegeon Myeongga Dwaeji-gukbap",
      "address": "232 Jungang-daero, Dong-gu, Busan, South Korea",
      "note": null,
      "is_favorite": false,
      "lat": 35.1176812,
      "lng": 129.04140759999999,
      "maps_url": "https://maps.google.com/?cid=3848585198828519425",
      "cid": "3848585198828519425",
      "google_id": "/g/11jd9m9hnb",
      "maps_place_token": null
    },
    {
      "name": "CORNER STONE",
      "address": "South Korea, Busan, Busanjin District, Bujeon-ro, 51 초원호텔 지하 B1F",
      "note": null,
      "is_favorite": false,
      "lat": 35.154865699999995,
      "lng": 129.0548538,
      "maps_url": "https://maps.google.com/?cid=3848584770048909405",
      "cid": "3848584770048909405",
      "google_id": "/g/11flzft63v",
      "maps_place_token": null
    },
    {
      "name": "Little Prince Statue",
      "address": "128 Gamnae 2-ro, Saha-gu, Busan, South Korea",
      "note": null,
      "is_favorite": false,
      "lat": 35.0977429,
      "lng": 129.0085398,
      "maps_url": "https://maps.google.com/?cid=3848582927463887863",
      "cid": "3848582927463887863",
      "google_id": "/g/11c37nyrmr",
      "maps_place_token": null
    },
    {
      "name": "Gamcheon Culture Village",
      "address": "203 Gamnae 2-ro, Saha-gu, Busan, South Korea",
      "note": null,
      "is_favorite": false,
      "lat": 35.0973904,
      "lng": 129.0105924,
      "maps_url": "https://maps.google.com/?cid=3848582856512191057",
      "cid": "3848582856512191057",
      "google_id": "/g/11bw5svjmk",
      "maps_place_token": null
    },
    {
      "name": "부산복집",
      "address": "56-6 Jungang-dong 4(sa)-ga, Jung-gu, Busan, South Korea",
      "note": null,
      "is_favorite": false,
      "lat": 35.1053742,
      "lng": 129.0356084,
      "maps_url": "https://maps.google.com/?cid=3848582552097503395",
      "cid": "3848582552097503395",
      "google_id": "/g/1tf1lp_j",
      "maps_place_token": null
    },
    {
      "name": "다미복국",
      "address": "South Korea, Busan, Yeongdo-gu, Namhang-ro 9beon-gil, 2 다미복국",
      "note": null,
      "is_favorite": false,
      "lat": 35.0899186,
      "lng": 129.0377761,
      "maps_url": "https://maps.google.com/?cid=3848582135367790179",
      "cid": "3848582135367790179",
      "google_id": "/g/1hc4b97km",
      "maps_place_token": null
    },
    {
      "name": "Babomyeonga",
      "address": "21-10 Imsisudoginyeom-ro, Bumin-dong, Seo-gu, Busan, South Korea",
      "note": null,
      "is_favorite": false,
      "lat": 35.103027,
      "lng": 129.018591,
      "maps_url": "https://maps.google.com/?cid=3848582880238576307",
      "cid": "3848582880238576307",
      "google_id": "/g/11g86_q2zs",
      "maps_place_token": null
    },
    {
      "name": "오복통닭",
      "address": "59 Bupyeong 1-gil, Jung-gu, Busan, South Korea",
      "note": null,
      "is_favorite": false,
      "lat": 35.1021803,
      "lng": 129.025815,
      "maps_url": "https://maps.google.com/?cid=3848582762931046937",
      "cid": "3848582762931046937",
      "google_id": "/g/1tf_qrp8",
      "maps_place_token": null
    },
    {
      "name": "아닥치킨",
      "address": "74-8 Bosu-dong 3(sam)-ga, Jung-gu, Busan, South Korea",
      "note": null,
      "is_favorite": false,
      "lat": 35.1033921,
      "lng": 129.02215139999998,
      "maps_url": "https://maps.google.com/?cid=3848582765635920735",
      "cid": "3848582765635920735",
      "google_id": "/g/1tgq4jhw",
      "maps_place_token": null
    },
    {
      "name": "Bupyeong Kkangtong Market",
      "address": "39 Bupyeong 1-gil, Jung-gu, Busan, South Korea",
      "note": null,
      "is_favorite": false,
      "lat": 35.101853999999996,
      "lng": 129.0258719,
      "maps_url": "https://maps.google.com/?cid=3848582762865973979",
      "cid": "3848582762865973979",
      "google_id": "/g/11dxl1jzkl",
      "maps_place_token": null
    },
    {
      "name": "Blowfish restaurant",
      "address": "South Korea, Busan, Jung-gu, Heukgyo-ro 21beon-gil, 11 동해복국",
      "note": null,
      "is_favorite": false,
      "lat": 35.101398599999996,
      "lng": 129.0240311,
      "maps_url": "https://maps.google.com/?cid=3848582758645149979",
      "cid": "3848582758645149979",
      "google_id": "/g/1ts2y4qc",
      "maps_place_token": null
    },
    {
      "name": "Bupyeong Zucchini",
      "address": "29 Bupyeong 1-gil, Jung-gu, Busan, South Korea",
      "note": null,
      "is_favorite": false,
      "lat": 35.1008342,
      "lng": 129.0256963,
      "maps_url": "https://maps.google.com/?cid=3848582762445649531",
      "cid": "3848582762445649531",
      "google_id": "/g/11gh0kx10g",
      "maps_place_token": null
    },
    {
      "name": "Gukje Market",
      "address": "25 Gukjesijang 2-gil, Jung-gu, Busan, South Korea",
      "note": null,
      "is_favorite": false,
      "lat": 35.1013575,
      "lng": 129.0281978,
      "maps_url": "https://maps.google.com/?cid=3848487872634847869",
      "cid": "3848487872634847869",
      "google_id": null,
      "maps_place_token": null
    },
    {
      "name": "Diamond Tower (Busan Tower)",
      "address": "37-55 Yongdusan-gil, Jung-gu, Busan, South Korea",
      "note": null,
      "is_favorite": false,
      "lat": 35.1011934,
      "lng": 129.0323676,
      "maps_url": "https://maps.google.com/?cid=3848582569696379819",
      "cid": "3848582569696379819",
      "google_id": null,
      "maps_place_token": null
    },
    {
      "name": "멕코이양념치킨",
      "address": "9-1 Bosu-daero 24beon-gil, Jung-gu, Busan, South Korea",
      "note": null,
      "is_favorite": false,
      "lat": 35.099066,
      "lng": 129.0261408,
      "maps_url": "https://maps.google.com/?cid=3848582759872291409",
      "cid": "3848582759872291409",
      "google_id": "/g/1v7tj7cd",
      "maps_place_token": null
    },
    {
      "name": "항아리짬뽕",
      "address": "25 Changseon-dong 2(i)-ga, Jung-gu, Busan, South Korea",
      "note": null,
      "is_favorite": false,
      "lat": 35.099969699999995,
      "lng": 129.0286303,
      "maps_url": "https://maps.google.com/?cid=3848582756831806023",
      "cid": "3848582756831806023",
      "google_id": "/g/11cmsfgfbm",
      "maps_place_token": null
    },
    {
      "name": "Kamitake",
      "address": "31-1 BIFF gwangjang-ro, Jung-gu, Busan, South Korea",
      "note": null,
      "is_favorite": false,
      "lat": 35.0989911,
      "lng": 129.0285905,
      "maps_url": "https://maps.google.com/?cid=3848582756645113353",
      "cid": "3848582756645113353",
      "google_id": "/g/11cssmsl69",
      "maps_place_token": null
    },
    {
      "name": "BIFF Square",
      "address": "58-1 Gudeok-ro, Jung-gu, Busan, South Korea",
      "note": null,
      "is_favorite": false,
      "lat": 35.098243,
      "lng": 129.029212,
      "maps_url": "https://maps.google.com/?cid=3848582757191801647",
      "cid": "3848582757191801647",
      "google_id": "/g/11c5bklrmp",
      "maps_place_token": null
    },
    {
      "name": "Gimhae Sikdang",
      "address": "51-2 Jagalchi-ro, Jung-gu, Busan, South Korea",
      "note": null,
      "is_favorite": false,
      "lat": 35.0974797,
      "lng": 129.0299436,
      "maps_url": "https://maps.google.com/?cid=3848582112501886589",
      "cid": "3848582112501886589",
      "google_id": "/g/1tj7byc1",
      "maps_place_token": null
    },
    {
      "name": "Jagalchi Market",
      "address": "52 Jagalchihaean-ro, Jung-gu, Busan, South Korea",
      "note": null,
      "is_favorite": false,
      "lat": 35.0966339,
      "lng": 129.0307965,
      "maps_url": "https://maps.google.com/?cid=3848582111085451705",
      "cid": "3848582111085451705",
      "google_id": null,
      "maps_place_token": null
    },
    {
      "name": "MUSEUM 1",
      "address": null,
      "note": null,
      "is_favorite": false,
      "lat": 35.1713288,
      "lng": 129.1289794,
      "maps_url": "https://maps.google.com/?cid=3848487668014764337",
      "cid": "3848487668014764337",
      "google_id": null,
      "maps_place_token": null
    },
    {
      "name": "HQ Gwangan",
      "address": "237 Gwanganhaebyeon-ro, Suyeong-gu, Busan, South Korea",
      "note": null,
      "is_favorite": false,
      "lat": 35.1547291,
      "lng": 129.1199445,
      "maps_url": "https://maps.google.com/?cid=3848586665646789185",
      "cid": "3848586665646789185",
      "google_id": "/g/11c0vpj7lv",
      "maps_place_token": null
    },
    {
      "name": "The Bay 101",
      "address": "52 Dongbaek-ro, Haeundae-gu, Busan, South Korea",
      "note": null,
      "is_favorite": false,
      "lat": 35.1565954,
      "lng": 129.1520357,
      "maps_url": "https://maps.google.com/?cid=3848487657328290417",
      "cid": "3848487657328290417",
      "google_id": "/g/11bbth_98c",
      "maps_place_token": null
    },
    {
      "name": "Haeundae Traditional Market",
      "address": "22-1 Gunam-ro 41beon-gil, Haeundae-gu, Busan, South Korea",
      "note": null,
      "is_favorite": false,
      "lat": 35.161453699999996,
      "lng": 129.16224889999998,
      "maps_url": "https://maps.google.com/?cid=3848481315110156553",
      "cid": "3848481315110156553",
      "google_id": "/g/11csq28502",
      "maps_place_token": null
    },
    {
      "name": "Abnormal Taphouse and Cantina",
      "address": "24 Haeundaehaebyeon-ro 298beon-gil, Haeundae-gu, Busan, South Korea",
      "note": null,
      "is_favorite": false,
      "lat": 35.160159799999995,
      "lng": 129.1672758,
      "maps_url": "https://maps.google.com/?cid=3848481762031728673",
      "cid": "3848481762031728673",
      "google_id": "/g/11hz9hz1g8",
      "maps_place_token": null
    },
    {
      "name": "Wildcat Brewing",
      "address": "South Korea, Busan, Busanjin District, Sincheon-daero 62beon-gil, 2 KH마이우스 1층 101호",
      "note": null,
      "is_favorite": false,
      "lat": 35.150821799999996,
      "lng": 129.05861819999998,
      "maps_url": "https://maps.google.com/?cid=3848584751381648261",
      "cid": "3848584751381648261",
      "google_id": "/g/11qh0sy6s4",
      "maps_place_token": null
    },
    {
      "name": "Chamgajami",
      "address": "1436-2 우제1동 Haeundae-gu, Busan, South Korea",
      "note": null,
      "is_favorite": false,
      "lat": 35.1551015,
      "lng": 129.1453281,
      "maps_url": "https://maps.google.com/?cid=3848487159894879469",
      "cid": "3848487159894879469",
      "google_id": "/g/11hd1v3k5l",
      "maps_place_token": null
    },
    {
      "name": "Haeunmaru Hoetjip",
      "address": "65 Dalmaji-gil 62beon-gil, Haeundae-gu, Busan, South Korea",
      "note": null,
      "is_favorite": false,
      "lat": 35.1569924,
      "lng": 129.1736558,
      "maps_url": "https://maps.google.com/?cid=3848481188566977523",
      "cid": "3848481188566977523",
      "google_id": "/g/1thgdx4g",
      "maps_place_token": null
    },
    {
      "name": "샤브야",
      "address": "193 Dalmaji-gil, Haeundae-gu, Busan, South Korea",
      "note": null,
      "is_favorite": false,
      "lat": 35.1582387,
      "lng": 129.182406,
      "maps_url": "https://maps.google.com/?cid=3848481010917714649",
      "cid": "3848481010917714649",
      "google_id": "/g/1q5bx00ng",
      "maps_place_token": null
    },
    {
      "name": "Ilpum Hanwoo",
      "address": "49 Haeun-daero 570beon-gil, Haeundae-gu, Busan, South Korea",
      "note": null,
      "is_favorite": false,
      "lat": 35.1602384,
      "lng": 129.1594118,
      "maps_url": "https://maps.google.com/?cid=3848481319076837557",
      "cid": "3848481319076837557",
      "google_id": "/g/1tywvtzp",
      "maps_place_token": null
    },
    {
      "name": "Haeundae Beach",
      "address": "South Korea",
      "note": null,
      "is_favorite": false,
      "lat": 35.158697499999995,
      "lng": 129.16038419999998,
      "maps_url": "https://maps.google.com/?cid=3848481308116125535",
      "cid": "3848481308116125535",
      "google_id": null,
      "maps_place_token": null
    },
    {
      "name": "Spa Marine",
      "address": "33 Marine city 2-ro, Haeundae-gu, Busan, South Korea",
      "note": null,
      "is_favorite": false,
      "lat": 35.1563665,
      "lng": 129.1444061,
      "maps_url": "https://maps.google.com/?cid=3848487165456200667",
      "cid": "3848487165456200667",
      "google_id": "/g/1q5ccqskq",
      "maps_place_token": null
    },
    {
      "name": "Gorilla Brewing Co.",
      "address": "46 Haeun-daero 570beon-gil, Haeundae-gu, Busan, South Korea",
      "note": null,
      "is_favorite": false,
      "lat": 35.1598125,
      "lng": 129.1587344,
      "maps_url": "https://maps.google.com/?cid=3848481714336501297",
      "cid": "3848481714336501297",
      "google_id": "/g/11fnqt0fr3",
      "maps_place_token": null
    },
    {
      "name": "Oryukdo Skywalk",
      "address": "137 Oryukdo-ro, Nam-gu, Busan, South Korea",
      "note": null,
      "is_favorite": false,
      "lat": 35.1006767,
      "lng": 129.12440089999998,
      "maps_url": "https://maps.google.com/?cid=3848587325019591253",
      "cid": "3848587325019591253",
      "google_id": "/g/11b_2g4y89",
      "maps_place_token": null
    },
    {
      "name": "Dongbaek Samgyetang",
      "address": "South Korea, Busan, Haeundae-gu, Marine city 3-ro, 23 벽산오렌지프라자 3F",
      "note": null,
      "is_favorite": false,
      "lat": 35.156666699999995,
      "lng": 129.1469444,
      "maps_url": "https://maps.google.com/?cid=3848487161967937165",
      "cid": "3848487161967937165",
      "google_id": "/g/1trqf22w",
      "maps_place_token": null
    },
    {
      "name": "Vegenarang",
      "address": "9층, 노블스카이, 9-32 Gwanganhaebyeon-ro 370beon-gil, Suyeong-gu, Busan, South Korea",
      "note": null,
      "is_favorite": false,
      "lat": 35.1567466,
      "lng": 129.1342693,
      "maps_url": "https://maps.google.com/?cid=3848487303257443663",
      "cid": "3848487303257443663",
      "google_id": "/g/11b6gl78_r",
      "maps_place_token": null
    },
    {
      "name": "Millak Raw Fish Center",
      "address": "1 Millaksubyeon-ro, Suyeong-gu, Busan, South Korea",
      "note": null,
      "is_favorite": false,
      "lat": 35.155558299999996,
      "lng": 129.1238321,
      "maps_url": "https://maps.google.com/?cid=3848586682652556763",
      "cid": "3848586682652556763",
      "google_id": "/g/1wfvkk5d",
      "maps_place_token": null
    },
    {
      "name": "Galmegi Brewing Gwangan",
      "address": "58 Gwangnam-ro, Suyeong-gu, Busan, South Korea",
      "note": null,
      "is_favorite": false,
      "lat": 35.1475351,
      "lng": 129.1127115,
      "maps_url": "https://maps.google.com/?cid=3848586325729486131",
      "cid": "3848586325729486131",
      "google_id": "/g/11c1q3s78_",
      "maps_place_token": null
    },
    {
      "name": "Igidae",
      "address": "105-20 Igidaegongwon-ro, 용호제3동 Nam-gu, Busan, South Korea",
      "note": null,
      "is_favorite": false,
      "lat": 35.132210799999996,
      "lng": 129.1210029,
      "maps_url": "https://maps.google.com/?cid=3848586466997785611",
      "cid": "3848586466997785611",
      "google_id": null,
      "maps_place_token": null
    },
    {
      "name": "Ovantgarde",
      "address": "15-1 Yongso-ro 7beon-gil, Nam-gu, Busan, South Korea",
      "note": null,
      "is_favorite": false,
      "lat": 35.1372204,
      "lng": 129.1010235,
      "maps_url": "https://maps.google.com/?cid=3848586885122064583",
      "cid": "3848586885122064583",
      "google_id": "/g/11gj5pjp4j",
      "maps_place_token": null
    },
    {
      "name": "Mugunghwa",
      "address": "South Korea, Busan, 43F Gaya-daero, 772 KR 부산광역시 부산진구 부전동 주)롯데호텔",
      "note": null,
      "is_favorite": false,
      "lat": 35.156571899999996,
      "lng": 129.0555952,
      "maps_url": "https://maps.google.com/?cid=3848584739348777745",
      "cid": "3848584739348777745",
      "google_id": "/g/1tdztlyh",
      "maps_place_token": null
    },
    {
      "name": "Osiria Coastal Walk",
      "address": "62-15 Sirang-ri, Gijang-eup, Gijang-gun, Busan, South Korea",
      "note": null,
      "is_favorite": false,
      "lat": 35.1964237,
      "lng": 129.2284464,
      "maps_url": "https://maps.google.com/?cid=3848483796521449915",
      "cid": "3848483796521449915",
      "google_id": "/g/11f5q7_6pg",
      "maps_place_token": null
    },
    {
      "name": "Haedong Yonggungsa Temple",
      "address": "86 Yonggung-gil, Gijang-gun, Busan, South Korea",
      "note": null,
      "is_favorite": false,
      "lat": 35.1884543,
      "lng": 129.2231109,
      "maps_url": "https://maps.google.com/?cid=3848479932332025537",
      "cid": "3848479932332025537",
      "google_id": null,
      "maps_place_token": null
    },
    {
      "name": "Bium",
      "address": "South Korea, Centum jungang-ro, 60 KR 부산광역시 해운대구 우동1459번지 퍼스트인센텀 109호",
      "note": null,
      "is_favorite": false,
      "lat": 35.1737953,
      "lng": 129.1288822,
      "maps_url": "https://maps.google.com/?cid=3848488076706700177",
      "cid": "3848488076706700177",
      "google_id": "/g/1tnbh_xm",
      "maps_place_token": null
    },
    {
      "name": "SPA LAND Centum City",
      "address": "35 Centum nam-daero, Haeundae-gu, Busan, South Korea",
      "note": null,
      "is_favorite": false,
      "lat": 35.168233799999996,
      "lng": 129.1295279,
      "maps_url": "https://maps.google.com/?cid=3848487263910051597",
      "cid": "3848487263910051597",
      "google_id": "/g/1tjkcnvn",
      "maps_place_token": null
    },
    {
      "name": "Gwangalli Beach",
      "address": "Busan, South Korea",
      "note": null,
      "is_favorite": false,
      "lat": 35.1531696,
      "lng": 129.118666,
      "maps_url": "https://maps.google.com/?cid=3848586668374691527",
      "cid": "3848586668374691527",
      "google_id": null,
      "maps_place_token": null
    },
    {
      "name": "Busan Cinema Center",
      "address": "120 Suyeonggangbyeon-daero, Haeundae-gu, Busan, South Korea",
      "note": null,
      "is_favorite": false,
      "lat": 35.171177799999995,
      "lng": 129.1271956,
      "maps_url": "https://maps.google.com/?cid=3848487251914350863",
      "cid": "3848487251914350863",
      "google_id": null,
      "maps_place_token": null
    },
    {
      "name": "Beomeosa Temple",
      "address": "250 Beomeosa-ro, Geumjeong-gu, Busan, South Korea",
      "note": null,
      "is_favorite": false,
      "lat": 35.2839899,
      "lng": 129.0687639,
      "maps_url": "https://maps.google.com/?cid=3848491714498465457",
      "cid": "3848491714498465457",
      "google_id": null,
      "maps_place_token": null
    },
    {
      "name": "Dalmaji Park",
      "address": null,
      "note": null,
      "is_favorite": false,
      "lat": 35.1569797,
      "lng": 129.18220209999998,
      "maps_url": "https://maps.google.com/?cid=3848481011372953685",
      "cid": "3848481011372953685",
      "google_id": null,
      "maps_place_token": null
    }
  ]
}
