{
  "fetched_at": "2026-04-15T15:18:00.904769+00:00",
  "refresh_after": "2026-04-29T15:18:00.904769+00:00",
  "source_signature": "75623a892a58bdc6cd44ae47209aa3ea77226f05d070bea8b31087f38d17d356",
  "configured_source_type": "google_list_url",
  "configured_source_url": "https://maps.app.goo.gl/zAQETQP3TzixbDDq6",
  "configured_source_path": null,
  "source_url": "https://maps.app.goo.gl/zAQETQP3TzixbDDq6",
  "list_id": "80gAYlx6BPBNtTlpeQ54UWTr_g2OMw",
  "title": "Cannes, France 🇫🇷",
  "description": "Michael's list for Cannes, France 🇫🇷 See https://beacons.ai/demflyers for more.",
  "places": [
    {
      "name": "Papilla Artisan Glacier Cannes",
      "address": "81 Rue Félix Faure, 06400 Cannes, France",
      "note": null,
      "is_favorite": false,
      "lat": 43.552277,
      "lng": 7.0155549,
      "maps_url": "https://maps.google.com/?cid=1355163303083149251",
      "cid": "1355163303083149251",
      "google_id": "/g/11ffw4bmr_",
      "maps_place_token": null
    },
    {
      "name": "Hôtel de Ville - Mairie de Cannes",
      "address": "1 Pl. Bernard Cornut Gentille, 06400 Cannes, France",
      "note": null,
      "is_favorite": false,
      "lat": 43.5514443,
      "lng": 7.012499399999999,
      "maps_url": "https://maps.google.com/?cid=1355162966102003247",
      "cid": "1355162966102003247",
      "google_id": "/g/11xlqztz3",
      "maps_place_token": null
    },
    {
      "name": "CANNES sign",
      "address": "Musée de La Castre, 06400 Cannes, France",
      "note": null,
      "is_favorite": false,
      "lat": 43.5504622,
      "lng": 7.0105539,
      "maps_url": "https://maps.google.com/?cid=1355163074092614903",
      "cid": "1355163074092614903",
      "google_id": "/g/11pcsml8zr",
      "maps_place_token": null
    },
    {
      "name": "Le Dauphin",
      "address": "1 Rue Bivouac Napoléon, 06400 Cannes, France",
      "note": null,
      "is_favorite": false,
      "lat": 43.5520007,
      "lng": 7.0169669,
      "maps_url": "https://maps.google.com/?cid=1355162984712569911",
      "cid": "1355162984712569911",
      "google_id": "/g/11c5bp4lj_",
      "maps_place_token": null
    },
    {
      "name": "Restaurant FREnSH",
      "address": "43 bis Rue Félix Faure, 06400 Cannes, France",
      "note": null,
      "is_favorite": false,
      "lat": 43.552113,
      "lng": 7.013917999999999,
      "maps_url": "https://maps.google.com/?cid=1355162976837559807",
      "cid": "1355162976837559807",
      "google_id": "/g/11ggr0j5m7",
      "maps_place_token": null
    },
    {
      "name": "Black Sails - A Pirate Tavern By Chef LeChat",
      "address": "39 Rue Georges Clemenceau, 06400 Cannes, France",
      "note": null,
      "is_favorite": false,
      "lat": 43.549109099999995,
      "lng": 7.0114231,
      "maps_url": "https://maps.google.com/?cid=1354974317365693401",
      "cid": "1354974317365693401",
      "google_id": "/g/11qgkjpbz5",
      "maps_place_token": null
    },
    {
      "name": "Loka Bar Kitchen - Restaurant Cannes",
      "address": "88 Rue Meynadier, 06400 Cannes, France",
      "note": null,
      "is_favorite": false,
      "lat": 43.5515043,
      "lng": 7.0116022,
      "maps_url": "https://maps.google.com/?cid=1355163097912274713",
      "cid": "1355163097912274713",
      "google_id": "/g/11f6y3fqt1",
      "maps_place_token": null
    },
    {
      "name": "L'Alba - Beach Restaurant",
      "address": "1 Bd Jean Hibert, 06400 Cannes, France",
      "note": null,
      "is_favorite": false,
      "lat": 43.548680499999996,
      "lng": 7.0072449,
      "maps_url": "https://maps.google.com/?cid=1355162959521637691",
      "cid": "1355162959521637691",
      "google_id": "/g/11b8b3kdn9",
      "maps_place_token": null
    },
    {
      "name": "Restaurant la rotonde cannes",
      "address": "73 Bd de la République, 06400 Cannes, France",
      "note": null,
      "is_favorite": false,
      "lat": 43.556804,
      "lng": 7.0224794,
      "maps_url": "https://maps.google.com/?cid=1355163391265617319",
      "cid": "1355163391265617319",
      "google_id": "/g/1tcx3xrq",
      "maps_place_token": null
    },
    {
      "name": "La Quintessence Cannes",
      "address": "24 Rue Hoche, 06400 Cannes, France",
      "note": null,
      "is_favorite": false,
      "lat": 43.5529033,
      "lng": 7.021109,
      "maps_url": "https://maps.google.com/?cid=1355162606361650489",
      "cid": "1355162606361650489",
      "google_id": "/g/11h695cmwd",
      "maps_place_token": null
    },
    {
      "name": "Astoux et Brun",
      "address": "27 Rue Félix Faure, 06400 Cannes, France",
      "note": null,
      "is_favorite": false,
      "lat": 43.5519737,
      "lng": 7.0132392999999995,
      "maps_url": "https://maps.google.com/?cid=1355162987467219701",
      "cid": "1355162987467219701",
      "google_id": "/g/1tg5r7sy",
      "maps_place_token": null
    },
    {
      "name": "Église Notre-Dame d'Espérance",
      "address": null,
      "note": null,
      "is_favorite": false,
      "lat": 43.5507424,
      "lng": 7.0102476,
      "maps_url": "https://maps.google.com/?cid=1355162963268501199",
      "cid": "1355162963268501199",
      "google_id": null,
      "maps_place_token": null
    },
    {
      "name": "Terres d'Espérance",
      "address": null,
      "note": null,
      "is_favorite": false,
      "lat": 43.294696099999996,
      "lng": 5.3842967,
      "maps_url": "https://maps.google.com/?cid=1353824970790763485",
      "cid": "1353824970790763485",
      "google_id": null,
      "maps_place_token": null
    },
    {
      "name": "Musée des explorations du monde",
      "address": null,
      "note": null,
      "is_favorite": false,
      "lat": 43.5498663,
      "lng": 7.0104451,
      "maps_url": "https://maps.google.com/?cid=1355162497158508213",
      "cid": "1355162497158508213",
      "google_id": null,
      "maps_place_token": null
    },
    {
      "name": "Vieux Port de Cannes",
      "address": null,
      "note": null,
      "is_favorite": false,
      "lat": 43.5500061,
      "lng": 7.0145829,
      "maps_url": "https://maps.google.com/?cid=1355162988554915743",
      "cid": "1355162988554915743",
      "google_id": null,
      "maps_place_token": null
    },
    {
      "name": "Marché Forville",
      "address": null,
      "note": null,
      "is_favorite": false,
      "lat": 43.5521635,
      "lng": 7.0123368,
      "maps_url": "https://maps.google.com/?cid=1355162976173505415",
      "cid": "1355162976173505415",
      "google_id": null,
      "maps_place_token": null
    },
    {
      "name": "Palace of Festivals and Congresses of Cannes",
      "address": null,
      "note": null,
      "is_favorite": false,
      "lat": 43.5507813,
      "lng": 7.0179621999999995,
      "maps_url": "https://maps.google.com/?cid=1355163001685488571",
      "cid": "1355163001685488571",
      "google_id": null,
      "maps_place_token": null
    }
  ]
}
