{
  "fetched_at": "2026-04-15T15:30:02.011967+00:00",
  "refresh_after": "2026-04-29T15:30:02.011967+00:00",
  "source_signature": "ee4aadd2b720a357f60583193038e80d992e8fd8f5d860396672ed161c5b65c3",
  "configured_source_type": "google_list_url",
  "configured_source_url": "https://maps.app.goo.gl/DASVrHFw2yGv8ppA9",
  "configured_source_path": null,
  "source_url": "https://maps.app.goo.gl/DASVrHFw2yGv8ppA9",
  "list_id": "6KIW7fXeT_GmJbNeNMjNAA",
  "title": "Cape Winelands, South Africa 🇿🇦",
  "description": "Michael's list for the Cape Winelands, South Africa 🇿🇦 near Cape Town. See https://beacons.ai/demflyers for more.",
  "places": [
    {
      "name": "Franschhoek Motor Museum (by appointment only)",
      "address": null,
      "note": null,
      "is_favorite": false,
      "lat": -33.8796325,
      "lng": 19.002909199999998,
      "maps_url": "https://maps.google.com/?cid=2147579709953975317",
      "cid": "2147579709953975317",
      "google_id": null,
      "maps_place_token": null
    },
    {
      "name": "Zorgvliet Wine Estate",
      "address": null,
      "note": null,
      "is_favorite": false,
      "lat": -33.9145313,
      "lng": 18.935518599999998,
      "maps_url": "https://maps.google.com/?cid=2147568430654423041",
      "cid": "2147568430654423041",
      "google_id": null,
      "maps_place_token": null
    },
    {
      "name": "AA Badenhorst Family Wines",
      "address": null,
      "note": null,
      "is_favorite": false,
      "lat": -33.5439283,
      "lng": 18.8186197,
      "maps_url": "https://maps.google.com/?cid=2147404918701521821",
      "cid": "2147404918701521821",
      "google_id": null,
      "maps_place_token": null
    },
    {
      "name": "Chamonix Wine Farm",
      "address": null,
      "note": null,
      "is_favorite": false,
      "lat": -33.8996144,
      "lng": 19.127499099999998,
      "maps_url": "https://maps.google.com/?cid=2147580360683752511",
      "cid": "2147580360683752511",
      "google_id": null,
      "maps_place_token": null
    },
    {
      "name": "Protege",
      "address": null,
      "note": null,
      "is_favorite": false,
      "lat": -33.9126297,
      "lng": 19.120936999999998,
      "maps_url": "https://maps.google.com/?cid=2147580629357149341",
      "cid": "2147580629357149341",
      "google_id": null,
      "maps_place_token": null
    },
    {
      "name": "Franschhoek Kitchen at Holden Manz Wine Estate",
      "address": null,
      "note": null,
      "is_favorite": false,
      "lat": -33.9367777,
      "lng": 19.1161902,
      "maps_url": "https://maps.google.com/?cid=2147579397427574157",
      "cid": "2147579397427574157",
      "google_id": null,
      "maps_place_token": null
    },
    {
      "name": "GlenWood Vineyards",
      "address": null,
      "note": null,
      "is_favorite": false,
      "lat": -33.9133034,
      "lng": 19.0871086,
      "maps_url": "https://maps.google.com/?cid=2147578729153235187",
      "cid": "2147578729153235187",
      "google_id": null,
      "maps_place_token": null
    },
    {
      "name": "La Petite Colombe",
      "address": null,
      "note": null,
      "is_favorite": false,
      "lat": -33.9044611,
      "lng": 19.0985907,
      "maps_url": "https://maps.google.com/?cid=2147580360154116667",
      "cid": "2147580360154116667",
      "google_id": null,
      "maps_place_token": null
    },
    {
      "name": "La Motte Wine Farm",
      "address": null,
      "note": null,
      "is_favorite": false,
      "lat": -33.883516799999995,
      "lng": 19.0723436,
      "maps_url": "https://maps.google.com/?cid=2147578521556962125",
      "cid": "2147578521556962125",
      "google_id": null,
      "maps_place_token": null
    },
    {
      "name": "Antonij Rupert - Tasting Room",
      "address": null,
      "note": null,
      "is_favorite": false,
      "lat": -33.8873286,
      "lng": 19.020484,
      "maps_url": "https://maps.google.com/?cid=2147554423495140627",
      "cid": "2147554423495140627",
      "google_id": null,
      "maps_place_token": null
    },
    {
      "name": "Fyndraai Restaurant",
      "address": null,
      "note": null,
      "is_favorite": false,
      "lat": -33.8631919,
      "lng": 18.991388099999998,
      "maps_url": "https://maps.google.com/?cid=2147565624723580455",
      "cid": "2147565624723580455",
      "google_id": null,
      "maps_place_token": null
    },
    {
      "name": "Delaire Graff Estate",
      "address": null,
      "note": null,
      "is_favorite": false,
      "lat": -33.9202951,
      "lng": 18.9218332,
      "maps_url": "https://maps.google.com/?cid=2147568220619369505",
      "cid": "2147568220619369505",
      "google_id": null,
      "maps_place_token": null
    },
    {
      "name": "Tokara Wine Estate",
      "address": null,
      "note": null,
      "is_favorite": false,
      "lat": -33.9180682,
      "lng": 18.920917499999998,
      "maps_url": "https://maps.google.com/?cid=2147567595181634525",
      "cid": "2147567595181634525",
      "google_id": null,
      "maps_place_token": null
    },
    {
      "name": "Rust en Vrede Wine Estate",
      "address": null,
      "note": null,
      "is_favorite": false,
      "lat": -33.998382,
      "lng": 18.8560069,
      "maps_url": "https://maps.google.com/?cid=2147568185452587045",
      "cid": "2147568185452587045",
      "google_id": null,
      "maps_place_token": null
    },
    {
      "name": "Mitre's Edge Wine Estate - Best Boutique Wine Farm Stellenbosch | Cheese & \nWine Tasting Stellenbosch",
      "address": null,
      "note": null,
      "is_favorite": false,
      "lat": -33.829822899999996,
      "lng": 18.8761539,
      "maps_url": "https://maps.google.com/?cid=2147562206396837893",
      "cid": "2147562206396837893",
      "google_id": null,
      "maps_place_token": null
    },
    {
      "name": "Lanzerac",
      "address": null,
      "note": null,
      "is_favorite": false,
      "lat": -33.9379452,
      "lng": 18.8939707,
      "maps_url": "https://maps.google.com/?cid=2147568471527592593",
      "cid": "2147568471527592593",
      "google_id": null,
      "maps_place_token": null
    },
    {
      "name": "Oldenburg Vineyards",
      "address": null,
      "note": null,
      "is_favorite": false,
      "lat": -33.9294461,
      "lng": 18.9462316,
      "maps_url": "https://maps.google.com/?cid=2147568725836585523",
      "cid": "2147568725836585523",
      "google_id": null,
      "maps_place_token": null
    },
    {
      "name": "Hidden Valley Wines",
      "address": "Annandale Rd, Stellenbosch NU, Stellenbosch, 7613, South Africa",
      "note": null,
      "is_favorite": false,
      "lat": -34.020793999999995,
      "lng": 18.853783,
      "maps_url": "https://maps.google.com/?cid=2147571562900694203",
      "cid": "2147571562900694203",
      "google_id": "/g/1tk209wj",
      "maps_place_token": null
    },
    {
      "name": "Vergelegen Wine Estate",
      "address": "Lourensford Rd, Somerset West, Cape Town, 7130, South Africa",
      "note": null,
      "is_favorite": false,
      "lat": -34.0772932,
      "lng": 18.8917315,
      "maps_url": "https://maps.google.com/?cid=2147572186401694055",
      "cid": "2147572186401694055",
      "google_id": null,
      "maps_place_token": null
    },
    {
      "name": "Avontuur Wine Estate",
      "address": "R44, Somerset West, Cape Town, 7135, South Africa",
      "note": null,
      "is_favorite": false,
      "lat": -34.0258578,
      "lng": 18.823276699999997,
      "maps_url": "https://maps.google.com/?cid=2147571366009786445",
      "cid": "2147571366009786445",
      "google_id": "/g/1tf2htns",
      "maps_place_token": null
    },
    {
      "name": "Skilpadvlei Wine Estate",
      "address": null,
      "note": null,
      "is_favorite": false,
      "lat": -33.9596108,
      "lng": 18.767842599999998,
      "maps_url": "https://maps.google.com/?cid=2147569195511964587",
      "cid": "2147569195511964587",
      "google_id": null,
      "maps_place_token": null
    }
  ]
}
