{
  "fetched_at": "2026-04-15T15:30:00.564010+00:00",
  "refresh_after": "2026-04-29T15:30:00.564010+00:00",
  "source_signature": "07208bd3eb04f89f885316b30658d64a29d6b2e6116f8e2351b97dd3d5aa2179",
  "configured_source_type": "google_list_url",
  "configured_source_url": "https://maps.app.goo.gl/zR2XjiUPsMZYcvCK7",
  "configured_source_path": null,
  "source_url": "https://maps.app.goo.gl/zR2XjiUPsMZYcvCK7",
  "list_id": "-UbBZFPa8C3xJTYDI6eV09LJD1lwxw",
  "title": "Cape Town, South Africa 🇿🇦",
  "description": "Michael's list for Cape Town, South Africa 🇿🇦 See https://beacons.ai/demflyers for more.",
  "places": [
    {
      "name": "Abantu Bar",
      "address": null,
      "note": null,
      "is_favorite": false,
      "lat": -33.9245745,
      "lng": 18.4170885,
      "maps_url": "https://maps.google.com/?cid=2147204802166110101",
      "cid": "2147204802166110101",
      "google_id": null,
      "maps_place_token": null
    },
    {
      "name": "Furley's Bar & Grill",
      "address": null,
      "note": null,
      "is_favorite": false,
      "lat": -33.9715681,
      "lng": 18.464833199999998,
      "maps_url": "https://maps.google.com/?cid=2147194063192545195",
      "cid": "2147194063192545195",
      "google_id": null,
      "maps_place_token": null
    },
    {
      "name": "Casa Woodstock Bar",
      "address": null,
      "note": null,
      "is_favorite": false,
      "lat": -33.9278396,
      "lng": 18.4566546,
      "maps_url": "https://maps.google.com/?cid=2147194069642479525",
      "cid": "2147194069642479525",
      "google_id": null,
      "maps_place_token": null
    },
    {
      "name": "The Blue Whistle",
      "address": null,
      "note": null,
      "is_favorite": false,
      "lat": -33.979791999999996,
      "lng": 18.4652222,
      "maps_url": "https://maps.google.com/?cid=2147164590185605335",
      "cid": "2147164590185605335",
      "google_id": null,
      "maps_place_token": null
    },
    {
      "name": "Harald's Bar & Terrace",
      "address": null,
      "note": null,
      "is_favorite": false,
      "lat": -33.918842399999996,
      "lng": 18.4258096,
      "maps_url": "https://maps.google.com/?cid=2147204791858259063",
      "cid": "2147204791858259063",
      "google_id": null,
      "maps_place_token": null
    },
    {
      "name": "Oblivion Bar & Kitchen",
      "address": null,
      "note": null,
      "is_favorite": false,
      "lat": -33.9845201,
      "lng": 18.477657999999998,
      "maps_url": "https://maps.google.com/?cid=2147164960051996369",
      "cid": "2147164960051996369",
      "google_id": null,
      "maps_place_token": null
    },
    {
      "name": "Dias Tavern Portuguese Restaurant",
      "address": null,
      "note": null,
      "is_favorite": false,
      "lat": -33.9275686,
      "lng": 18.4250948,
      "maps_url": "https://maps.google.com/?cid=2147204909343962429",
      "cid": "2147204909343962429",
      "google_id": null,
      "maps_place_token": null
    },
    {
      "name": "Chuck Yang's Chinese Restaurant",
      "address": null,
      "note": null,
      "is_favorite": false,
      "lat": -33.965765,
      "lng": 18.475172999999998,
      "maps_url": "https://maps.google.com/?cid=2147193556824414001",
      "cid": "2147193556824414001",
      "google_id": null,
      "maps_place_token": null
    },
    {
      "name": "Aubergine Restaurant",
      "address": null,
      "note": null,
      "is_favorite": false,
      "lat": -33.9321474,
      "lng": 18.4161729,
      "maps_url": "https://maps.google.com/?cid=2147204896129162951",
      "cid": "2147204896129162951",
      "google_id": null,
      "maps_place_token": null
    },
    {
      "name": "Seven Spur Steak Ranch",
      "address": null,
      "note": null,
      "is_favorite": false,
      "lat": -33.9169999,
      "lng": 18.3876986,
      "maps_url": "https://maps.google.com/?cid=2147204525532027511",
      "cid": "2147204525532027511",
      "google_id": null,
      "maps_place_token": null
    },
    {
      "name": "Zest Restaurant",
      "address": null,
      "note": null,
      "is_favorite": false,
      "lat": -33.9218148,
      "lng": 18.381308699999998,
      "maps_url": "https://maps.google.com/?cid=2147204958374484399",
      "cid": "2147204958374484399",
      "google_id": null,
      "maps_place_token": null
    },
    {
      "name": "Iron Steak and Bar Restaurant",
      "address": null,
      "note": null,
      "is_favorite": false,
      "lat": -33.9219037,
      "lng": 18.4170922,
      "maps_url": "https://maps.google.com/?cid=2147205290098919309",
      "cid": "2147205290098919309",
      "google_id": null,
      "maps_place_token": null
    },
    {
      "name": "Posticino Italian Restaurant",
      "address": null,
      "note": null,
      "is_favorite": false,
      "lat": -33.9137165,
      "lng": 18.3917543,
      "maps_url": "https://maps.google.com/?cid=2147204529787669393",
      "cid": "2147204529787669393",
      "google_id": null,
      "maps_place_token": null
    },
    {
      "name": "Tobago's Restaurant, Bar and Terrace",
      "address": null,
      "note": null,
      "is_favorite": false,
      "lat": -33.899150299999995,
      "lng": 18.4124622,
      "maps_url": "https://maps.google.com/?cid=2147204707859545715",
      "cid": "2147204707859545715",
      "google_id": null,
      "maps_place_token": null
    },
    {
      "name": "Gallo Portuguese Restaurant Milnerton",
      "address": null,
      "note": null,
      "is_favorite": false,
      "lat": -33.8795247,
      "lng": 18.4988788,
      "maps_url": "https://maps.google.com/?cid=2147195669470703335",
      "cid": "2147195669470703335",
      "google_id": null,
      "maps_place_token": null
    },
    {
      "name": "Gusto Urban Italian Restaurant",
      "address": null,
      "note": null,
      "is_favorite": false,
      "lat": -33.8962091,
      "lng": 18.5062055,
      "maps_url": "https://maps.google.com/?cid=2147194226526700453",
      "cid": "2147194226526700453",
      "google_id": null,
      "maps_place_token": null
    },
    {
      "name": "Nelson's Eye Restaurant",
      "address": null,
      "note": null,
      "is_favorite": false,
      "lat": -33.932736399999996,
      "lng": 18.4126229,
      "maps_url": "https://maps.google.com/?cid=2147204858115885213",
      "cid": "2147204858115885213",
      "google_id": null,
      "maps_place_token": null
    },
    {
      "name": "Tomo Restaurant",
      "address": null,
      "note": null,
      "is_favorite": false,
      "lat": -33.9217691,
      "lng": 18.418288099999998,
      "maps_url": "https://maps.google.com/?cid=2147205156804791629",
      "cid": "2147205156804791629",
      "google_id": null,
      "maps_place_token": null
    },
    {
      "name": "Pigalle Restaurant",
      "address": null,
      "note": null,
      "is_favorite": false,
      "lat": -33.9129563,
      "lng": 18.4162683,
      "maps_url": "https://maps.google.com/?cid=2147204661230910531",
      "cid": "2147204661230910531",
      "google_id": null,
      "maps_place_token": null
    },
    {
      "name": "A Touch of Madness Restaurant",
      "address": null,
      "note": null,
      "is_favorite": false,
      "lat": -33.9387043,
      "lng": 18.469521099999998,
      "maps_url": "https://maps.google.com/?cid=2147193391484297309",
      "cid": "2147193391484297309",
      "google_id": null,
      "maps_place_token": null
    },
    {
      "name": "Three Feathers Diner & Restaurant",
      "address": null,
      "note": null,
      "is_favorite": false,
      "lat": -33.927408899999996,
      "lng": 18.4562785,
      "maps_url": "https://maps.google.com/?cid=2147194069952004525",
      "cid": "2147194069952004525",
      "google_id": null,
      "maps_place_token": null
    },
    {
      "name": "Arnolds Restaurant",
      "address": null,
      "note": null,
      "is_favorite": false,
      "lat": -33.9309191,
      "lng": 18.4096156,
      "maps_url": "https://maps.google.com/?cid=2147204862409136659",
      "cid": "2147204862409136659",
      "google_id": null,
      "maps_place_token": null
    },
    {
      "name": "Eighty-Ate Restaurant",
      "address": null,
      "note": null,
      "is_favorite": false,
      "lat": -33.928167,
      "lng": 18.4149062,
      "maps_url": "https://maps.google.com/?cid=2147204853530374727",
      "cid": "2147204853530374727",
      "google_id": null,
      "maps_place_token": null
    },
    {
      "name": "The Wild Fig Restaurant",
      "address": null,
      "note": null,
      "is_favorite": false,
      "lat": -33.9420548,
      "lng": 18.4796202,
      "maps_url": "https://maps.google.com/?cid=2147193254867554637",
      "cid": "2147193254867554637",
      "google_id": null,
      "maps_place_token": null
    },
    {
      "name": "Dash Restaurant Cape Town",
      "address": null,
      "note": null,
      "is_favorite": false,
      "lat": -33.9059582,
      "lng": 18.419007999999998,
      "maps_url": "https://maps.google.com/?cid=2147204758901003223",
      "cid": "2147204758901003223",
      "google_id": null,
      "maps_place_token": null
    },
    {
      "name": "Saray Restaurant",
      "address": null,
      "note": null,
      "is_favorite": false,
      "lat": -33.9067533,
      "lng": 18.4222701,
      "maps_url": "https://maps.google.com/?cid=2147204956268942509",
      "cid": "2147204956268942509",
      "google_id": null,
      "maps_place_token": null
    },
    {
      "name": "Vivaldi Restaurant",
      "address": null,
      "note": null,
      "is_favorite": false,
      "lat": -33.9143331,
      "lng": 18.4223566,
      "maps_url": "https://maps.google.com/?cid=2147204870534797537",
      "cid": "2147204870534797537",
      "google_id": null,
      "maps_place_token": null
    },
    {
      "name": "Hyatt Regency Cape Town",
      "address": null,
      "note": null,
      "is_favorite": false,
      "lat": -33.9216464,
      "lng": 18.4158385,
      "maps_url": "https://maps.google.com/?cid=2147205373881980141",
      "cid": "2147205373881980141",
      "google_id": null,
      "maps_place_token": null
    },
    {
      "name": "Hemelhuijs",
      "address": null,
      "note": null,
      "is_favorite": false,
      "lat": -33.9185714,
      "lng": 18.419829699999998,
      "maps_url": "https://maps.google.com/?cid=2147204813895892787",
      "cid": "2147204813895892787",
      "google_id": null,
      "maps_place_token": null
    },
    {
      "name": "NV-80 Grill & Bar",
      "address": null,
      "note": null,
      "is_favorite": false,
      "lat": -33.920726099999996,
      "lng": 18.3833064,
      "maps_url": "https://maps.google.com/?cid=2147204517221205071",
      "cid": "2147204517221205071",
      "google_id": null,
      "maps_place_token": null
    },
    {
      "name": "La Colombe Restaurant",
      "address": null,
      "note": null,
      "is_favorite": false,
      "lat": -34.0151706,
      "lng": 18.4033113,
      "maps_url": "https://maps.google.com/?cid=2147164108938439177",
      "cid": "2147164108938439177",
      "google_id": null,
      "maps_place_token": null
    },
    {
      "name": "Cape of Good Hope",
      "address": null,
      "note": null,
      "is_favorite": false,
      "lat": -34.3568425,
      "lng": 18.4739882,
      "maps_url": "https://maps.google.com/?cid=2147129590976364391",
      "cid": "2147129590976364391",
      "google_id": null,
      "maps_place_token": null
    },
    {
      "name": "Cape Point Nature Reserve",
      "address": null,
      "note": null,
      "is_favorite": false,
      "lat": -34.3507582,
      "lng": 18.4845731,
      "maps_url": "https://maps.google.com/?cid=2147129646755347713",
      "cid": "2147129646755347713",
      "google_id": null,
      "maps_place_token": null
    },
    {
      "name": "Boulders Beach",
      "address": null,
      "note": null,
      "is_favorite": false,
      "lat": -34.1956153,
      "lng": 18.4503585,
      "maps_url": "https://maps.google.com/?cid=2147159524139786281",
      "cid": "2147159524139786281",
      "google_id": null,
      "maps_place_token": null
    },
    {
      "name": "Table Mountain National Park",
      "address": null,
      "note": null,
      "is_favorite": false,
      "lat": -34.2105673,
      "lng": 18.391750599999998,
      "maps_url": "https://maps.google.com/?cid=2147115361188240513",
      "cid": "2147115361188240513",
      "google_id": null,
      "maps_place_token": null
    },
    {
      "name": "SAVEUR Restaurant",
      "address": null,
      "note": null,
      "is_favorite": false,
      "lat": -34.1928876,
      "lng": 18.432628599999997,
      "maps_url": "https://maps.google.com/?cid=2147161305240591101",
      "cid": "2147161305240591101",
      "google_id": null,
      "maps_place_token": null
    },
    {
      "name": "Grub & Vine",
      "address": "103 Bree St, Cape Town City Centre, Cape Town, 8000, South Africa",
      "note": null,
      "is_favorite": false,
      "lat": -33.921292,
      "lng": 18.4182442,
      "maps_url": "https://maps.google.com/?cid=2147204464682782967",
      "cid": "2147204464682782967",
      "google_id": "/g/11gnrl4ynh",
      "maps_place_token": null
    },
    {
      "name": "Little Ethiopia Restaurant",
      "address": "76 Shortmarket St, CBD, Cape Town, 8001, South Africa",
      "note": null,
      "is_favorite": false,
      "lat": -33.9216268,
      "lng": 18.419239299999997,
      "maps_url": "https://maps.google.com/?cid=2147204802220092087",
      "cid": "2147204802220092087",
      "google_id": "/g/11btrs2z24",
      "maps_place_token": null
    },
    {
      "name": "Burger & Lobster",
      "address": "105 Bree St, Cape Town City Centre, Cape Town, 8001, South Africa",
      "note": null,
      "is_favorite": false,
      "lat": -33.921347,
      "lng": 18.4181667,
      "maps_url": "https://maps.google.com/?cid=2147204812169849669",
      "cid": "2147204812169849669",
      "google_id": "/g/11c0qgksvh",
      "maps_place_token": null
    },
    {
      "name": "The House of Machines",
      "address": "84 Shortmarket St, Cape Town City Centre, Cape Town, 8000, South Africa",
      "note": null,
      "is_favorite": false,
      "lat": -33.921290299999995,
      "lng": 18.4187396,
      "maps_url": "https://maps.google.com/?cid=2147204812296520643",
      "cid": "2147204812296520643",
      "google_id": "/g/1pp2vbfdx",
      "maps_place_token": null
    },
    {
      "name": "Fyn Restaurant",
      "address": "5th Floor, Speakers Corner, 37 Parliament St, Cape Town City Centre, Cape Town, 8001, South Africa",
      "note": null,
      "is_favorite": false,
      "lat": -33.9247185,
      "lng": 18.4217968,
      "maps_url": "https://maps.google.com/?cid=2147205273818724389",
      "cid": "2147205273818724389",
      "google_id": "/g/11gxthq_z8",
      "maps_place_token": null
    },
    {
      "name": "District Six Museum",
      "address": "25A Buitenkant St, District Six, Cape Town, 8000, South Africa",
      "note": null,
      "is_favorite": false,
      "lat": -33.9277222,
      "lng": 18.423676999999998,
      "maps_url": "https://maps.google.com/?cid=2147204902547675741",
      "cid": "2147204902547675741",
      "google_id": null,
      "maps_place_token": null
    },
    {
      "name": "The Company's Garden Restaurant",
      "address": "15 Queen Victoria St, Cape Town City Centre, Cape Town, 8001, South Africa",
      "note": null,
      "is_favorite": false,
      "lat": -33.9266601,
      "lng": 18.4167602,
      "maps_url": "https://maps.google.com/?cid=2147204807060034595",
      "cid": "2147204807060034595",
      "google_id": null,
      "maps_place_token": null
    },
    {
      "name": "Iziko Bo-Kaap Museum",
      "address": "71 Wale St, Schotsche Kloof, Cape Town, 8001, South Africa",
      "note": null,
      "is_favorite": false,
      "lat": -33.9215332,
      "lng": 18.4149866,
      "maps_url": "https://maps.google.com/?cid=2147204809649366157",
      "cid": "2147204809649366157",
      "google_id": null,
      "maps_place_token": null
    },
    {
      "name": "Fatima's West Africa Restaurant",
      "address": "1st floor, 98 Long St, Cape Town City Centre, Cape Town, 8000, South Africa",
      "note": null,
      "is_favorite": false,
      "lat": -33.9226595,
      "lng": 18.418753,
      "maps_url": "https://maps.google.com/?cid=2147204802428768273",
      "cid": "2147204802428768273",
      "google_id": "/g/11c483sz67",
      "maps_place_token": null
    },
    {
      "name": "Awara Restaurant",
      "address": "33 Church St, Cape Town City Centre, Cape Town, 8001, South Africa",
      "note": null,
      "is_favorite": false,
      "lat": -33.9233817,
      "lng": 18.4191575,
      "maps_url": "https://maps.google.com/?cid=2147204802881576403",
      "cid": "2147204802881576403",
      "google_id": "/g/1w0zqbhn",
      "maps_place_token": null
    },
    {
      "name": "Clarke's Bar & Dining Room",
      "address": "133 Bree St, Cape Town City Centre, Cape Town, 8001, South Africa",
      "note": null,
      "is_favorite": false,
      "lat": -33.9223425,
      "lng": 18.4171662,
      "maps_url": "https://maps.google.com/?cid=2147204809722510237",
      "cid": "2147204809722510237",
      "google_id": "/g/1tcw0plt",
      "maps_place_token": null
    },
    {
      "name": "SeaBreeze Fish & Shell",
      "address": "213 Bree St, Cape Town City Centre, Cape Town, 8000, South Africa",
      "note": null,
      "is_favorite": false,
      "lat": -33.9254238,
      "lng": 18.4136548,
      "maps_url": "https://maps.google.com/?cid=2147204851567968793",
      "cid": "2147204851567968793",
      "google_id": "/g/11g6p0dbd8",
      "maps_place_token": null
    },
    {
      "name": "Table Mountain Aerial Cableway",
      "address": "Tafelberg Rd, Gardens, Cape Town, 8001, South Africa",
      "note": null,
      "is_favorite": false,
      "lat": -33.948335199999995,
      "lng": 18.4029463,
      "maps_url": "https://maps.google.com/?cid=2147205410811814733",
      "cid": "2147205410811814733",
      "google_id": "/g/12q4y8hhw",
      "maps_place_token": null
    },
    {
      "name": "The Test Kitchen",
      "address": "The Old Biscuit Mill, 375 Albert Rd, Woodstock, Cape Town, 7915, South Africa",
      "note": null,
      "is_favorite": false,
      "lat": -33.9273136,
      "lng": 18.457449999999998,
      "maps_url": "https://maps.google.com/?cid=2147194092934870837",
      "cid": "2147194092934870837",
      "google_id": "/g/1ptxkq_ym",
      "maps_place_token": null
    }
  ]
}
