{
  "fetched_at": "2026-04-15T15:45:26.041643+00:00",
  "refresh_after": "2026-04-29T15:45:26.041643+00:00",
  "source_signature": "754175ca447bd6ddf50bb44449e71f970a20ab228865366004130111221a1c44",
  "configured_source_type": "google_list_url",
  "configured_source_url": "https://maps.app.goo.gl/Wq4HBEyd9p8Spgqy5",
  "configured_source_path": null,
  "source_url": "https://maps.app.goo.gl/Wq4HBEyd9p8Spgqy5",
  "list_id": "hDyk437Vs0CwK7ZC9Kifk8phCWrjNw",
  "title": "Chiayi, Taiwan 🇹🇼",
  "description": "Michael's Chiayi, Taiwan 🇹🇼 bookmarks. See https://beacons.ai/demflyers for more.",
  "places": [
    {
      "name": "魚刺人雞蛋糕-嘉義店",
      "address": "No. 196號, Zhongshan Rd, East District, Chiayi City, Taiwan 600",
      "note": null,
      "is_favorite": false,
      "lat": 23.481057099999997,
      "lng": 120.45187899999999,
      "maps_url": "https://maps.google.com/?cid=3778120068424207191",
      "cid": "3778120068424207191",
      "google_id": "/g/11f3jxpfyb",
      "maps_place_token": null
    },
    {
      "name": "達官現炒",
      "address": "604, Taiwan, Chiayi County, Zhuqi Township",
      "note": null,
      "is_favorite": false,
      "lat": 23.4734929,
      "lng": 120.6978061,
      "maps_url": "https://maps.google.com/?cid=3778212348849048311",
      "cid": "3778212348849048311",
      "google_id": "/g/12hkn_62r",
      "maps_place_token": null
    },
    {
      "name": "Hand On The Pizza",
      "address": "No. 129-1, Zhongyi St, West District, Chiayi City, Taiwan 600",
      "note": null,
      "is_favorite": false,
      "lat": 23.4800699,
      "lng": 120.4472205,
      "maps_url": "https://maps.google.com/?cid=3778120072012375633",
      "cid": "3778120072012375633",
      "google_id": "/g/1pzsq2k0v",
      "maps_place_token": null
    },
    {
      "name": "Song of the Forest 森林之歌",
      "address": null,
      "note": null,
      "is_favorite": false,
      "lat": 23.486649,
      "lng": 120.44825399999999,
      "maps_url": "https://maps.google.com/?cid=3778120083275938659",
      "cid": "3778120083275938659",
      "google_id": null,
      "maps_place_token": null
    },
    {
      "name": "純情專売所",
      "address": "No. 404號, Gongming Rd, East District, Chiayi City, Taiwan 600",
      "note": null,
      "is_favorite": false,
      "lat": 23.4799394,
      "lng": 120.45045599999999,
      "maps_url": "https://maps.google.com/?cid=3778120075932278711",
      "cid": "3778120075932278711",
      "google_id": "/g/11f403lk8b",
      "maps_place_token": null
    },
    {
      "name": "嘉義捲餅舖（李記餅店）",
      "address": "No. 299號, Zhongshan Rd, East District, Chiayi City, Taiwan 600",
      "note": null,
      "is_favorite": false,
      "lat": 23.480065699999997,
      "lng": 120.4501124,
      "maps_url": "https://maps.google.com/?cid=3778121373686032795",
      "cid": "3778121373686032795",
      "google_id": "/g/11qb895kp0",
      "maps_place_token": null
    },
    {
      "name": "動感酒吧 Mega Lounge Bar",
      "address": "600, Taiwan, Chiayi City, West District, Renai Rd, 560號3樓",
      "note": null,
      "is_favorite": false,
      "lat": 23.478175999999998,
      "lng": 120.442107,
      "maps_url": "https://maps.google.com/?cid=3778121789656813937",
      "cid": "3778121789656813937",
      "google_id": "/g/11rpd9y7f4",
      "maps_place_token": null
    },
    {
      "name": "嘉義諸羅山涼麵",
      "address": "No. 77號, Heping Rd, East District, Chiayi City, Taiwan 600",
      "note": null,
      "is_favorite": false,
      "lat": 23.473577799999997,
      "lng": 120.4578121,
      "maps_url": "https://maps.google.com/?cid=3778120105494952213",
      "cid": "3778120105494952213",
      "google_id": "/g/11b76f74qh",
      "maps_place_token": null
    },
    {
      "name": "Guo's Chicken Rice",
      "address": "No. 148號, Wenhua Rd, East District, Chiayi City, Taiwan 600",
      "note": null,
      "is_favorite": false,
      "lat": 23.4784705,
      "lng": 120.44985249999999,
      "maps_url": "https://maps.google.com/?cid=3778120078382233485",
      "cid": "3778120078382233485",
      "google_id": "/g/11b7tpntfj",
      "maps_place_token": null
    },
    {
      "name": "阿婆炸麻糬",
      "address": "No. 54號, Minsheng S Rd, West District, Chiayi City, Taiwan 600",
      "note": null,
      "is_favorite": false,
      "lat": 23.4723585,
      "lng": 120.446873,
      "maps_url": "https://maps.google.com/?cid=3778120023263129125",
      "cid": "3778120023263129125",
      "google_id": "/g/11ggnghknb",
      "maps_place_token": null
    },
    {
      "name": "紅面蔡水煎包",
      "address": "No. 292號, Shanghai Rd, West District, Chiayi City, Taiwan 600023",
      "note": null,
      "is_favorite": false,
      "lat": 23.4704707,
      "lng": 120.4369849,
      "maps_url": "https://maps.google.com/?cid=3778121565131189545",
      "cid": "3778121565131189545",
      "google_id": "/g/11mv10dt3w",
      "maps_place_token": null
    },
    {
      "name": "季津全蚵宴全國首創全蚵料理吃到飽",
      "address": "614, Taiwan, Chiayi County, Dongshi Township, 115號",
      "note": null,
      "is_favorite": false,
      "lat": 23.4344341,
      "lng": 120.1714908,
      "maps_url": "https://maps.google.com/?cid=3778130275589211767",
      "cid": "3778130275589211767",
      "google_id": "/g/11scky3_tc",
      "maps_place_token": null
    },
    {
      "name": "恩典酥本舖",
      "address": "No. 221號, Zhongshan Rd, East District, Chiayi City, Taiwan 600",
      "note": null,
      "is_favorite": false,
      "lat": 23.480908499999998,
      "lng": 120.45213469999999,
      "maps_url": "https://maps.google.com/?cid=3778120186239073061",
      "cid": "3778120186239073061",
      "google_id": "/g/1tdfqx1w",
      "maps_place_token": null
    },
    {
      "name": "福義軒-中山門市",
      "address": "No. 98號, Zhongshan Rd, East District, Chiayi City, Taiwan 600",
      "note": null,
      "is_favorite": false,
      "lat": 23.4820824,
      "lng": 120.4573746,
      "maps_url": "https://maps.google.com/?cid=3778120092827571297",
      "cid": "3778120092827571297",
      "google_id": "/g/11cm685thc",
      "maps_place_token": null
    },
    {
      "name": "福義軒-共和門市",
      "address": "No. 372號, Gonghe Rd, East District, Chiayi City, Taiwan 600",
      "note": null,
      "is_favorite": false,
      "lat": 23.485832199999997,
      "lng": 120.45463769999999,
      "maps_url": "https://maps.google.com/?cid=3778121837589015851",
      "cid": "3778121837589015851",
      "google_id": "/g/11cm67kgcb",
      "maps_place_token": null
    },
    {
      "name": "Thefreen Burger",
      "address": "407, Taiwan, Taichung City, Xitun District, Section 3, Henan Rd, 120號3樓",
      "note": null,
      "is_favorite": false,
      "lat": 24.1644309,
      "lng": 120.6376545,
      "maps_url": "https://maps.google.com/?cid=3776617872929429857",
      "cid": "3776617872929429857",
      "google_id": "/g/11bzrfw_bq",
      "maps_place_token": null
    },
    {
      "name": "嘉義市東公有零售市場",
      "address": "600, Taiwan, Chiayi City, East District, Zhongxiao Rd, 光彩街",
      "note": null,
      "is_favorite": false,
      "lat": 23.4786908,
      "lng": 120.4544073,
      "maps_url": "https://maps.google.com/?cid=3778120100005054579",
      "cid": "3778120100005054579",
      "google_id": null,
      "maps_place_token": null
    },
    {
      "name": "涼麵四味果汁 總店",
      "address": "No. 48, Xinyi Rd, West District, Chiayi City, Taiwan 600",
      "note": null,
      "is_favorite": false,
      "lat": 23.4744696,
      "lng": 120.4342511,
      "maps_url": "https://maps.google.com/?cid=3778122741655818015",
      "cid": "3778122741655818015",
      "google_id": "/g/11bwc825sx",
      "maps_place_token": null
    },
    {
      "name": "涼麵四味果汁文化店",
      "address": "No. 417號, Wenhua Rd, West District, Chiayi City, Taiwan 600",
      "note": null,
      "is_favorite": false,
      "lat": 23.4884363,
      "lng": 120.44668539999999,
      "maps_url": "https://maps.google.com/?cid=3778121042875940993",
      "cid": "3778121042875940993",
      "google_id": "/g/11rstsp7f1",
      "maps_place_token": null
    },
    {
      "name": "鮮菓子涼麵四味果汁",
      "address": "No. 180號, You'ai Rd, West District, Chiayi City, Taiwan 600",
      "note": null,
      "is_favorite": false,
      "lat": 23.4804875,
      "lng": 120.434271,
      "maps_url": "https://maps.google.com/?cid=3778122624051979859",
      "cid": "3778122624051979859",
      "google_id": "/g/11bz__t73n",
      "maps_place_token": null
    },
    {
      "name": "黃記涼麵涼圓",
      "address": "No. 6號, Xingzhong St, East District, Chiayi City, Taiwan 600",
      "note": null,
      "is_favorite": false,
      "lat": 23.4745642,
      "lng": 120.4518075,
      "maps_url": "https://maps.google.com/?cid=3778120077597563125",
      "cid": "3778120077597563125",
      "google_id": "/g/1tgf5jl1",
      "maps_place_token": null
    },
    {
      "name": "Ah Hong Shi Turkey Rice",
      "address": "No. 108號, Guanghua Rd, East District, Chiayi City, Taiwan 600",
      "note": null,
      "is_favorite": false,
      "lat": 23.4785649,
      "lng": 120.45223039999999,
      "maps_url": "https://maps.google.com/?cid=3778120026316276455",
      "cid": "3778120026316276455",
      "google_id": "/g/11bbyq3b_6",
      "maps_place_token": null
    },
    {
      "name": "北回水晶餃",
      "address": "No. 166號, Zhongxiao Rd, East District, Chiayi City, Taiwan 600",
      "note": null,
      "is_favorite": false,
      "lat": 23.4805295,
      "lng": 120.4543365,
      "maps_url": "https://maps.google.com/?cid=3778120088810746653",
      "cid": "3778120088810746653",
      "google_id": "/g/1tflprxc",
      "maps_place_token": null
    },
    {
      "name": "王家祖傳本產牛雜湯",
      "address": "No. 106號, Zhongxiao Rd, East District, Chiayi City, Taiwan 600",
      "note": null,
      "is_favorite": false,
      "lat": 23.47901,
      "lng": 120.4543243,
      "maps_url": "https://maps.google.com/?cid=3778121803707716121",
      "cid": "3778121803707716121",
      "google_id": "/g/1tm10c48",
      "maps_place_token": null
    },
    {
      "name": "阿樓師火雞肉飯",
      "address": "No. 102號, Wufeng N Rd, East District, Chiayi City, Taiwan 600",
      "note": null,
      "is_favorite": false,
      "lat": 23.476896,
      "lng": 120.4536483,
      "maps_url": "https://maps.google.com/?cid=3778120100664213967",
      "cid": "3778120100664213967",
      "google_id": "/g/1pzr_qkhc",
      "maps_place_token": null
    },
    {
      "name": "興加臭豆腐",
      "address": "No. 191號, Xingye E Rd, East District, Chiayi City, Taiwan 600",
      "note": null,
      "is_favorite": false,
      "lat": 23.4693963,
      "lng": 120.4532471,
      "maps_url": "https://maps.google.com/?cid=1442899911556621691",
      "cid": "1442899911556621691",
      "google_id": "/g/11gzjymnx",
      "maps_place_token": null
    },
    {
      "name": "公園老店涼麵",
      "address": "No. 36號, Weixin Rd, East District, Chiayi City, Taiwan 600",
      "note": null,
      "is_favorite": false,
      "lat": 23.480259099999998,
      "lng": 120.4592394,
      "maps_url": "https://maps.google.com/?cid=3778120186827112963",
      "cid": "3778120186827112963",
      "google_id": "/g/11xlbb5l0",
      "maps_place_token": null
    },
    {
      "name": "登鮮嘉義公園涼麵 肉羹（文化店）-嘉義白醋涼麵|肉羹推薦|美奶滋涼麵|文化涼麵肉羹|銅板美食|外帶美食",
      "address": "600, Taiwan, Chiayi City, West District, Wenhua Rd, 177號1樓",
      "note": null,
      "is_favorite": false,
      "lat": 23.4812767,
      "lng": 120.4491742,
      "maps_url": "https://maps.google.com/?cid=3776572860261760317",
      "cid": "3776572860261760317",
      "google_id": "/g/11fpnn63gw",
      "maps_place_token": null
    },
    {
      "name": "Dai Shi Turkey Rice",
      "address": "No. 665號, Minzu Rd, West District, Chiayi City, Taiwan 600",
      "note": null,
      "is_favorite": false,
      "lat": 23.475376699999998,
      "lng": 120.4437031,
      "maps_url": "https://maps.google.com/?cid=3778120026642331877",
      "cid": "3778120026642331877",
      "google_id": "/g/1wk49tmy",
      "maps_place_token": null
    },
    {
      "name": "北門沙鍋魚頭",
      "address": "No. 284-1號, Zhongxiao Rd, East District, Chiayi City, Taiwan 600",
      "note": null,
      "is_favorite": false,
      "lat": 23.485781,
      "lng": 120.453672,
      "maps_url": "https://maps.google.com/?cid=3778121838054387953",
      "cid": "3778121838054387953",
      "google_id": null,
      "maps_place_token": null
    },
    {
      "name": "松山土窯羊肉",
      "address": "621, Taiwan, Chiayi County, Minxiong Township",
      "note": null,
      "is_favorite": false,
      "lat": 23.5446061,
      "lng": 120.4764077,
      "maps_url": "https://maps.google.com/?cid=3778166279172761137",
      "cid": "3778166279172761137",
      "google_id": "/g/1wk6xj2b",
      "maps_place_token": null
    },
    {
      "name": "CASA（訂位休假詳情請見Instagram ）",
      "address": "No. 132號, Guangcai St, East District, Chiayi City, Taiwan 600",
      "note": null,
      "is_favorite": false,
      "lat": 23.479271699999998,
      "lng": 120.458832,
      "maps_url": "https://maps.google.com/?cid=3778120198133261691",
      "cid": "3778120198133261691",
      "google_id": "/g/119vk0wj0",
      "maps_place_token": null
    },
    {
      "name": "Chiayi Liu Li Zhang Turkey Rice",
      "address": "No. 197號, Gongming Rd, East District, Chiayi City, Taiwan 600",
      "note": null,
      "is_favorite": false,
      "lat": 23.4799608,
      "lng": 120.4540732,
      "maps_url": "https://maps.google.com/?cid=3778120088912902421",
      "cid": "3778120088912902421",
      "google_id": null,
      "maps_place_token": null
    },
    {
      "name": "阿娥豆漿豆花",
      "address": "No. 233號, Yanping St, East District, Chiayi City, Taiwan 600",
      "note": null,
      "is_favorite": false,
      "lat": 23.4767612,
      "lng": 120.450723,
      "maps_url": "https://maps.google.com/?cid=3778120072737104497",
      "cid": "3778120072737104497",
      "google_id": null,
      "maps_place_token": null
    },
    {
      "name": "SMARTFISH",
      "address": "No. 361號, Zhongzheng Rd, East District, Chiayi City, Taiwan 600",
      "note": null,
      "is_favorite": false,
      "lat": 23.4787742,
      "lng": 120.4502527,
      "maps_url": "https://maps.google.com/?cid=3778120077552439161",
      "cid": "3778120077552439161",
      "google_id": null,
      "maps_place_token": null
    },
    {
      "name": "阿霞火雞肉飯",
      "address": "No. 119, Wenhua Rd, East District, Chiayi City, Taiwan 600",
      "note": null,
      "is_favorite": false,
      "lat": 23.47908,
      "lng": 120.4496468,
      "maps_url": "https://maps.google.com/?cid=3778120078147342125",
      "cid": "3778120078147342125",
      "google_id": "/g/11cncg_fm2",
      "maps_place_token": null
    },
    {
      "name": "貝斯特餐酒館",
      "address": "No. 143, Zhongyi St, West District, Chiayi City, Taiwan 600",
      "note": null,
      "is_favorite": false,
      "lat": 23.4804705,
      "lng": 120.4471536,
      "maps_url": "https://maps.google.com/?cid=3778120079837826741",
      "cid": "3778120079837826741",
      "google_id": "/g/11cnc7w05b",
      "maps_place_token": null
    },
    {
      "name": "COP bar-Cocktails Of Pioneers",
      "address": "No. 54-1號, Ximen St, West District, Chiayi City, Taiwan 600",
      "note": null,
      "is_favorite": false,
      "lat": 23.4735633,
      "lng": 120.443664,
      "maps_url": "https://maps.google.com/?cid=3778122040824629111",
      "cid": "3778122040824629111",
      "google_id": "/g/11f64cyy3l",
      "maps_place_token": null
    },
    {
      "name": "咱台灣人的冰",
      "address": "No. 249號, Lanjing St, West District, Chiayi City, Taiwan 600",
      "note": null,
      "is_favorite": false,
      "lat": 23.4772933,
      "lng": 120.44861259999999,
      "maps_url": "https://maps.google.com/?cid=3778120072227869953",
      "cid": "3778120072227869953",
      "google_id": null,
      "maps_place_token": null
    },
    {
      "name": "Chiayi Cultural & Creative Industries Park",
      "address": "No. 616號, Zhongshan Rd, West District, Chiayi City, Taiwan 600",
      "note": null,
      "is_favorite": false,
      "lat": 23.4769886,
      "lng": 120.4400247,
      "maps_url": "https://maps.google.com/?cid=3778120036210783685",
      "cid": "3778120036210783685",
      "google_id": null,
      "maps_place_token": null
    },
    {
      "name": "Bar Door to Dream",
      "address": "600, Taiwan, Chiayi City, West District, Lanjing St, 314號號60047",
      "note": null,
      "is_favorite": false,
      "lat": 23.4774802,
      "lng": 120.4454689,
      "maps_url": "https://maps.google.com/?cid=3778121162095636683",
      "cid": "3778121162095636683",
      "google_id": null,
      "maps_place_token": null
    }
  ]
}
