{
  "fetched_at": "2026-04-20T16:01:44.715956+00:00",
  "refresh_after": "2026-05-04T22:16:20.715956+00:00",
  "source_signature": "fc15a0504e629a52b74d392b3e110dcfcf9ff6816ab3d2cac17685dae7e162f4",
  "configured_source_type": "google_list_url",
  "configured_source_url": "https://maps.app.goo.gl/zUwkW4La7LMh8nBP9",
  "configured_source_path": null,
  "source_url": "https://maps.app.goo.gl/zUwkW4La7LMh8nBP9",
  "list_id": "0xDVB_oLiNA8cAQ8YAuCMMzJlIQdyA",
  "title": "Chicago, Illinois, USA 🇺🇸",
  "description": "Michael’s Chicago, Illinois, USA 🇺🇸 bookmarks. See https://beacons.ai/demflyers for more, or follow on Instagram / Threads / BlueSky @demflyers",
  "places": [
    {
      "name": "The Cubby Bear Chicago",
      "address": "1059 W Addison St, Chicago, IL 60613, United States",
      "note": null,
      "is_favorite": false,
      "lat": 41.9469512,
      "lng": -87.6567149,
      "maps_url": "https://www.google.com/maps/search/?api=1&query=The+Cubby+Bear+Chicago%2C+1059+W+Addison+St%2C+Chicago%2C+IL+60613%2C+United+States",
      "cid": "9492726865739222803",
      "google_id": null,
      "maps_place_token": null
    },
    {
      "name": "Field Museum",
      "address": null,
      "note": null,
      "is_favorite": false,
      "lat": 41.866261,
      "lng": -87.6169805,
      "maps_url": "https://www.google.com/maps/search/?api=1&query=Field+Museum",
      "cid": "13047526561362659290",
      "google_id": null,
      "maps_place_token": null
    },
    {
      "name": "Navy Pier",
      "address": null,
      "note": null,
      "is_favorite": false,
      "lat": 41.8918633,
      "lng": -87.6050944,
      "maps_url": "https://www.google.com/maps/search/?api=1&query=Navy+Pier",
      "cid": "15036634696136565980",
      "google_id": null,
      "maps_place_token": null
    },
    {
      "name": "Willis Tower",
      "address": null,
      "note": null,
      "is_favorite": false,
      "lat": 41.878876399999996,
      "lng": -87.6359149,
      "maps_url": "https://www.google.com/maps/search/?api=1&query=Willis+Tower",
      "cid": "76400451808431229",
      "google_id": null,
      "maps_place_token": null
    },
    {
      "name": "The Art Institute of Chicago",
      "address": null,
      "note": null,
      "is_favorite": false,
      "lat": 41.8796031,
      "lng": -87.6223504,
      "maps_url": "https://www.google.com/maps/search/?api=1&query=The+Art+Institute+of+Chicago",
      "cid": "5199955304902742238",
      "google_id": null,
      "maps_place_token": null
    },
    {
      "name": "Millennium Park",
      "address": null,
      "note": null,
      "is_favorite": false,
      "lat": 41.8825524,
      "lng": -87.62255139999999,
      "maps_url": "https://www.google.com/maps/search/?api=1&query=Millennium+Park",
      "cid": "4906721120472338436",
      "google_id": null,
      "maps_place_token": null
    },
    {
      "name": "The Aviary",
      "address": null,
      "note": null,
      "is_favorite": false,
      "lat": 41.8865074,
      "lng": -87.6519833,
      "maps_url": "https://www.google.com/maps/search/?api=1&query=The+Aviary",
      "cid": "4076225241639543655",
      "google_id": null,
      "maps_place_token": null
    },
    {
      "name": "Alinea",
      "address": null,
      "note": null,
      "is_favorite": false,
      "lat": 41.9134351,
      "lng": -87.64804889999999,
      "maps_url": "https://www.google.com/maps/search/?api=1&query=Alinea",
      "cid": "17086012509503489083",
      "google_id": null,
      "maps_place_token": null
    },
    {
      "name": "Garrett Popcorn Shops",
      "address": null,
      "note": null,
      "is_favorite": false,
      "lat": 41.885188299999996,
      "lng": -87.6242058,
      "maps_url": "https://www.google.com/maps/search/?api=1&query=Garrett+Popcorn+Shops",
      "cid": "14931032574320610656",
      "google_id": null,
      "maps_place_token": null
    },
    {
      "name": "Garrett Popcorn Shops",
      "address": null,
      "note": null,
      "is_favorite": false,
      "lat": 41.8931119,
      "lng": -87.6236801,
      "maps_url": "https://www.google.com/maps/search/?api=1&query=Garrett+Popcorn+Shops",
      "cid": "3332121427002552306",
      "google_id": null,
      "maps_place_token": null
    },
    {
      "name": "The Purple Pig Restaurant",
      "address": null,
      "note": null,
      "is_favorite": false,
      "lat": 41.890795,
      "lng": -87.6244234,
      "maps_url": "https://www.google.com/maps/search/?api=1&query=The+Purple+Pig+Restaurant",
      "cid": "6926521177900741057",
      "google_id": null,
      "maps_place_token": null
    },
    {
      "name": "The Hampton Social - Streeterville",
      "address": null,
      "note": null,
      "is_favorite": false,
      "lat": 41.8920666,
      "lng": -87.62291859999999,
      "maps_url": "https://www.google.com/maps/search/?api=1&query=The+Hampton+Social+-+Streeterville",
      "cid": "16477594854694022836",
      "google_id": null,
      "maps_place_token": null
    },
    {
      "name": "The Hampton Social - River North",
      "address": null,
      "note": null,
      "is_favorite": false,
      "lat": 41.889815,
      "lng": -87.6378737,
      "maps_url": "https://www.google.com/maps/search/?api=1&query=The+Hampton+Social+-+River+North",
      "cid": "11803174127326490564",
      "google_id": null,
      "maps_place_token": null
    },
    {
      "name": "Girl & The Goat",
      "address": null,
      "note": null,
      "is_favorite": false,
      "lat": 41.8841831,
      "lng": -87.64794529999999,
      "maps_url": "https://www.google.com/maps/search/?api=1&query=Girl+%26+The+Goat",
      "cid": "10460675286346267218",
      "google_id": null,
      "maps_place_token": null
    },
    {
      "name": "Lou Malnati's Pizzeria",
      "address": null,
      "note": null,
      "is_favorite": false,
      "lat": 41.890347399999996,
      "lng": -87.6338754,
      "maps_url": "https://www.google.com/maps/search/?api=1&query=Lou+Malnati%27s+Pizzeria",
      "cid": "8492603346710087707",
      "google_id": null,
      "maps_place_token": null
    },
    {
      "name": "Piece Brewery",
      "address": null,
      "note": null,
      "is_favorite": false,
      "lat": 41.9103042,
      "lng": -87.6761289,
      "maps_url": "https://www.google.com/maps/search/?api=1&query=Piece+Brewery",
      "cid": "5536911991698015060",
      "google_id": null,
      "maps_place_token": null
    },
    {
      "name": "The Berkshire Room",
      "address": null,
      "note": null,
      "is_favorite": false,
      "lat": 41.8922549,
      "lng": -87.6274995,
      "maps_url": "https://www.google.com/maps/search/?api=1&query=The+Berkshire+Room",
      "cid": "16390248848723520914",
      "google_id": null,
      "maps_place_token": null
    },
    {
      "name": "Arbella",
      "address": null,
      "note": null,
      "is_favorite": false,
      "lat": 41.8917487,
      "lng": -87.6317748,
      "maps_url": "https://www.google.com/maps/search/?api=1&query=Arbella",
      "cid": "4464821069749743978",
      "google_id": null,
      "maps_place_token": null
    },
    {
      "name": "Pops for Champagne",
      "address": null,
      "note": null,
      "is_favorite": false,
      "lat": 41.8926251,
      "lng": -87.6279452,
      "maps_url": "https://www.google.com/maps/search/?api=1&query=Pops+for+Champagne",
      "cid": "1056338447349649324",
      "google_id": null,
      "maps_place_token": null
    },
    {
      "name": "EUROASIA RESTAURANT",
      "address": "351 W Oak St, Chicago, IL 60610",
      "note": null,
      "is_favorite": false,
      "lat": 41.9004057,
      "lng": -87.6377851,
      "maps_url": "https://www.google.com/maps/search/?api=1&query=EUROASIA+RESTAURANT%2C+351+W+Oak+St%2C+Chicago%2C+IL+60610",
      "cid": "9731112538409650149",
      "google_id": "/g/11bc6zb9n8",
      "maps_place_token": null
    },
    {
      "name": "Do-Rite Donuts & Chicken",
      "address": "1027 W Addison St Ste A113, Chicago, IL 60613",
      "note": null,
      "is_favorite": false,
      "lat": 41.9470606,
      "lng": -87.6549364,
      "maps_url": "https://www.google.com/maps/search/?api=1&query=Do-Rite+Donuts+%26+Chicken%2C+1027+W+Addison+St+Ste+A113%2C+Chicago%2C+IL+60613",
      "cid": "15313353902312371746",
      "google_id": "/g/11fhvk9_l4",
      "maps_place_token": null
    },
    {
      "name": "Smoke Daddy BBQ - Wrigleyville",
      "address": "3636 N Clark St, Chicago, IL 60613",
      "note": null,
      "is_favorite": false,
      "lat": 41.9480528,
      "lng": -87.6574583,
      "maps_url": "https://www.google.com/maps/search/?api=1&query=Smoke+Daddy+BBQ+-+Wrigleyville%2C+3636+N+Clark+St%2C+Chicago%2C+IL+60613",
      "cid": "6059561693504224901",
      "google_id": "/g/11gg_bml6r",
      "maps_place_token": null
    },
    {
      "name": "Sluggers World Class Sports Bar and Grill & Dueling Pianos",
      "address": "3540 N Clark St, Chicago, IL 60657",
      "note": null,
      "is_favorite": false,
      "lat": 41.946595599999995,
      "lng": -87.6562208,
      "maps_url": "https://www.google.com/maps/search/?api=1&query=Sluggers+World+Class+Sports+Bar+and+Grill+%26+Dueling+Pianos%2C+3540+N+Clark+St%2C+Chicago%2C+IL+60657",
      "cid": "10151645236548935647",
      "google_id": "/g/1jkxydkw2",
      "maps_place_token": null
    },
    {
      "name": "Murphy's Bleachers",
      "address": "3655 N Sheffield Ave, Chicago, IL 60613",
      "note": null,
      "is_favorite": false,
      "lat": 41.948912199999995,
      "lng": -87.65420879999999,
      "maps_url": "https://www.google.com/maps/search/?api=1&query=Murphy%27s+Bleachers%2C+3655+N+Sheffield+Ave%2C+Chicago%2C+IL+60613",
      "cid": "10398025080386924423",
      "google_id": "/g/1tgxv4bb",
      "maps_place_token": null
    },
    {
      "name": "Red Apple Buffet-Restaurant",
      "address": null,
      "note": null,
      "is_favorite": false,
      "lat": 41.99893,
      "lng": -87.7897484,
      "maps_url": "https://www.google.com/maps/search/?api=1&query=Red+Apple+Buffet-Restaurant",
      "cid": "1325175870528124062",
      "google_id": null,
      "maps_place_token": null
    },
    {
      "name": "Podhalanka",
      "address": null,
      "note": null,
      "is_favorite": false,
      "lat": 41.9032031,
      "lng": -87.6670043,
      "maps_url": "https://www.google.com/maps/search/?api=1&query=Podhalanka",
      "cid": "4431074715589794683",
      "google_id": null,
      "maps_place_token": null
    },
    {
      "name": "Staropolska Restaurant",
      "address": null,
      "note": null,
      "is_favorite": false,
      "lat": 41.9362565,
      "lng": -87.7193254,
      "maps_url": "https://www.google.com/maps/search/?api=1&query=Staropolska+Restaurant",
      "cid": "14795842329880399395",
      "google_id": null,
      "maps_place_token": null
    },
    {
      "name": "Wrigley Field",
      "address": null,
      "note": null,
      "is_favorite": false,
      "lat": 41.9484384,
      "lng": -87.6553327,
      "maps_url": "https://www.google.com/maps/search/?api=1&query=Wrigley+Field",
      "cid": "2083546915695089222",
      "google_id": null,
      "maps_place_token": null
    },
    {
      "name": "Hello Jasmine",
      "address": "2026 S Clark St unit c, Chicago, IL 60616, United States",
      "note": null,
      "is_favorite": false,
      "lat": 41.854548699999995,
      "lng": -87.6302911,
      "maps_url": "https://www.google.com/maps/search/?api=1&query=Hello+Jasmine%2C+2026+S+Clark+St+unit+c%2C+Chicago%2C+IL+60616%2C+United+States",
      "cid": "12375900973624836037",
      "google_id": "/g/11h0_p45tr",
      "maps_place_token": null
    },
    {
      "name": "Lazy Bird",
      "address": "200 N Green St, Chicago, IL 60607, United States",
      "note": null,
      "is_favorite": false,
      "lat": 41.8858183,
      "lng": -87.6493369,
      "maps_url": "https://www.google.com/maps/search/?api=1&query=Lazy+Bird%2C+200+N+Green+St%2C+Chicago%2C+IL+60607%2C+United+States",
      "cid": "14285403774793159909",
      "google_id": "/g/11h6sb6rpb",
      "maps_place_token": null
    },
    {
      "name": "Aba",
      "address": "302 N Green St 3rd Floor, Chicago, IL 60607, United States",
      "note": null,
      "is_favorite": false,
      "lat": 41.887004999999995,
      "lng": -87.64885009999999,
      "maps_url": "https://www.google.com/maps/search/?api=1&query=Aba%2C+302+N+Green+St+3rd+Floor%2C+Chicago%2C+IL+60607%2C+United+States",
      "cid": "9209547638817621522",
      "google_id": "/g/11g0j9p7ls",
      "maps_place_token": null
    },
    {
      "name": "Duck Duck Goat",
      "address": "857 W Fulton Market, Chicago, IL 60607, United States",
      "note": null,
      "is_favorite": false,
      "lat": 41.886635999999996,
      "lng": -87.6497097,
      "maps_url": "https://www.google.com/maps/search/?api=1&query=Duck+Duck+Goat%2C+857+W+Fulton+Market%2C+Chicago%2C+IL+60607%2C+United+States",
      "cid": "5484406103879685689",
      "google_id": "/g/11clwjm29d",
      "maps_place_token": null
    },
    {
      "name": "Gathers Tea Bar",
      "address": "1214 W Taylor St, Chicago, IL 60607, United States",
      "note": null,
      "is_favorite": false,
      "lat": 41.8695957,
      "lng": -87.6574389,
      "maps_url": "https://www.google.com/maps/search/?api=1&query=Gathers+Tea+Bar%2C+1214+W+Taylor+St%2C+Chicago%2C+IL+60607%2C+United+States",
      "cid": "3701364381533003705",
      "google_id": "/g/11h8hzdkhd",
      "maps_place_token": null
    },
    {
      "name": "avec Restaurant",
      "address": "615 W Randolph St, Chicago, IL 60661, United States",
      "note": null,
      "is_favorite": false,
      "lat": 41.8842861,
      "lng": -87.643401,
      "maps_url": "https://www.google.com/maps/search/?api=1&query=avec+Restaurant%2C+615+W+Randolph+St%2C+Chicago%2C+IL+60661%2C+United+States",
      "cid": "2082550752516069695",
      "google_id": null,
      "maps_place_token": null
    },
    {
      "name": "Au Cheval",
      "address": "800 W Randolph St, Chicago, IL 60607, United States",
      "note": null,
      "is_favorite": false,
      "lat": 41.8846303,
      "lng": -87.64758719999999,
      "maps_url": "https://www.google.com/maps/search/?api=1&query=Au+Cheval%2C+800+W+Randolph+St%2C+Chicago%2C+IL+60607%2C+United+States",
      "cid": "14895351767103572712",
      "google_id": "/g/1hc2lrv12",
      "maps_place_token": null
    },
    {
      "name": "J.P. Graziano Grocery",
      "address": "901 W Randolph St, Chicago, IL 60607, United States",
      "note": null,
      "is_favorite": false,
      "lat": 41.8841336,
      "lng": -87.64994689999999,
      "maps_url": "https://www.google.com/maps/search/?api=1&query=J.P.+Graziano+Grocery%2C+901+W+Randolph+St%2C+Chicago%2C+IL+60607%2C+United+States",
      "cid": "12815412481118533946",
      "google_id": "/g/1tjrqkkh",
      "maps_place_token": null
    },
    {
      "name": "WNDR Museum",
      "address": "1130 W Monroe St, Chicago, IL 60607, United States",
      "note": null,
      "is_favorite": false,
      "lat": 41.8805359,
      "lng": -87.65584869999999,
      "maps_url": "https://www.google.com/maps/search/?api=1&query=WNDR+Museum%2C+1130+W+Monroe+St%2C+Chicago%2C+IL+60607%2C+United+States",
      "cid": "4434927006252101911",
      "google_id": "/g/11f767wcj4",
      "maps_place_token": null
    },
    {
      "name": "Greek Islands",
      "address": "200 S Halsted St, Chicago, IL 60661, United States",
      "note": null,
      "is_favorite": false,
      "lat": 41.8790063,
      "lng": -87.6475439,
      "maps_url": "https://www.google.com/maps/search/?api=1&query=Greek+Islands%2C+200+S+Halsted+St%2C+Chicago%2C+IL+60661%2C+United+States",
      "cid": "16304419442657984302",
      "google_id": null,
      "maps_place_token": null
    },
    {
      "name": "Sawada Coffee",
      "address": "112 N Green St, Chicago, IL 60607, United States",
      "note": null,
      "is_favorite": false,
      "lat": 41.8835933,
      "lng": -87.6487289,
      "maps_url": "https://www.google.com/maps/search/?api=1&query=Sawada+Coffee%2C+112+N+Green+St%2C+Chicago%2C+IL+60607%2C+United+States",
      "cid": "9648987599800477502",
      "google_id": "/g/11ckwy0qw6",
      "maps_place_token": null
    },
    {
      "name": "The Wormhole Coffee",
      "address": "1462 N Milwaukee Ave, Chicago, IL 60622, United States",
      "note": null,
      "is_favorite": false,
      "lat": 41.9084133,
      "lng": -87.6746028,
      "maps_url": "https://www.google.com/maps/search/?api=1&query=The+Wormhole+Coffee%2C+1462+N+Milwaukee+Ave%2C+Chicago%2C+IL+60622%2C+United+States",
      "cid": "15838278233679433298",
      "google_id": "/g/1tcysf87",
      "maps_place_token": null
    },
    {
      "name": "The Violet Hour",
      "address": "1520 N Damen Ave, Chicago, IL 60622, United States",
      "note": null,
      "is_favorite": false,
      "lat": 41.9090947,
      "lng": -87.6775758,
      "maps_url": "https://www.google.com/maps/search/?api=1&query=The+Violet+Hour%2C+1520+N+Damen+Ave%2C+Chicago%2C+IL+60622%2C+United+States",
      "cid": "4045146999354417701",
      "google_id": null,
      "maps_place_token": null
    }
  ]
}
