{
  "fetched_at": "2026-04-15T15:17:19.452281+00:00",
  "refresh_after": "2026-04-29T15:17:19.452281+00:00",
  "source_signature": "cc9e495bcb153cca17ab64fdca0e9ad0257c05e8931725138e19ab9d2f900acc",
  "configured_source_type": "google_list_url",
  "configured_source_url": "https://maps.app.goo.gl/556jefsE5JYQyCLQ8",
  "configured_source_path": null,
  "source_url": "https://maps.app.goo.gl/556jefsE5JYQyCLQ8",
  "list_id": "37LIiUu9kcldiKKzdJl4j5O0B6HG3g",
  "title": "Copenhagen, Denmark 🇩🇰",
  "description": "Michael’s Copenhagen, Denmark 🇩🇰 bookmarks. Credit to Alan Choi for most of these. See https://beacons.ai/demflyers for more, or follow on Instagram / Threads / BlueSky @demflyers",
  "places": [
    {
      "name": "Restaurant Jordnær",
      "address": "Gentoftegade 29, 2820 Gentofte, Denmark",
      "note": null,
      "is_favorite": false,
      "lat": 55.7482854,
      "lng": 12.541195199999999,
      "maps_url": "https://maps.google.com/?cid=5067198228842290267",
      "cid": "5067198228842290267",
      "google_id": "/g/11g81bth1f",
      "maps_place_token": null
    },
    {
      "name": "King Hans Cellar",
      "address": "Vingårdstræde 6, 1070 København, Denmark",
      "note": null,
      "is_favorite": false,
      "lat": 55.6787748,
      "lng": 12.584143,
      "maps_url": "https://maps.google.com/?cid=5067203891761043037",
      "cid": "5067203891761043037",
      "google_id": null,
      "maps_place_token": null
    },
    {
      "name": "Restaurant Møntergade",
      "address": "Møntergade 19, 1120 København, Denmark",
      "note": null,
      "is_favorite": false,
      "lat": 55.682087499999994,
      "lng": 12.5797204,
      "maps_url": "https://maps.google.com/?cid=5067204433381744029",
      "cid": "5067204433381744029",
      "google_id": "/g/11jgdwvzn7",
      "maps_place_token": null
    },
    {
      "name": "Coffee Collective Torvehallerne",
      "address": "Vendersgade 6D, 1363 Indre By, Denmark",
      "note": null,
      "is_favorite": false,
      "lat": 55.6835721,
      "lng": 12.5694682,
      "maps_url": "https://maps.google.com/?cid=5067204535725027309",
      "cid": "5067204535725027309",
      "google_id": "/g/11r8q0jxj",
      "maps_place_token": null
    },
    {
      "name": "April Coffee Store & Showroom",
      "address": "Pilestræde 39, 1112 København, Denmark",
      "note": null,
      "is_favorite": false,
      "lat": 55.6810622,
      "lng": 12.5794976,
      "maps_url": "https://maps.google.com/?cid=5067203792024911071",
      "cid": "5067203792024911071",
      "google_id": "/g/11vsbjkxgq",
      "maps_place_token": null
    },
    {
      "name": "Juno the bakery",
      "address": "Århusgade 48, 2100 København, Denmark",
      "note": null,
      "is_favorite": false,
      "lat": 55.7061815,
      "lng": 12.5818152,
      "maps_url": "https://maps.google.com/?cid=5067203722391100439",
      "cid": "5067203722391100439",
      "google_id": "/g/11f2xmgcyg",
      "maps_place_token": null
    },
    {
      "name": "Aamanns 1921",
      "address": "Niels Hemmingsens Gade 19-21, 1153 København K, Denmark",
      "note": null,
      "is_favorite": false,
      "lat": 55.6802558,
      "lng": 12.5758839,
      "maps_url": "https://maps.google.com/?cid=5067203861269163425",
      "cid": "5067203861269163425",
      "google_id": "/g/11df0q89c2",
      "maps_place_token": null
    },
    {
      "name": "Bæst",
      "address": "Guldbergsgade 29, 2200 København, Denmark",
      "note": null,
      "is_favorite": false,
      "lat": 55.6923117,
      "lng": 12.5560779,
      "maps_url": "https://maps.google.com/?cid=5067204476852009853",
      "cid": "5067204476852009853",
      "google_id": "/g/1tj4x9mj",
      "maps_place_token": null
    },
    {
      "name": "Seks",
      "address": "Krystalgade 6, 1172 København, Denmark",
      "note": null,
      "is_favorite": false,
      "lat": 55.681242,
      "lng": 12.5743989,
      "maps_url": "https://maps.google.com/?cid=5067204342399187211",
      "cid": "5067204342399187211",
      "google_id": "/g/11ll1q2crs",
      "maps_place_token": null
    },
    {
      "name": "Aoc",
      "address": "Dronningens Tværgade 2, 1302 København, Denmark",
      "note": null,
      "is_favorite": false,
      "lat": 55.683270099999994,
      "lng": 12.588797099999999,
      "maps_url": "https://maps.google.com/?cid=5067203895553599283",
      "cid": "5067203895553599283",
      "google_id": "/g/1z3t2stg3",
      "maps_place_token": null
    },
    {
      "name": "TorvehallerneKBH",
      "address": "Frederiksborggade 21, 1362 København, Denmark",
      "note": null,
      "is_favorite": false,
      "lat": 55.6837848,
      "lng": 12.568928,
      "maps_url": "https://maps.google.com/?cid=5067203811995889947",
      "cid": "5067203811995889947",
      "google_id": "/g/11g1gp86kw",
      "maps_place_token": null
    },
    {
      "name": "Jægersborggade",
      "address": "2200 Copenhagen, Denmark",
      "note": null,
      "is_favorite": false,
      "lat": 55.692330899999995,
      "lng": 12.544479599999999,
      "maps_url": "https://maps.google.com/?cid=5067204535494209285",
      "cid": "5067204535494209285",
      "google_id": "/g/121k2n6y",
      "maps_place_token": null
    },
    {
      "name": "POPL Burger",
      "address": "Strandgade 108, 1401 København, Denmark",
      "note": null,
      "is_favorite": false,
      "lat": 55.677605199999995,
      "lng": 12.597757099999999,
      "maps_url": "https://maps.google.com/?cid=5067203916984216613",
      "cid": "5067203916984216613",
      "google_id": "/g/11lh3jl570",
      "maps_place_token": null
    },
    {
      "name": "Restaurant Juju",
      "address": "Øster Farimagsgade 8, 2100 København, Denmark",
      "note": null,
      "is_favorite": false,
      "lat": 55.689864199999995,
      "lng": 12.5750572,
      "maps_url": "https://maps.google.com/?cid=5067203984020578503",
      "cid": "5067203984020578503",
      "google_id": "/g/11t2_4tyr4",
      "maps_place_token": null
    },
    {
      "name": "Christianshavn",
      "address": "Copenhagen, Denmark",
      "note": null,
      "is_favorite": false,
      "lat": 55.6736581,
      "lng": 12.589202799999999,
      "maps_url": "https://maps.google.com/?cid=5067204040023413043",
      "cid": "5067204040023413043",
      "google_id": null,
      "maps_place_token": null
    }
  ]
}
