{
  "fetched_at": "2026-04-21T09:22:15.576739+00:00",
  "refresh_after": "2026-05-07T15:28:50.576739+00:00",
  "source_signature": "47d32d1733c7f5d2c137057843a1796313f475ed57e1fabb2815a670cef35c85",
  "configured_source_type": "google_list_url",
  "configured_source_url": "https://maps.app.goo.gl/8SdgnRuV47JC3aT78",
  "configured_source_path": null,
  "source_url": "https://maps.app.goo.gl/8SdgnRuV47JC3aT78",
  "list_id": "MEvSMPJx3IVtcXOChNuvC3eH_fK-Nw",
  "title": "Geneva, Switzerland 🇨🇭",
  "description": "Michael's Geneva, Switzerland 🇨🇭 bookmarks. See https://beacons.ai/demflyers for more.",
  "places": [
    {
      "name": "Tavel House",
      "address": "Rue du Puits-Saint-Pierre 6, 1204 Genève, Switzerland",
      "note": null,
      "is_favorite": false,
      "lat": 46.201352799999995,
      "lng": 6.1471331,
      "maps_url": "https://www.google.com/maps/search/?api=1&query=Tavel+House%2C+Rue+du+Puits-Saint-Pierre+6%2C+1204+Gen%C3%A8ve%2C+Switzerland",
      "cid": "5155606913375342125",
      "google_id": "/g/120qknw4",
      "maps_place_token": null
    },
    {
      "name": "Oh Martine !",
      "address": "Rue de Montbrillant 2, 1201 Genève, Switzerland",
      "note": null,
      "is_favorite": false,
      "lat": 46.211176599999995,
      "lng": 6.1420309,
      "maps_url": "https://www.google.com/maps/search/?api=1&query=Oh+Martine+%21%2C+Rue+de+Montbrillant+2%2C+1201+Gen%C3%A8ve%2C+Switzerland",
      "cid": "5155607115732175795",
      "google_id": "/g/11vdtg3bwv",
      "maps_place_token": null
    },
    {
      "name": "Parc Malagnou",
      "address": "Rte de Malagnou, 1208 Genève, Switzerland",
      "note": null,
      "is_favorite": false,
      "lat": 46.198926799999995,
      "lng": 6.1584882,
      "maps_url": "https://www.google.com/maps/search/?api=1&query=Parc+Malagnou%2C+Rte+de+Malagnou%2C+1208+Gen%C3%A8ve%2C+Switzerland",
      "cid": "5155606951593833959",
      "google_id": "/g/120yrd51",
      "maps_place_token": null
    },
    {
      "name": "Jardin Anglais",
      "address": "Quai du Général-Guisan 34, 1204 Genève, Switzerland",
      "note": null,
      "is_favorite": false,
      "lat": 46.2040815,
      "lng": 6.151908799999999,
      "maps_url": "https://www.google.com/maps/search/?api=1&query=Jardin+Anglais%2C+Quai+du+G%C3%A9n%C3%A9ral-Guisan+34%2C+1204+Gen%C3%A8ve%2C+Switzerland",
      "cid": "5155606938140198819",
      "google_id": null,
      "maps_place_token": null
    },
    {
      "name": "Promenade de la Treille",
      "address": "Rpe de la Treille, 1204 Genève, Switzerland",
      "note": null,
      "is_favorite": false,
      "lat": 46.2004205,
      "lng": 6.1462639,
      "maps_url": "https://www.google.com/maps/search/?api=1&query=Promenade+de+la+Treille%2C+Rpe+de+la+Treille%2C+1204+Gen%C3%A8ve%2C+Switzerland",
      "cid": "5155606915087401787",
      "google_id": "/g/113qbpqt2",
      "maps_place_token": null
    },
    {
      "name": "L'Horloge Fleurie",
      "address": "Quai du Général-Guisan 28, 1204 Genève, Switzerland",
      "note": null,
      "is_favorite": false,
      "lat": 46.204192,
      "lng": 6.1509893,
      "maps_url": "https://www.google.com/maps/search/?api=1&query=L%27Horloge+Fleurie%2C+Quai+du+G%C3%A9n%C3%A9ral-Guisan+28%2C+1204+Gen%C3%A8ve%2C+Switzerland",
      "cid": "5155606928922182673",
      "google_id": null,
      "maps_place_token": null
    },
    {
      "name": "Patek Philippe Museum",
      "address": "Rue des Vieux-Grenadiers 7, 1205 Genève, Switzerland",
      "note": null,
      "is_favorite": false,
      "lat": 46.1984297,
      "lng": 6.1382048,
      "maps_url": "https://www.google.com/maps/search/?api=1&query=Patek+Philippe+Museum%2C+Rue+des+Vieux-Grenadiers+7%2C+1205+Gen%C3%A8ve%2C+Switzerland",
      "cid": "5155606540353559581",
      "google_id": "/g/11bwchwjzx",
      "maps_place_token": null
    },
    {
      "name": "Place du Bourg-de-Four",
      "address": "Pl. du Bourg-de-Four, 1204 Genève, Switzerland",
      "note": null,
      "is_favorite": false,
      "lat": 46.2002544,
      "lng": 6.1491858,
      "maps_url": "https://www.google.com/maps/search/?api=1&query=Place+du+Bourg-de-Four%2C+Pl.+du+Bourg-de-Four%2C+1204+Gen%C3%A8ve%2C+Switzerland",
      "cid": "5155606920302623567",
      "google_id": null,
      "maps_place_token": null
    },
    {
      "name": "Reformation Wall",
      "address": "Prom. des Bastions 1, 1204 Genève, Switzerland",
      "note": null,
      "is_favorite": false,
      "lat": 46.2002831,
      "lng": 6.1459508,
      "maps_url": "https://www.google.com/maps/search/?api=1&query=Reformation+Wall%2C+Prom.+des+Bastions+1%2C+1204+Gen%C3%A8ve%2C+Switzerland",
      "cid": "5155606911802115701",
      "google_id": null,
      "maps_place_token": null
    },
    {
      "name": "Cottage Café",
      "address": "Rue Adhémar-Fabri 7, 1201 Genève, Switzerland",
      "note": null,
      "is_favorite": false,
      "lat": 46.2087146,
      "lng": 6.1485205999999994,
      "maps_url": "https://www.google.com/maps/search/?api=1&query=Cottage+Caf%C3%A9%2C+Rue+Adh%C3%A9mar-Fabri+7%2C+1201+Gen%C3%A8ve%2C+Switzerland",
      "cid": "5155606886502394563",
      "google_id": "/g/1v2gcn94",
      "maps_place_token": null
    },
    {
      "name": "Little Barrel",
      "address": "Rue du Lac 15, 1207 Genève, Switzerland",
      "note": null,
      "is_favorite": false,
      "lat": 46.2041732,
      "lng": 6.1576841,
      "maps_url": "https://www.google.com/maps/search/?api=1&query=Little+Barrel%2C+Rue+du+Lac+15%2C+1207+Gen%C3%A8ve%2C+Switzerland",
      "cid": "5155606933849666447",
      "google_id": "/g/11bwf6hvz3",
      "maps_place_token": null
    },
    {
      "name": "The Leopard Room Bar & Lounge",
      "address": "Quai du Mont-Blanc 17, 1201 Genève, Switzerland",
      "note": null,
      "is_favorite": false,
      "lat": 46.2096576,
      "lng": 6.1503052,
      "maps_url": "https://www.google.com/maps/search/?api=1&query=The+Leopard+Room+Bar+%26+Lounge%2C+Quai+du+Mont-Blanc+17%2C+1201+Gen%C3%A8ve%2C+Switzerland",
      "cid": "5155606880180483993",
      "google_id": "/g/1tmpjdtm",
      "maps_place_token": null
    },
    {
      "name": "Black Sheep",
      "address": "Rue des Etuves 11, 1201 Genève, Switzerland",
      "note": null,
      "is_favorite": false,
      "lat": 46.206320899999994,
      "lng": 6.1435315,
      "maps_url": "https://www.google.com/maps/search/?api=1&query=Black+Sheep%2C+Rue+des+Etuves+11%2C+1201+Gen%C3%A8ve%2C+Switzerland",
      "cid": "5155606897764884529",
      "google_id": "/g/1tjrnwk3",
      "maps_place_token": null
    },
    {
      "name": "L'Apothicaire Cocktail-Club",
      "address": "Bd Georges-Favon 16, 1204 Genève, Switzerland",
      "note": null,
      "is_favorite": false,
      "lat": 46.202837099999996,
      "lng": 6.13988,
      "maps_url": "https://www.google.com/maps/search/?api=1&query=L%27Apothicaire+Cocktail-Club%2C+Bd+Georges-Favon+16%2C+1204+Gen%C3%A8ve%2C+Switzerland",
      "cid": "5155606543862025849",
      "google_id": "/g/11b6g8nsz4",
      "maps_place_token": null
    },
    {
      "name": "La Jonquille",
      "address": "Chem. du 23-Août 3, 1205 Genève, Switzerland",
      "note": null,
      "is_favorite": false,
      "lat": 46.2030135,
      "lng": 6.1347534999999995,
      "maps_url": "https://www.google.com/maps/search/?api=1&query=La+Jonquille%2C+Chem.+du+23-Ao%C3%BBt+3%2C+1205+Gen%C3%A8ve%2C+Switzerland",
      "cid": "5155607795713411999",
      "google_id": "/g/11h3qrlcdl",
      "maps_place_token": null
    },
    {
      "name": "Les Recyclables",
      "address": "Rue de Carouge 53, 1205 Genève, Switzerland",
      "note": null,
      "is_favorite": false,
      "lat": 46.1933721,
      "lng": 6.1439661999999995,
      "maps_url": "https://www.google.com/maps/search/?api=1&query=Les+Recyclables%2C+Rue+de+Carouge+53%2C+1205+Gen%C3%A8ve%2C+Switzerland",
      "cid": "5155630724495774565",
      "google_id": "/g/1td2lcry",
      "maps_place_token": null
    },
    {
      "name": "Café PAPON",
      "address": "Rue Henri-Fazy 1, 1204 Genève, Switzerland",
      "note": null,
      "is_favorite": false,
      "lat": 46.2008751,
      "lng": 6.1464962,
      "maps_url": "https://www.google.com/maps/search/?api=1&query=Caf%C3%A9+PAPON%2C+Rue+Henri-Fazy+1%2C+1204+Gen%C3%A8ve%2C+Switzerland",
      "cid": "5155606914987850145",
      "google_id": null,
      "maps_place_token": null
    },
    {
      "name": "Parc de La Perle du Lac",
      "address": "Rue de Lausanne 120B, 1202 Genève, Switzerland",
      "note": null,
      "is_favorite": false,
      "lat": 46.2205059,
      "lng": 6.1526388999999995,
      "maps_url": "https://www.google.com/maps/search/?api=1&query=Parc+de+La+Perle+du+Lac%2C+Rue+de+Lausanne+120B%2C+1202+Gen%C3%A8ve%2C+Switzerland",
      "cid": "5155606834173493059",
      "google_id": "/g/122zq7q9",
      "maps_place_token": null
    },
    {
      "name": "Restaurant Les Armures",
      "address": "Rue du Soleil-Levant, 1204 Genève, Switzerland",
      "note": null,
      "is_favorite": false,
      "lat": 46.2013336,
      "lng": 6.1472033,
      "maps_url": "https://www.google.com/maps/search/?api=1&query=Restaurant+Les+Armures%2C+Rue+du+Soleil-Levant%2C+1204+Gen%C3%A8ve%2C+Switzerland",
      "cid": "5155606914916951149",
      "google_id": "/g/119vd657z",
      "maps_place_token": null
    },
    {
      "name": "L'Usine",
      "address": "Pl. des Volontaires 4, 1204 Genève, Switzerland",
      "note": null,
      "is_favorite": false,
      "lat": 46.203970999999996,
      "lng": 6.1360179,
      "maps_url": "https://www.google.com/maps/search/?api=1&query=L%27Usine%2C+Pl.+des+Volontaires+4%2C+1204+Gen%C3%A8ve%2C+Switzerland",
      "cid": "5155606546803695851",
      "google_id": "/g/1226mp86",
      "maps_place_token": null
    },
    {
      "name": "Chat Noir Club",
      "address": "Rue Vautier 13, 1227 Carouge, Switzerland",
      "note": null,
      "is_favorite": false,
      "lat": 46.184999999999995,
      "lng": 6.1425,
      "maps_url": "https://www.google.com/maps/search/?api=1&query=Chat+Noir+Club%2C+Rue+Vautier+13%2C+1227+Carouge%2C+Switzerland",
      "cid": "5155630747521240865",
      "google_id": "/g/1tk1xytx",
      "maps_place_token": null
    },
    {
      "name": "Palais des Nations",
      "address": "8, Av. de la Paix 14, 1211 Geneva, Switzerland",
      "note": null,
      "is_favorite": false,
      "lat": 46.226605299999996,
      "lng": 6.140481299999999,
      "maps_url": "https://www.google.com/maps/search/?api=1&query=Palais+des+Nations%2C+8%2C+Av.+de+la+Paix+14%2C+1211+Geneva%2C+Switzerland",
      "cid": "5155606709792353855",
      "google_id": null,
      "maps_place_token": null
    },
    {
      "name": "International Museum of the Red Cross and Red Crescent",
      "address": "Av. de la Paix 17, 1202 Genève, Switzerland",
      "note": null,
      "is_favorite": false,
      "lat": 46.2269225,
      "lng": 6.137340699999999,
      "maps_url": "https://www.google.com/maps/search/?api=1&query=International+Museum+of+the+Red+Cross+and+Red+Crescent%2C+Av.+de+la+Paix+17%2C+1202+Gen%C3%A8ve%2C+Switzerland",
      "cid": "5155606701810633345",
      "google_id": null,
      "maps_place_token": null
    },
    {
      "name": "Bains des Pâquis",
      "address": "Quai du Mont-Blanc 30, 1201 Genève, Switzerland",
      "note": null,
      "is_favorite": false,
      "lat": 46.2103687,
      "lng": 6.154191099999999,
      "maps_url": "https://www.google.com/maps/search/?api=1&query=Bains+des+P%C3%A2quis%2C+Quai+du+Mont-Blanc+30%2C+1201+Gen%C3%A8ve%2C+Switzerland",
      "cid": "5155606887206822315",
      "google_id": null,
      "maps_place_token": null
    },
    {
      "name": "Le Verre à Monique",
      "address": "Rue des Savoises 19, 1205 Genève, Switzerland",
      "note": null,
      "is_favorite": false,
      "lat": 46.2011038,
      "lng": 6.1381688,
      "maps_url": "https://www.google.com/maps/search/?api=1&query=Le+Verre+%C3%A0+Monique%2C+Rue+des+Savoises+19%2C+1205+Gen%C3%A8ve%2C+Switzerland",
      "cid": "5155606542400764389",
      "google_id": "/g/11g_wzd6f",
      "maps_place_token": null
    },
    {
      "name": "Parc des Bastions",
      "address": "Les Bastions, 1204 Genève, Switzerland",
      "note": null,
      "is_favorite": false,
      "lat": 46.200268799999996,
      "lng": 6.1445482,
      "maps_url": "https://www.google.com/maps/search/?api=1&query=Parc+des+Bastions%2C+Les+Bastions%2C+1204+Gen%C3%A8ve%2C+Switzerland",
      "cid": "5155607013262595431",
      "google_id": "/g/11qbkrhyvd",
      "maps_place_token": null
    },
    {
      "name": "Café Remor",
      "address": "Pl. du Cirque 3, 1204 Genève, Switzerland",
      "note": null,
      "is_favorite": false,
      "lat": 46.2015149,
      "lng": 6.1401451,
      "maps_url": "https://www.google.com/maps/search/?api=1&query=Caf%C3%A9+Remor%2C+Pl.+du+Cirque+3%2C+1204+Gen%C3%A8ve%2C+Switzerland",
      "cid": "5155606543400744967",
      "google_id": "/g/1232ncwr3",
      "maps_place_token": null
    },
    {
      "name": "Plaine de Plainpalais",
      "address": "Geneva, Switzerland",
      "note": null,
      "is_favorite": false,
      "lat": 46.1983927,
      "lng": 6.1405446999999995,
      "maps_url": "https://www.google.com/maps/search/?api=1&query=Plaine+de+Plainpalais%2C+Geneva%2C+Switzerland",
      "cid": "5155630729961086573",
      "google_id": "/g/1td41d5d",
      "maps_place_token": null
    },
    {
      "name": "St Pierre Cathedral",
      "address": "Cr de Saint-Pierre, 1204 Genève, Switzerland",
      "note": null,
      "is_favorite": false,
      "lat": 46.201126699999996,
      "lng": 6.1485159,
      "maps_url": "https://www.google.com/maps/search/?api=1&query=St+Pierre+Cathedral%2C+Cr+de+Saint-Pierre%2C+1204+Gen%C3%A8ve%2C+Switzerland",
      "cid": "5155606913976939917",
      "google_id": null,
      "maps_place_token": null
    },
    {
      "name": "The Geneva Water Fountain",
      "address": "Quai Gustave-Ador, 1207 Genève, Switzerland",
      "note": null,
      "is_favorite": false,
      "lat": 46.2073889,
      "lng": 6.1559028,
      "maps_url": "https://www.google.com/maps/search/?api=1&query=The+Geneva+Water+Fountain%2C+Quai+Gustave-Ador%2C+1207+Gen%C3%A8ve%2C+Switzerland",
      "cid": "5155606974863869893",
      "google_id": null,
      "maps_place_token": null
    }
  ]
}
