{
  "fetched_at": "2026-04-15T23:44:02.850631+00:00",
  "refresh_after": "2026-04-29T23:44:02.850631+00:00",
  "source_signature": "9f33c7d603f5b88e3653e0bb068fd7df0ce86661a194dca0ca2d26d7675c0bda",
  "configured_source_type": "google_list_url",
  "configured_source_url": "https://maps.app.goo.gl/vS8YFAofDDkmDYFC6",
  "configured_source_path": null,
  "source_url": "https://maps.app.goo.gl/vS8YFAofDDkmDYFC6",
  "list_id": "MEvSMPJx3IVtcXOChNuvC3eH_fK-Nw",
  "title": "Geneva, Switzerland 🇨🇭",
  "description": "Michael's Geneva, Switzerland 🇨🇭 bookmarks. See https://beacons.ai/demflyers for more.",
  "places": [
    {
      "name": "Tavel House",
      "address": "Rue du Puits-Saint-Pierre 6, 1204 Genève, Switzerland",
      "note": null,
      "is_favorite": false,
      "lat": 46.201352799999995,
      "lng": 6.1471331,
      "maps_url": "https://maps.google.com/?cid=5155606913375342125",
      "cid": "5155606913375342125",
      "google_id": "/g/120qknw4",
      "maps_place_token": null
    },
    {
      "name": "Oh Martine !",
      "address": "Rue de Montbrillant 2, 1201 Genève, Switzerland",
      "note": null,
      "is_favorite": false,
      "lat": 46.211176599999995,
      "lng": 6.1420309,
      "maps_url": "https://maps.google.com/?cid=5155607115732175795",
      "cid": "5155607115732175795",
      "google_id": "/g/11vdtg3bwv",
      "maps_place_token": null
    },
    {
      "name": "Parc Malagnou",
      "address": "Rte de Malagnou, 1208 Genève, Switzerland",
      "note": null,
      "is_favorite": false,
      "lat": 46.198926799999995,
      "lng": 6.1584882,
      "maps_url": "https://maps.google.com/?cid=5155606951593833959",
      "cid": "5155606951593833959",
      "google_id": "/g/120yrd51",
      "maps_place_token": null
    },
    {
      "name": "Jardin Anglais",
      "address": "Quai du Général-Guisan 34, 1204 Genève, Switzerland",
      "note": null,
      "is_favorite": false,
      "lat": 46.2040815,
      "lng": 6.151908799999999,
      "maps_url": "https://maps.google.com/?cid=5155606938140198819",
      "cid": "5155606938140198819",
      "google_id": null,
      "maps_place_token": null
    },
    {
      "name": "Promenade de la Treille",
      "address": "Rpe de la Treille, 1204 Genève, Switzerland",
      "note": null,
      "is_favorite": false,
      "lat": 46.2004205,
      "lng": 6.1462639,
      "maps_url": "https://maps.google.com/?cid=5155606915087401787",
      "cid": "5155606915087401787",
      "google_id": "/g/113qbpqt2",
      "maps_place_token": null
    },
    {
      "name": "L'Horloge Fleurie",
      "address": "Quai du Général-Guisan 28, 1204 Genève, Switzerland",
      "note": null,
      "is_favorite": false,
      "lat": 46.204192,
      "lng": 6.1509893,
      "maps_url": "https://maps.google.com/?cid=5155606928922182673",
      "cid": "5155606928922182673",
      "google_id": null,
      "maps_place_token": null
    },
    {
      "name": "Patek Philippe Museum",
      "address": "Rue des Vieux-Grenadiers 7, 1205 Genève, Switzerland",
      "note": null,
      "is_favorite": false,
      "lat": 46.1984297,
      "lng": 6.1382048,
      "maps_url": "https://maps.google.com/?cid=5155606540353559581",
      "cid": "5155606540353559581",
      "google_id": "/g/11bwchwjzx",
      "maps_place_token": null
    },
    {
      "name": "Place du Bourg-de-Four",
      "address": "Pl. du Bourg-de-Four, 1204 Genève, Switzerland",
      "note": null,
      "is_favorite": false,
      "lat": 46.2002544,
      "lng": 6.1491858,
      "maps_url": "https://maps.google.com/?cid=5155606920302623567",
      "cid": "5155606920302623567",
      "google_id": null,
      "maps_place_token": null
    },
    {
      "name": "Reformation Wall",
      "address": "Prom. des Bastions 1, 1204 Genève, Switzerland",
      "note": null,
      "is_favorite": false,
      "lat": 46.2002831,
      "lng": 6.1459508,
      "maps_url": "https://maps.google.com/?cid=5155606911802115701",
      "cid": "5155606911802115701",
      "google_id": null,
      "maps_place_token": null
    },
    {
      "name": "Cottage Café",
      "address": "Rue Adhémar-Fabri 7, 1201 Genève, Switzerland",
      "note": null,
      "is_favorite": false,
      "lat": 46.2087146,
      "lng": 6.1485205999999994,
      "maps_url": "https://maps.google.com/?cid=5155606886502394563",
      "cid": "5155606886502394563",
      "google_id": "/g/1v2gcn94",
      "maps_place_token": null
    },
    {
      "name": "Little Barrel",
      "address": "Rue du Lac 15, 1207 Genève, Switzerland",
      "note": null,
      "is_favorite": false,
      "lat": 46.2041732,
      "lng": 6.1576841,
      "maps_url": "https://maps.google.com/?cid=5155606933849666447",
      "cid": "5155606933849666447",
      "google_id": "/g/11bwf6hvz3",
      "maps_place_token": null
    },
    {
      "name": "The Leopard Room Bar & Lounge",
      "address": "Quai du Mont-Blanc 17, 1201 Genève, Switzerland",
      "note": null,
      "is_favorite": false,
      "lat": 46.2096576,
      "lng": 6.1503052,
      "maps_url": "https://maps.google.com/?cid=5155606880180483993",
      "cid": "5155606880180483993",
      "google_id": "/g/1tmpjdtm",
      "maps_place_token": null
    },
    {
      "name": "Black Sheep",
      "address": "Rue des Etuves 11, 1201 Genève, Switzerland",
      "note": null,
      "is_favorite": false,
      "lat": 46.206320899999994,
      "lng": 6.1435315,
      "maps_url": "https://maps.google.com/?cid=5155606897764884529",
      "cid": "5155606897764884529",
      "google_id": "/g/1tjrnwk3",
      "maps_place_token": null
    },
    {
      "name": "L'Apothicaire Cocktail-Club",
      "address": "Bd Georges-Favon 16, 1204 Genève, Switzerland",
      "note": null,
      "is_favorite": false,
      "lat": 46.202837099999996,
      "lng": 6.13988,
      "maps_url": "https://maps.google.com/?cid=5155606543862025849",
      "cid": "5155606543862025849",
      "google_id": "/g/11b6g8nsz4",
      "maps_place_token": null
    },
    {
      "name": "La Jonquille",
      "address": "Chem. du 23-Août 3, 1205 Genève, Switzerland",
      "note": null,
      "is_favorite": false,
      "lat": 46.2030135,
      "lng": 6.1347534999999995,
      "maps_url": "https://maps.google.com/?cid=5155607795713411999",
      "cid": "5155607795713411999",
      "google_id": "/g/11h3qrlcdl",
      "maps_place_token": null
    },
    {
      "name": "Les Recyclables",
      "address": "Rue de Carouge 53, 1205 Genève, Switzerland",
      "note": null,
      "is_favorite": false,
      "lat": 46.1933721,
      "lng": 6.1439661999999995,
      "maps_url": "https://maps.google.com/?cid=5155630724495774565",
      "cid": "5155630724495774565",
      "google_id": "/g/1td2lcry",
      "maps_place_token": null
    },
    {
      "name": "Café PAPON",
      "address": "Rue Henri-Fazy 1, 1204 Genève, Switzerland",
      "note": null,
      "is_favorite": false,
      "lat": 46.2008751,
      "lng": 6.1464962,
      "maps_url": "https://maps.google.com/?cid=5155606914987850145",
      "cid": "5155606914987850145",
      "google_id": null,
      "maps_place_token": null
    },
    {
      "name": "Parc de La Perle du Lac",
      "address": "Rue de Lausanne 120B, 1202 Genève, Switzerland",
      "note": null,
      "is_favorite": false,
      "lat": 46.2205059,
      "lng": 6.1526388999999995,
      "maps_url": "https://maps.google.com/?cid=5155606834173493059",
      "cid": "5155606834173493059",
      "google_id": "/g/122zq7q9",
      "maps_place_token": null
    },
    {
      "name": "Restaurant Les Armures",
      "address": "Rue du Soleil-Levant, 1204 Genève, Switzerland",
      "note": null,
      "is_favorite": false,
      "lat": 46.2013336,
      "lng": 6.1472033,
      "maps_url": "https://maps.google.com/?cid=5155606914916951149",
      "cid": "5155606914916951149",
      "google_id": "/g/119vd657z",
      "maps_place_token": null
    },
    {
      "name": "L'Usine",
      "address": "Pl. des Volontaires 4, 1204 Genève, Switzerland",
      "note": null,
      "is_favorite": false,
      "lat": 46.203970999999996,
      "lng": 6.1360179,
      "maps_url": "https://maps.google.com/?cid=5155606546803695851",
      "cid": "5155606546803695851",
      "google_id": "/g/1226mp86",
      "maps_place_token": null
    },
    {
      "name": "Chat Noir Club",
      "address": "Rue Vautier 13, 1227 Carouge, Switzerland",
      "note": null,
      "is_favorite": false,
      "lat": 46.184999999999995,
      "lng": 6.1425,
      "maps_url": "https://maps.google.com/?cid=5155630747521240865",
      "cid": "5155630747521240865",
      "google_id": "/g/1tk1xytx",
      "maps_place_token": null
    },
    {
      "name": "Palais des Nations",
      "address": "8, Av. de la Paix 14, 1211 Geneva, Switzerland",
      "note": null,
      "is_favorite": false,
      "lat": 46.226605299999996,
      "lng": 6.140481299999999,
      "maps_url": "https://maps.google.com/?cid=5155606709792353855",
      "cid": "5155606709792353855",
      "google_id": null,
      "maps_place_token": null
    },
    {
      "name": "International Museum of the Red Cross and Red Crescent",
      "address": "Av. de la Paix 17, 1202 Genève, Switzerland",
      "note": null,
      "is_favorite": false,
      "lat": 46.2269225,
      "lng": 6.137340699999999,
      "maps_url": "https://maps.google.com/?cid=5155606701810633345",
      "cid": "5155606701810633345",
      "google_id": null,
      "maps_place_token": null
    },
    {
      "name": "Bains des Pâquis",
      "address": "Quai du Mont-Blanc 30, 1201 Genève, Switzerland",
      "note": null,
      "is_favorite": false,
      "lat": 46.2103687,
      "lng": 6.154191099999999,
      "maps_url": "https://maps.google.com/?cid=5155606887206822315",
      "cid": "5155606887206822315",
      "google_id": null,
      "maps_place_token": null
    },
    {
      "name": "Le Verre à Monique",
      "address": "Rue des Savoises 19, 1205 Genève, Switzerland",
      "note": null,
      "is_favorite": false,
      "lat": 46.2011038,
      "lng": 6.1381688,
      "maps_url": "https://maps.google.com/?cid=5155606542400764389",
      "cid": "5155606542400764389",
      "google_id": "/g/11g_wzd6f",
      "maps_place_token": null
    },
    {
      "name": "Parc des Bastions",
      "address": "Les Bastions, 1204 Genève, Switzerland",
      "note": null,
      "is_favorite": false,
      "lat": 46.200268799999996,
      "lng": 6.1445482,
      "maps_url": "https://maps.google.com/?cid=5155607013262595431",
      "cid": "5155607013262595431",
      "google_id": "/g/11qbkrhyvd",
      "maps_place_token": null
    },
    {
      "name": "Café Remor",
      "address": "Pl. du Cirque 3, 1204 Genève, Switzerland",
      "note": null,
      "is_favorite": false,
      "lat": 46.2015149,
      "lng": 6.1401451,
      "maps_url": "https://maps.google.com/?cid=5155606543400744967",
      "cid": "5155606543400744967",
      "google_id": "/g/1232ncwr3",
      "maps_place_token": null
    },
    {
      "name": "Plaine de Plainpalais",
      "address": "Geneva, Switzerland",
      "note": null,
      "is_favorite": false,
      "lat": 46.1983927,
      "lng": 6.1405446999999995,
      "maps_url": "https://maps.google.com/?cid=5155630729961086573",
      "cid": "5155630729961086573",
      "google_id": "/g/1td41d5d",
      "maps_place_token": null
    },
    {
      "name": "St Pierre Cathedral",
      "address": "Cr de Saint-Pierre, 1204 Genève, Switzerland",
      "note": null,
      "is_favorite": false,
      "lat": 46.201126699999996,
      "lng": 6.1485159,
      "maps_url": "https://maps.google.com/?cid=5155606913976939917",
      "cid": "5155606913976939917",
      "google_id": null,
      "maps_place_token": null
    },
    {
      "name": "The Geneva Water Fountain",
      "address": "Quai Gustave-Ador, 1207 Genève, Switzerland",
      "note": null,
      "is_favorite": false,
      "lat": 46.2073889,
      "lng": 6.1559028,
      "maps_url": "https://maps.google.com/?cid=5155606974863869893",
      "cid": "5155606974863869893",
      "google_id": null,
      "maps_place_token": null
    }
  ]
}
