{
  "fetched_at": "2026-04-15T15:16:08.714305+00:00",
  "refresh_after": "2026-04-29T15:16:08.714305+00:00",
  "source_signature": "4f76f51ce949c06041d004c0a200a5ca858bb3bbef229f266d477583d9c8cef0",
  "configured_source_type": "google_list_url",
  "configured_source_url": "https://maps.app.goo.gl/cKeV5GXhmTNfvo9y8",
  "configured_source_path": null,
  "source_url": "https://maps.app.goo.gl/cKeV5GXhmTNfvo9y8",
  "list_id": "KLOPltwP3UO12H9PWmf9Yh6Mzo1XFg",
  "title": "Guadalajara, Mexico 🇲🇽",
  "description": "Michael's list for Guadalajara, Mexico 🇲🇽 See https://beacons.ai/demflyers for more.",
  "places": [
    {
      "name": "Galgo Speakeasy Bar",
      "address": "Av Pablo Neruda 3055, Providencia 4a. Secc, 44639 Guadalajara, Jal., Mexico",
      "note": null,
      "is_favorite": false,
      "lat": 20.6974083,
      "lng": -103.3879829,
      "maps_url": "https://maps.google.com/?cid=5690888502792428441",
      "cid": "5690888502792428441",
      "google_id": "/g/11g8ksqkt9",
      "maps_place_token": null
    },
    {
      "name": "Cantaritos el Güero #1",
      "address": "Carretera internacional libre Guadalajara - Tepic km 49 #4970, La Meza, 45380 Amatitán, Jal., Mexico",
      "note": null,
      "is_favorite": false,
      "lat": 20.8559228,
      "lng": -103.7641907,
      "maps_url": "https://maps.google.com/?cid=7552716555786573759",
      "cid": "7552716555786573759",
      "google_id": "/g/11c6rjhny0",
      "maps_place_token": null
    },
    {
      "name": "Pare de Sufrir Mezcalería",
      "address": "Calle Argentina 66, Col Americana, Americana, 44200 Guadalajara, Jal., Mexico",
      "note": null,
      "is_favorite": false,
      "lat": 20.6752605,
      "lng": -103.3614451,
      "maps_url": "https://maps.google.com/?q=20.6752605,-103.3614451",
      "cid": null,
      "google_id": "/g/1tjrq8yr",
      "maps_place_token": null
    },
    {
      "name": "La Docena Andares",
      "address": "Blvrd Puerta de Hierro 4659, Puerta de Hierro, 45116 Zapopan, Jal., Mexico",
      "note": null,
      "is_favorite": false,
      "lat": 20.7094161,
      "lng": -103.41265539999999,
      "maps_url": "https://maps.google.com/?q=20.7094161,-103.4126554",
      "cid": null,
      "google_id": "/g/1q2w5tcks",
      "maps_place_token": null
    },
    {
      "name": "La Docena",
      "address": "São Paulo 1491, Providencia, 44630 Guadalajara, Jal., Mexico",
      "note": null,
      "is_favorite": false,
      "lat": 20.7015527,
      "lng": -103.3759639,
      "maps_url": "https://maps.google.com/?q=20.7015527,-103.3759639",
      "cid": null,
      "google_id": "/g/11fklcf1s6",
      "maps_place_token": null
    },
    {
      "name": "De La O Cantina",
      "address": "Calle Argentina 70, Col Americana, Americana, 44200 Guadalajara, Jal., Mexico",
      "note": null,
      "is_favorite": false,
      "lat": 20.6751906,
      "lng": -103.3614455,
      "maps_url": "https://maps.google.com/?q=20.6751906,-103.3614455",
      "cid": null,
      "google_id": "/g/11f2gsl652",
      "maps_place_token": null
    },
    {
      "name": "Segundo Piso Music",
      "address": "C. Pedro Moreno 947, Col Americana, Americana, 44200 Guadalajara, Jal., Mexico",
      "note": null,
      "is_favorite": false,
      "lat": 20.675558,
      "lng": -103.3583737,
      "maps_url": "https://maps.google.com/?q=20.6755580,-103.3583737",
      "cid": null,
      "google_id": "/g/11gr60brtk",
      "maps_place_token": null
    },
    {
      "name": "Barra Matilde Mi Amor",
      "address": "terraza del tercer piso, C. Colonias 221, Col Americana, Americana, 44160 Guadalajara, Jal., Mexico",
      "note": null,
      "is_favorite": false,
      "lat": 20.6726872,
      "lng": -103.3659156,
      "maps_url": "https://maps.google.com/?cid=4209351161955186853",
      "cid": "4209351161955186853",
      "google_id": "/g/11j2zdz9kv",
      "maps_place_token": null
    },
    {
      "name": "Old Peter",
      "address": "C. Pedro Moreno 1395, Col Americana, Americana, 44160 Guadalajara, Jal., Mexico",
      "note": null,
      "is_favorite": false,
      "lat": 20.6752386,
      "lng": -103.3660129,
      "maps_url": "https://maps.google.com/?cid=3319493040424605867",
      "cid": "3319493040424605867",
      "google_id": "/g/11hzsx5bdc",
      "maps_place_token": null
    },
    {
      "name": "Pigalle",
      "address": "C. Emeterio Robles Gil 137, Col Americana, Americana, 44160 Guadalajara, Jal., Mexico",
      "note": null,
      "is_favorite": false,
      "lat": 20.6742196,
      "lng": -103.3622451,
      "maps_url": "https://maps.google.com/?cid=795640580556417807",
      "cid": "795640580556417807",
      "google_id": "/g/11b8y6xvb7",
      "maps_place_token": null
    },
    {
      "name": "PIMP",
      "address": "C. Manuel López Cotilla 1498-A, Col Americana, Lafayette, 44150 Guadalajara, Jal., Mexico",
      "note": null,
      "is_favorite": false,
      "lat": 20.6739317,
      "lng": -103.36962679999999,
      "maps_url": "https://maps.google.com/?q=20.6739317,-103.3696268",
      "cid": null,
      "google_id": "/g/11fr_vghr5",
      "maps_place_token": null
    },
    {
      "name": "El Maltés",
      "address": "Av. Tepeyac 1161, Chapalita, 45046 Guadalajara, Jal., Mexico",
      "note": null,
      "is_favorite": false,
      "lat": 20.6617225,
      "lng": -103.4053733,
      "maps_url": "https://maps.google.com/?cid=8930856705002329985",
      "cid": "8930856705002329985",
      "google_id": "/g/11c30w9yxd",
      "maps_place_token": null
    },
    {
      "name": "Fat Charlie",
      "address": "C. Manuel López Cotilla 1940, Col Americana, Lafayette, 44140 Guadalajara, Jal., Mexico",
      "note": null,
      "is_favorite": false,
      "lat": 20.6736425,
      "lng": -103.37693879999999,
      "maps_url": "https://maps.google.com/?cid=1381384866839994637",
      "cid": "1381384866839994637",
      "google_id": "/g/11c53bs9st",
      "maps_place_token": null
    },
    {
      "name": "Oliveria Cocktail Bar",
      "address": "Libertad 1852, Col Americana, Americana, 44160 Guadalajara, Jal., Mexico",
      "note": null,
      "is_favorite": false,
      "lat": 20.6732694,
      "lng": -103.3652317,
      "maps_url": "https://maps.google.com/?q=20.6732694,-103.3652317",
      "cid": null,
      "google_id": "/g/11b_020_6q",
      "maps_place_token": null
    },
    {
      "name": "Karne Garibaldi Plaza Del Sol",
      "address": "Av. Mariano Otero 3019, La Giralda, 45088 Zapopan, Jal., Mexico",
      "note": null,
      "is_favorite": false,
      "lat": 20.6477173,
      "lng": -103.4033718,
      "maps_url": "https://maps.google.com/?cid=1171725161935340747",
      "cid": "1171725161935340747",
      "google_id": "/g/1td4dwdp",
      "maps_place_token": null
    },
    {
      "name": "Los Alteños",
      "address": "Av. Tepeyac, Chapalita Sur, 45040 Zapopan, Jal., Mexico",
      "note": null,
      "is_favorite": false,
      "lat": 20.6615732,
      "lng": -103.4061162,
      "maps_url": "https://maps.google.com/?cid=7639925139882876405",
      "cid": "7639925139882876405",
      "google_id": "/g/1hc5wr5m0",
      "maps_place_token": null
    },
    {
      "name": "Carnes Asadas Pipiolo - Mariano Otero",
      "address": "Av. Mariano Otero 1606, Rinconada del Sol, 45055 Zapopan, Jal., Mexico",
      "note": null,
      "is_favorite": false,
      "lat": 20.6520515,
      "lng": -103.39734039999999,
      "maps_url": "https://maps.google.com/?cid=2070532613747992662",
      "cid": "2070532613747992662",
      "google_id": "/g/1v1kq598",
      "maps_place_token": null
    },
    {
      "name": "La Molienda de Café",
      "address": "Av. Lapizlázuli 3159, Victoria, 45030 Zapopan, Jal., Mexico",
      "note": null,
      "is_favorite": false,
      "lat": 20.643774999999998,
      "lng": -103.40148289999999,
      "maps_url": "https://maps.google.com/?cid=2751905718343315172",
      "cid": "2751905718343315172",
      "google_id": "/g/1w346y7x",
      "maps_place_token": null
    },
    {
      "name": "Tacos Providencia",
      "address": "Av. Rubén Darío 534, Lomas de Guevara, 44657 Guadalajara, Jal., Mexico",
      "note": null,
      "is_favorite": false,
      "lat": 20.6853032,
      "lng": -103.3850836,
      "maps_url": "https://maps.google.com/?cid=415678300193970379",
      "cid": "415678300193970379",
      "google_id": "/g/1tfzs72s",
      "maps_place_token": null
    },
    {
      "name": "Mariscos El Memin",
      "address": "Av Paseo de la Arboleda 1300, Rinconada del Bosque, 44530 Guadalajara, Jal., Mexico",
      "note": null,
      "is_favorite": false,
      "lat": 20.6545113,
      "lng": -103.3862413,
      "maps_url": "https://maps.google.com/?cid=6520380154697122288",
      "cid": "6520380154697122288",
      "google_id": "/g/11bx1q07dm",
      "maps_place_token": null
    },
    {
      "name": "Restaurante Alcalde",
      "address": "Av. México 2903, Vallarta Nte., 44690 Guadalajara, Jal., Mexico",
      "note": null,
      "is_favorite": false,
      "lat": 20.6793726,
      "lng": -103.3897963,
      "maps_url": "https://maps.google.com/?q=20.6793726,-103.3897963",
      "cid": null,
      "google_id": "/g/1hhxql9x9",
      "maps_place_token": null
    },
    {
      "name": "Santo Coyote",
      "address": "C. Miguel Lerdo de Tejada 2379, Col Americana, Arcos, 44150 Guadalajara, Jal., Mexico",
      "note": null,
      "is_favorite": false,
      "lat": 20.670602799999998,
      "lng": -103.37702709999999,
      "maps_url": "https://maps.google.com/?cid=1961108483776832608",
      "cid": "1961108483776832608",
      "google_id": "/g/11_pnqhh_",
      "maps_place_token": null
    },
    {
      "name": "Los Arcos",
      "address": "Calz. Lázaro Cárdenas 3549, Jardín de San Ignacio, 45040 Zapopan, Jal., Mexico",
      "note": null,
      "is_favorite": false,
      "lat": 20.6701682,
      "lng": -103.4047195,
      "maps_url": "https://maps.google.com/?q=20.6701682,-103.4047195",
      "cid": null,
      "google_id": "/g/1tflgk20",
      "maps_place_token": null
    },
    {
      "name": "Restaurante Save Av. Guadalupe",
      "address": "Av Guadalupe 721, Chapalita, 44500 Guadalajara, Jal., Mexico",
      "note": null,
      "is_favorite": false,
      "lat": 20.666119,
      "lng": -103.39970369999999,
      "maps_url": "https://maps.google.com/?q=20.6661190,-103.3997037",
      "cid": null,
      "google_id": "/g/1td0t60l",
      "maps_place_token": null
    },
    {
      "name": "Cabanna Restaurant",
      "address": "Av. México 2972, Juan Manuel, 44680 Guadalajara, Jal., Mexico",
      "note": null,
      "is_favorite": false,
      "lat": 20.679875199999998,
      "lng": -103.3907811,
      "maps_url": "https://maps.google.com/?cid=5666451308038580330",
      "cid": "5666451308038580330",
      "google_id": "/g/11b6xkdw1q",
      "maps_place_token": null
    },
    {
      "name": "Toks Restaurant",
      "address": "Av. Adolfo López Mateos Sur 93, Los, Arcos Vallarta, 44960 Guadalajara, Jal., Mexico",
      "note": null,
      "is_favorite": false,
      "lat": 20.673621699999998,
      "lng": -103.3876193,
      "maps_url": "https://maps.google.com/?q=20.6736217,-103.3876193",
      "cid": null,
      "google_id": "/g/1v_0k1vt",
      "maps_place_token": null
    },
    {
      "name": "Nuestros Dulces",
      "address": "C. Juárez 154 A, Centro, 45500 San Pedro Tlaquepaque, Jal., Mexico",
      "note": null,
      "is_favorite": false,
      "lat": 20.6385252,
      "lng": -103.3127147,
      "maps_url": "https://maps.google.com/?cid=6564829313896832042",
      "cid": "6564829313896832042",
      "google_id": "/g/1tjl66v7",
      "maps_place_token": null
    },
    {
      "name": "Jardín Hidalgo",
      "address": "Guillermo Prieto S/N, Centro, 45500 San Pedro Tlaquepaque, Jal., Mexico",
      "note": null,
      "is_favorite": false,
      "lat": 20.6395543,
      "lng": -103.3118399,
      "maps_url": "https://maps.google.com/?cid=1363113219014800866",
      "cid": "1363113219014800866",
      "google_id": "/g/1hc7wtnvb",
      "maps_place_token": null
    },
    {
      "name": "Our Lady of Solitude Sanctuary",
      "address": "C. Morelos #191, Centro, 45500 San Pedro Tlaquepaque, Jal., Mexico",
      "note": null,
      "is_favorite": false,
      "lat": 20.6396937,
      "lng": -103.31250399999999,
      "maps_url": "https://maps.google.com/?cid=8217527492283266588",
      "cid": "8217527492283266588",
      "google_id": "/g/1thcn2gj",
      "maps_place_token": null
    },
    {
      "name": "Centro Cultural El Refugio",
      "address": "C. Donato Guerra 160, San Juan, 45500 San Pedro Tlaquepaque, Jal., Mexico",
      "note": null,
      "is_favorite": false,
      "lat": 20.641918699999998,
      "lng": -103.3128859,
      "maps_url": "https://maps.google.com/?cid=5891301887597284237",
      "cid": "5891301887597284237",
      "google_id": "/g/1tczf6gp",
      "maps_place_token": null
    },
    {
      "name": "El Parián de Tlaquepaque",
      "address": "C. Juárez 68, Centro, 45500 San Pedro Tlaquepaque, Jal., Mexico",
      "note": null,
      "is_favorite": false,
      "lat": 20.6388349,
      "lng": -103.3110439,
      "maps_url": "https://maps.google.com/?q=20.6388349,-103.3110439",
      "cid": null,
      "google_id": "/g/11b5v5p8bn",
      "maps_place_token": null
    },
    {
      "name": "Museo Regional de la Ceramica, Tlaquepaque",
      "address": "Calle Independencia 237, Centro, 45500 San Pedro Tlaquepaque, Jal., Mexico",
      "note": null,
      "is_favorite": false,
      "lat": 20.6390948,
      "lng": -103.31470019999999,
      "maps_url": "https://maps.google.com/?cid=1526074371464808849",
      "cid": "1526074371464808849",
      "google_id": null,
      "maps_place_token": null
    },
    {
      "name": "Tlaquepulque",
      "address": "Calle Independencia 336, Centro, 45500 San Pedro Tlaquepaque, Jal., Mexico",
      "note": null,
      "is_favorite": false,
      "lat": 20.6394691,
      "lng": -103.3162231,
      "maps_url": "https://maps.google.com/?q=20.6394691,-103.3162231",
      "cid": null,
      "google_id": "/g/1td13lj9",
      "maps_place_token": null
    },
    {
      "name": "Municipal Market No. 05 Mexicaltzingo",
      "address": "C. Nicolás Régules 63, Mexicaltzingo, 44180 Guadalajara, Jal., Mexico",
      "note": null,
      "is_favorite": false,
      "lat": 20.6661379,
      "lng": -103.35030569999999,
      "maps_url": "https://maps.google.com/?q=20.6661379,-103.3503057",
      "cid": null,
      "google_id": "/g/1ptxstj3_",
      "maps_place_token": null
    },
    {
      "name": "Los Dos Templos",
      "address": "Av. 16 de Septiembre & Calz. Revolución, Zona Centro, 44100 Guadalajara, Jal., Mexico",
      "note": null,
      "is_favorite": false,
      "lat": 20.671973899999998,
      "lng": -103.3472266,
      "maps_url": "https://maps.google.com/?cid=515799420475801362",
      "cid": "515799420475801362",
      "google_id": "/g/11c70j847c",
      "maps_place_token": null
    },
    {
      "name": "Minerva Roundabout",
      "address": "Av. Ignacio L Vallarta, Vallarta, 44110 Guadalajara, Jal., Mexico",
      "note": null,
      "is_favorite": false,
      "lat": 20.6743943,
      "lng": -103.38741279999999,
      "maps_url": "https://maps.google.com/?cid=24303136085402126",
      "cid": "24303136085402126",
      "google_id": "/g/12302gn1",
      "maps_place_token": null
    },
    {
      "name": "Tortas ahogadas Mr paco's",
      "address": "C. Joaquin Angulo 1452, Villaseñor, 44600 Guadalajara, Jal., Mexico",
      "note": null,
      "is_favorite": false,
      "lat": 20.682273199999997,
      "lng": -103.3683169,
      "maps_url": "https://maps.google.com/?cid=567456930637635329",
      "cid": "567456930637635329",
      "google_id": "/g/1tctxwhn",
      "maps_place_token": null
    },
    {
      "name": "Tortas Ahogadas Don José",
      "address": "C. Mexicaltzingo 27, Mexicaltzingo, 44180 Guadalajara, Jal., Mexico",
      "note": null,
      "is_favorite": false,
      "lat": 20.6652842,
      "lng": -103.3479514,
      "maps_url": "https://maps.google.com/?q=20.6652842,-103.3479514",
      "cid": null,
      "google_id": "/g/11b7d_1_91",
      "maps_place_token": null
    },
    {
      "name": "Michael's list for Guadalajara, Mexico 🇲🇽 See https://beacons.ai/demflyers for more.",
      "address": "Plaza de Artesanías",
      "note": null,
      "is_favorite": false,
      "lat": 20.638374199999998,
      "lng": -103.3123739,
      "maps_url": "https://maps.google.com/?cid=104356373423434804635",
      "cid": "104356373423434804635",
      "google_id": null,
      "maps_place_token": null
    },
    {
      "name": "Mercado corona",
      "address": null,
      "note": null,
      "is_favorite": false,
      "lat": 20.6779072,
      "lng": -103.3494025,
      "maps_url": "https://maps.google.com/?cid=2325870591583510212",
      "cid": "2325870591583510212",
      "google_id": null,
      "maps_place_token": null
    },
    {
      "name": "Plaza de los Mariachis",
      "address": null,
      "note": null,
      "is_favorite": false,
      "lat": 20.674990599999997,
      "lng": -103.3414944,
      "maps_url": "https://maps.google.com/?cid=7474482529912562755",
      "cid": "7474482529912562755",
      "google_id": null,
      "maps_place_token": null
    },
    {
      "name": "Birriería las 9 Esquinas",
      "address": null,
      "note": null,
      "is_favorite": false,
      "lat": 20.6706857,
      "lng": -103.348513,
      "maps_url": "https://maps.google.com/?cid=4983814259269220271",
      "cid": "4983814259269220271",
      "google_id": null,
      "maps_place_token": null
    },
    {
      "name": "Lake Chapala",
      "address": null,
      "note": null,
      "is_favorite": false,
      "lat": 20.247324499999998,
      "lng": -103.0126523,
      "maps_url": "https://maps.google.com/?cid=1898400166529681544",
      "cid": "1898400166529681544",
      "google_id": null,
      "maps_place_token": null
    },
    {
      "name": "Akron Stadium",
      "address": null,
      "note": null,
      "is_favorite": false,
      "lat": 20.6817764,
      "lng": -103.4626455,
      "maps_url": "https://maps.google.com/?cid=5957432961412721544",
      "cid": "5957432961412721544",
      "google_id": null,
      "maps_place_token": null
    },
    {
      "name": "Guachimontones",
      "address": "Jalisco, Mexico",
      "note": null,
      "is_favorite": false,
      "lat": 20.6996708,
      "lng": -103.8372483,
      "maps_url": "https://maps.google.com/?q=20.6996708,-103.8372483",
      "cid": null,
      "google_id": null,
      "maps_place_token": null
    },
    {
      "name": "Teatro Degollado",
      "address": null,
      "note": null,
      "is_favorite": false,
      "lat": 20.6769963,
      "lng": -103.34477,
      "maps_url": "https://maps.google.com/?cid=214354815553067850",
      "cid": "214354815553067850",
      "google_id": null,
      "maps_place_token": null
    },
    {
      "name": "Expo Guadalajara",
      "address": null,
      "note": null,
      "is_favorite": false,
      "lat": 20.6529143,
      "lng": -103.39176409999999,
      "maps_url": "https://maps.google.com/?cid=3390652706947284534",
      "cid": "3390652706947284534",
      "google_id": null,
      "maps_place_token": null
    },
    {
      "name": "State of Jalisco Government Building",
      "address": null,
      "note": null,
      "is_favorite": false,
      "lat": 20.676096599999997,
      "lng": -103.3465039,
      "maps_url": "https://maps.google.com/?cid=618268980228986493",
      "cid": "618268980228986493",
      "google_id": null,
      "maps_place_token": null
    },
    {
      "name": "Hospicio Cabañas",
      "address": null,
      "note": null,
      "is_favorite": false,
      "lat": 20.676557499999998,
      "lng": -103.3382462,
      "maps_url": "https://maps.google.com/?cid=5197980866120828450",
      "cid": "5197980866120828450",
      "google_id": null,
      "maps_place_token": null
    },
    {
      "name": "Guadalajara Cathedral",
      "address": null,
      "note": null,
      "is_favorite": false,
      "lat": 20.677034,
      "lng": -103.34698399999999,
      "maps_url": "https://maps.google.com/?cid=2728252070687697178",
      "cid": "2728252070687697178",
      "google_id": null,
      "maps_place_token": null
    },
    {
      "name": "FOREST THE COLOMOS",
      "address": null,
      "note": null,
      "is_favorite": false,
      "lat": 20.7100686,
      "lng": -103.3932047,
      "maps_url": "https://maps.google.com/?cid=7447379587739497157",
      "cid": "7447379587739497157",
      "google_id": null,
      "maps_place_token": null
    },
    {
      "name": "Teté Cocina De Barrio",
      "address": "C. Miguel Blanco 1618, Col Americana, Americana, 44160 Guadalajara, Jal., Mexico",
      "note": null,
      "is_favorite": false,
      "lat": 20.664653599999998,
      "lng": -103.3580509,
      "maps_url": "https://maps.google.com/?q=20.6646536,-103.3580509",
      "cid": null,
      "google_id": "/g/11b8zm72l8",
      "maps_place_token": null
    },
    {
      "name": "Postrería Gdl",
      "address": "Libertad 1780, Col Americana, Americana, 44160 Guadalajara, Jal., Mexico",
      "note": null,
      "is_favorite": false,
      "lat": 20.6727547,
      "lng": -103.3639773,
      "maps_url": "https://maps.google.com/?cid=2833223552123211598",
      "cid": "2833223552123211598",
      "google_id": "/g/1pt_16q5w",
      "maps_place_token": null
    },
    {
      "name": "Restaurante Allium",
      "address": "Av Providencia 2411-Local 106, Providencia, 44630 Guadalajara, Jal., Mexico",
      "note": null,
      "is_favorite": false,
      "lat": 20.7027193,
      "lng": -103.377667,
      "maps_url": "https://maps.google.com/?cid=4619628602476738208",
      "cid": "4619628602476738208",
      "google_id": "/g/11b75hq2s0",
      "maps_place_token": null
    },
    {
      "name": "Xokol",
      "address": "C. Ignacio Herrera y Cairo 1375, Santa Teresita, 44600 Guadalajara, Jal., Mexico",
      "note": null,
      "is_favorite": false,
      "lat": 20.682983399999998,
      "lng": -103.36519779999999,
      "maps_url": "https://maps.google.com/?cid=9116458302588674902",
      "cid": "9116458302588674902",
      "google_id": "/g/11fgglt68m",
      "maps_place_token": null
    },
    {
      "name": "La Chata de Guadalajara",
      "address": "Av. Ramón Corona 126, Zona Centro, 44100 Guadalajara, Jal., Mexico",
      "note": null,
      "is_favorite": false,
      "lat": 20.6746934,
      "lng": -103.3466531,
      "maps_url": "https://maps.google.com/?cid=7852885374401021280",
      "cid": "7852885374401021280",
      "google_id": "/g/1tdqbx44",
      "maps_place_token": null
    },
    {
      "name": "El Sacromonte",
      "address": "C. Pedro Moreno 1398, Col Americana, Americana, 44600 Guadalajara, Jal., Mexico",
      "note": null,
      "is_favorite": false,
      "lat": 20.6757368,
      "lng": -103.3660848,
      "maps_url": "https://maps.google.com/?cid=5720457270156319484",
      "cid": "5720457270156319484",
      "google_id": null,
      "maps_place_token": null
    },
    {
      "name": "Hueso Restaurante",
      "address": "Calle Efraín González Luna 2061, Col Americana, Obrera, 44150 Guadalajara, Jal., Mexico",
      "note": null,
      "is_favorite": false,
      "lat": 20.6695522,
      "lng": -103.36976159999999,
      "maps_url": "https://maps.google.com/?cid=8613036692919940308",
      "cid": "8613036692919940308",
      "google_id": "/g/11b69g5tpl",
      "maps_place_token": null
    },
    {
      "name": "Bruna",
      "address": "C. Miguel Lerdo de Tejada 2418, Lafayette, 44150 Guadalajara, Jal., Mexico",
      "note": null,
      "is_favorite": false,
      "lat": 20.6709095,
      "lng": -103.3779623,
      "maps_url": "https://maps.google.com/?cid=1544261387252791778",
      "cid": "1544261387252791778",
      "google_id": "/g/11c3wrm0xt",
      "maps_place_token": null
    },
    {
      "name": "El Gallo Altanero",
      "address": "Calle Marsella 126, Col Americana, Lafayette, 44160 Guadalajara, Jal., Mexico",
      "note": null,
      "is_favorite": false,
      "lat": 20.674062,
      "lng": -103.37073,
      "maps_url": "https://maps.google.com/?cid=2999420009913668542",
      "cid": "2999420009913668542",
      "google_id": "/g/11gf5npf5p",
      "maps_place_token": null
    }
  ]
}
