{
  "fetched_at": "2026-04-15T15:23:07.291023+00:00",
  "refresh_after": "2026-04-29T15:23:07.291023+00:00",
  "source_signature": "6e7e331355e2ec4d49de82928edc95297fe8d09d44b8112bab6f18912fc34f83",
  "configured_source_type": "google_list_url",
  "configured_source_url": "https://maps.app.goo.gl/kFhPT3qS9gfzoCCL6",
  "configured_source_path": null,
  "source_url": "https://maps.app.goo.gl/kFhPT3qS9gfzoCCL6",
  "list_id": "pslB6bWA84fTm0O9gWESrLkBYxADRw",
  "title": "Hakodate, Japan 🇯🇵",
  "description": "Michael's list for Hakodate, Japan 🇯🇵 See https://beacons.ai/demflyers for more.",
  "places": [
    {
      "name": "Kira",
      "address": "Japan, 〒040-0045 Hokkaido, Hakodate, Sumiyoshicho, 17−1 割烹煌",
      "note": null,
      "is_favorite": false,
      "lat": 41.747705499999995,
      "lng": 140.7163398,
      "maps_url": "https://maps.google.com/?cid=6890211552051443797",
      "cid": "6890211552051443797",
      "google_id": "/g/1tdw_ch9",
      "maps_place_token": null
    },
    {
      "name": "鮨処 木はら Sushi-Dokoro Kihara",
      "address": "2 Chome-1-2 Yunokawacho, Hakodate, Hokkaido 042-0932, Japan",
      "note": null,
      "is_favorite": false,
      "lat": 41.7748086,
      "lng": 140.7877086,
      "maps_url": "https://maps.google.com/?cid=6890213406876901525",
      "cid": "6890213406876901525",
      "google_id": "/g/1vc81n2z",
      "maps_place_token": null
    },
    {
      "name": "Umeno Sushi",
      "address": "1-19号 Kashiwagicho, Hakodate, Hokkaido 042-0942, Japan",
      "note": null,
      "is_favorite": false,
      "lat": 41.7865739,
      "lng": 140.76376729999998,
      "maps_url": "https://maps.google.com/?cid=6890213186050539073",
      "cid": "6890213186050539073",
      "google_id": "/g/1wk4cx95",
      "maps_place_token": null
    },
    {
      "name": "L'oiseau par Matsunaga",
      "address": "4-5 Kashiwagicho, Hakodate, Hokkaido 042-0942, Japan",
      "note": null,
      "is_favorite": false,
      "lat": 41.790985,
      "lng": 140.7644865,
      "maps_url": "https://maps.google.com/?cid=6890213201203730289",
      "cid": "6890213201203730289",
      "google_id": "/g/1pzwy9345",
      "maps_place_token": null
    },
    {
      "name": "Goryōkaku Tower",
      "address": "43-9 Goryokakucho, Hakodate, Hokkaido 040-0001, Japan",
      "note": null,
      "is_favorite": false,
      "lat": 41.794669899999995,
      "lng": 140.75402,
      "maps_url": "https://maps.google.com/?cid=6890213223362727603",
      "cid": "6890213223362727603",
      "google_id": "/g/120kngn6",
      "maps_place_token": null
    },
    {
      "name": "Bari bari SARAN",
      "address": "10-7 Honcho, Hakodate, Hokkaido 040-0011, Japan",
      "note": null,
      "is_favorite": false,
      "lat": 41.7910307,
      "lng": 140.75007209999998,
      "maps_url": "https://maps.google.com/?cid=6890213249173667131",
      "cid": "6890213249173667131",
      "google_id": "/g/1tftl12_",
      "maps_place_token": null
    },
    {
      "name": "Hakodate Ramen Kamomë",
      "address": "8-8 Wakamatsucho, Hakodate, Hokkaido 040-0063, Japan",
      "note": null,
      "is_favorite": false,
      "lat": 41.7720699,
      "lng": 140.7257292,
      "maps_url": "https://maps.google.com/?cid=6890212356001235933",
      "cid": "6890212356001235933",
      "google_id": "/g/1vzv3hk6",
      "maps_place_token": null
    },
    {
      "name": "Bar Mojito",
      "address": "18-22 Wakamatsucho, Hakodate, Hokkaido 040-0063, Japan",
      "note": null,
      "is_favorite": false,
      "lat": 41.7726624,
      "lng": 140.7298111,
      "maps_url": "https://maps.google.com/?cid=6890212344232898077",
      "cid": "6890212344232898077",
      "google_id": "/g/1tplkksz",
      "maps_place_token": null
    },
    {
      "name": "Jiyouken",
      "address": "7-12 Matsukazecho, Hakodate, Hokkaido 040-0035, Japan",
      "note": null,
      "is_favorite": false,
      "lat": 41.773108199999996,
      "lng": 140.73084799999998,
      "maps_url": "https://maps.google.com/?cid=6890212344066720265",
      "cid": "6890212344066720265",
      "google_id": "/g/1tdp9g44",
      "maps_place_token": null
    },
    {
      "name": "Gyosanko",
      "address": "19-3 Wakamatsucho, Hakodate, Hokkaido 040-0063, Japan",
      "note": null,
      "is_favorite": false,
      "lat": 41.772515399999996,
      "lng": 140.72913269999998,
      "maps_url": "https://maps.google.com/?cid=6890212344450318335",
      "cid": "6890212344450318335",
      "google_id": "/g/12hk5cm9g",
      "maps_place_token": null
    },
    {
      "name": "Yamasan Michishita Shouten",
      "address": "Japan, 〒040-0063 Hokkaido, Hakodate, Wakamatsucho, 9−15 内 函館朝市どんぶり横丁",
      "note": null,
      "is_favorite": false,
      "lat": 41.7726487,
      "lng": 140.7257955,
      "maps_url": "https://maps.google.com/?cid=6890212357009320737",
      "cid": "6890212357009320737",
      "google_id": "/g/1tjbr_mx",
      "maps_place_token": null
    },
    {
      "name": "Lucky Pierrot Hakodate Ekimae branch",
      "address": "Japan, 〒040-0063 Hokkaido, Hakodate, Wakamatsucho, 8−8 ２階",
      "note": null,
      "is_favorite": false,
      "lat": 41.7717666,
      "lng": 140.7255401,
      "maps_url": "https://maps.google.com/?cid=6890212344148787199",
      "cid": "6890212344148787199",
      "google_id": "/g/11fpgqfx3r",
      "maps_place_token": null
    },
    {
      "name": "唐草館",
      "address": "21-23 Aoyagicho, Hakodate, Hokkaido 040-0044, Japan",
      "note": null,
      "is_favorite": false,
      "lat": 41.7567649,
      "lng": 140.71772529999998,
      "maps_url": "https://maps.google.com/?cid=6890211674034967275",
      "cid": "6890211674034967275",
      "google_id": "/g/1tdw39m7",
      "maps_place_token": null
    },
    {
      "name": "Casa de Norte",
      "address": "Japan, 〒040-0065 Hokkaido, Hakodate, Toyokawacho, 12−6 1F",
      "note": null,
      "is_favorite": false,
      "lat": 41.7677908,
      "lng": 140.71895329999998,
      "maps_url": "https://maps.google.com/?cid=6890212381408616507",
      "cid": "6890212381408616507",
      "google_id": "/g/1tj4yk2h",
      "maps_place_token": null
    },
    {
      "name": "うに むらかみ 函館本店",
      "address": "日本、〒040-0064 北海道函館市大手町２２−１",
      "note": null,
      "is_favorite": false,
      "lat": 41.771901299999996,
      "lng": 140.7243531,
      "maps_url": "https://maps.google.com/?cid=6890212355120924717",
      "cid": "6890212355120924717",
      "google_id": "/g/1tgh7dcl",
      "maps_place_token": null
    }
  ]
}
