{
  "fetched_at": "2026-04-20T16:02:08.051396+00:00",
  "refresh_after": "2026-05-04T01:17:50.051396+00:00",
  "source_signature": "74a0306451b54acd83459a4babe72394ea23e1a895c8c9091541cce105d5b29b",
  "configured_source_type": "google_list_url",
  "configured_source_url": "https://maps.app.goo.gl/WHTVv1f2rssaBWQ98",
  "configured_source_path": null,
  "source_url": "https://maps.app.goo.gl/WHTVv1f2rssaBWQ98",
  "list_id": "mENm-ajFcC2zdaYLbtBPLNjRYNygQw",
  "title": "Las Vegas, NV, USA 🇺🇲",
  "description": "Michael's Las Vegas, NV, USA 🇺🇲 bookmarks. See https://beacons.ai/demflyers for more.",
  "places": [
    {
      "name": "8oz Korean Steak House and Bar",
      "address": null,
      "note": null,
      "is_favorite": false,
      "lat": 36.1256729,
      "lng": -115.2025972,
      "maps_url": "https://www.google.com/maps/search/?api=1&query=8oz+Korean+Steak+House+and+Bar",
      "cid": "15434200886989390299",
      "google_id": null,
      "maps_place_token": null
    },
    {
      "name": "PITAS",
      "address": null,
      "note": null,
      "is_favorite": false,
      "lat": 36.125915,
      "lng": -115.2117904,
      "maps_url": "https://www.google.com/maps/search/?api=1&query=PITAS",
      "cid": "2280130578127378206",
      "google_id": null,
      "maps_place_token": null
    },
    {
      "name": "Big Dan Shanxi Taste",
      "address": null,
      "note": null,
      "is_favorite": false,
      "lat": 36.1257173,
      "lng": -115.2106237,
      "maps_url": "https://www.google.com/maps/search/?api=1&query=Big+Dan+Shanxi+Taste",
      "cid": "2104130298132126135",
      "google_id": null,
      "maps_place_token": null
    },
    {
      "name": "Lotus of Siam - Flamingo Road",
      "address": "620 E Flamingo Rd, Las Vegas, NV 89119, United States",
      "note": null,
      "is_favorite": false,
      "lat": 36.1150969,
      "lng": -115.1497083,
      "maps_url": "https://www.google.com/maps/search/?api=1&query=Lotus+of+Siam+-+Flamingo+Road%2C+620+E+Flamingo+Rd%2C+Las+Vegas%2C+NV+89119%2C+United+States",
      "cid": "5952133127148270866",
      "google_id": "/g/11mw7qn407",
      "maps_place_token": null
    },
    {
      "name": "Tacos El Gordo",
      "address": "3041 S Las Vegas Blvd, Las Vegas, NV 89109, United States",
      "note": null,
      "is_favorite": false,
      "lat": 36.132143,
      "lng": -115.1645509,
      "maps_url": "https://www.google.com/maps/search/?api=1&query=Tacos+El+Gordo%2C+3041+S+Las+Vegas+Blvd%2C+Las+Vegas%2C+NV+89109%2C+United+States",
      "cid": "16948722555248071967",
      "google_id": "/g/1tfd2p9z",
      "maps_place_token": null
    },
    {
      "name": "Tacos El Gordo",
      "address": "2560 W Sunset Rd, Las Vegas, NV 89119, United States",
      "note": null,
      "is_favorite": false,
      "lat": 36.0713627,
      "lng": -115.1761961,
      "maps_url": "https://www.google.com/maps/search/?api=1&query=Tacos+El+Gordo%2C+2560+W+Sunset+Rd%2C+Las+Vegas%2C+NV+89119%2C+United+States",
      "cid": "13859701165259464262",
      "google_id": "/g/11swptjmst",
      "maps_place_token": null
    },
    {
      "name": "Weera Thai Restaurant",
      "address": "3839 W Sahara Ave STE 9, Las Vegas, NV 89102, United States",
      "note": null,
      "is_favorite": false,
      "lat": 36.143955,
      "lng": -115.193131,
      "maps_url": "https://www.google.com/maps/search/?api=1&query=Weera+Thai+Restaurant%2C+3839+W+Sahara+Ave+STE+9%2C+Las+Vegas%2C+NV+89102%2C+United+States",
      "cid": "5318083852720903351",
      "google_id": "/g/1trxdzys",
      "maps_place_token": null
    },
    {
      "name": "Yard House",
      "address": "3545 S Las Vegas Blvd, Las Vegas, NV 89109, United States",
      "note": null,
      "is_favorite": false,
      "lat": 36.1178004,
      "lng": -115.1688858,
      "maps_url": "https://www.google.com/maps/search/?api=1&query=Yard+House%2C+3545+S+Las+Vegas+Blvd%2C+Las+Vegas%2C+NV+89109%2C+United+States",
      "cid": "7840913356744280736",
      "google_id": "/g/1z3tbt1mc",
      "maps_place_token": null
    },
    {
      "name": "Peppermill Restaurant and Fireside Lounge",
      "address": "2985 Las Vegas Blvd S, Las Vegas, NV 89109, United States",
      "note": null,
      "is_favorite": false,
      "lat": 36.1337633,
      "lng": -115.163224,
      "maps_url": "https://www.google.com/maps/search/?api=1&query=Peppermill+Restaurant+and+Fireside+Lounge%2C+2985+Las+Vegas+Blvd+S%2C+Las+Vegas%2C+NV+89109%2C+United+States",
      "cid": "1654429034065460408",
      "google_id": "/g/11h12my7z",
      "maps_place_token": null
    },
    {
      "name": "Black Bear Diner Las Vegas - S. Las Vegas Blvd",
      "address": "7680 S Las Vegas Blvd, Las Vegas, NV 89123, United States",
      "note": null,
      "is_favorite": false,
      "lat": 36.0505636,
      "lng": -115.1714683,
      "maps_url": "https://www.google.com/maps/search/?api=1&query=Black+Bear+Diner+Las+Vegas+-+S.+Las+Vegas+Blvd%2C+7680+S+Las+Vegas+Blvd%2C+Las+Vegas%2C+NV+89123%2C+United+States",
      "cid": "1362184720153578226",
      "google_id": "/g/11g7y66stv",
      "maps_place_token": null
    },
    {
      "name": "Earl of Sandwich",
      "address": "3667 Las Vegas Blvd S, Las Vegas, NV 89109, United States",
      "note": null,
      "is_favorite": false,
      "lat": 36.109407499999996,
      "lng": -115.17187469999999,
      "maps_url": "https://www.google.com/maps/search/?api=1&query=Earl+of+Sandwich%2C+3667+Las+Vegas+Blvd+S%2C+Las+Vegas%2C+NV+89109%2C+United+States",
      "cid": "16694888136378660233",
      "google_id": "/g/1tzvwvdp",
      "maps_place_token": null
    },
    {
      "name": "Gordon Ramsay Hell's Kitchen",
      "address": "3570 Las Vegas Blvd S, Las Vegas, NV 89109, United States",
      "note": null,
      "is_favorite": false,
      "lat": 36.1157296,
      "lng": -115.17323209999999,
      "maps_url": "https://www.google.com/maps/search/?api=1&query=Gordon+Ramsay+Hell%27s+Kitchen%2C+3570+Las+Vegas+Blvd+S%2C+Las+Vegas%2C+NV+89109%2C+United+States",
      "cid": "8539918260208114251",
      "google_id": "/g/11hbfhg9b8",
      "maps_place_token": null
    },
    {
      "name": "Raku",
      "address": "5030 Spring Mountain Rd, Las Vegas, NV 89146, United States",
      "note": null,
      "is_favorite": false,
      "lat": 36.126968399999996,
      "lng": -115.2099315,
      "maps_url": "https://www.google.com/maps/search/?api=1&query=Raku%2C+5030+Spring+Mountain+Rd%2C+Las+Vegas%2C+NV+89146%2C+United+States",
      "cid": "9264083136494154918",
      "google_id": "/g/1xg5sz3d",
      "maps_place_token": null
    },
    {
      "name": "Kabuto-edomae sushi",
      "address": "5040 W Spring Mountain Rd, Las Vegas, NV 89146, United States",
      "note": null,
      "is_favorite": false,
      "lat": 36.1265346,
      "lng": -115.2098994,
      "maps_url": "https://www.google.com/maps/search/?api=1&query=Kabuto-edomae+sushi%2C+5040+W+Spring+Mountain+Rd%2C+Las+Vegas%2C+NV+89146%2C+United+States",
      "cid": "12719346604592898534",
      "google_id": null,
      "maps_place_token": null
    },
    {
      "name": "Chubby Cattle Hotpot | Las Vegas",
      "address": "3400 S Jones Blvd #15, Las Vegas, NV 89146, United States",
      "note": null,
      "is_favorite": false,
      "lat": 36.126885,
      "lng": -115.22417659999999,
      "maps_url": "https://www.google.com/maps/search/?api=1&query=Chubby+Cattle+Hotpot+%7C+Las+Vegas%2C+3400+S+Jones+Blvd+%2315%2C+Las+Vegas%2C+NV+89146%2C+United+States",
      "cid": "15185911352454021717",
      "google_id": "/g/11c0r2_y71",
      "maps_place_token": null
    },
    {
      "name": "Chubby Cattle BBQ | Las Vegas",
      "address": "4525 Spring Mountain Rd suite 106, Las Vegas, NV 89102, United States",
      "note": null,
      "is_favorite": false,
      "lat": 36.1256258,
      "lng": -115.2017704,
      "maps_url": "https://www.google.com/maps/search/?api=1&query=Chubby+Cattle+BBQ+%7C+Las+Vegas%2C+4525+Spring+Mountain+Rd+suite+106%2C+Las+Vegas%2C+NV+89102%2C+United+States",
      "cid": "16614950833002196714",
      "google_id": "/g/11vkz7byxd",
      "maps_place_token": null
    },
    {
      "name": "The X Pot",
      "address": "The Palazzo at The Venetian Resort, 3327 S Las Vegas Blvd Suite 2884, Las Vegas, NV 89109, United States",
      "note": null,
      "is_favorite": false,
      "lat": 36.1242075,
      "lng": -115.16765579999999,
      "maps_url": "https://www.google.com/maps/search/?api=1&query=The+X+Pot%2C+The+Palazzo+at+The+Venetian+Resort%2C+3327+S+Las+Vegas+Blvd+Suite+2884%2C+Las+Vegas%2C+NV+89109%2C+United+States",
      "cid": "13570023294376597650",
      "google_id": "/g/11fnw0rb5c",
      "maps_place_token": null
    },
    {
      "name": "Omega Mart",
      "address": "3215 S Rancho Dr #100, Las Vegas, NV 89102, United States",
      "note": null,
      "is_favorite": false,
      "lat": 36.1324617,
      "lng": -115.18185229999999,
      "maps_url": "https://www.google.com/maps/search/?api=1&query=Omega+Mart%2C+3215+S+Rancho+Dr+%23100%2C+Las+Vegas%2C+NV+89102%2C+United+States",
      "cid": "1063402217899422698",
      "google_id": "/g/11mr21q7s7",
      "maps_place_token": null
    },
    {
      "name": "The Neon Museum Las Vegas",
      "address": "770 Las Vegas Blvd N, Las Vegas, NV 89101, United States",
      "note": null,
      "is_favorite": false,
      "lat": 36.1769882,
      "lng": -115.1353374,
      "maps_url": "https://www.google.com/maps/search/?api=1&query=The+Neon+Museum+Las+Vegas%2C+770+Las+Vegas+Blvd+N%2C+Las+Vegas%2C+NV+89101%2C+United+States",
      "cid": "15662440221974327191",
      "google_id": null,
      "maps_place_token": null
    },
    {
      "name": "PublicUs",
      "address": "1126 E Fremont St, Las Vegas, NV 89101, United States",
      "note": null,
      "is_favorite": false,
      "lat": 36.1657782,
      "lng": -115.13296199999999,
      "maps_url": "https://www.google.com/maps/search/?api=1&query=PublicUs%2C+1126+E+Fremont+St%2C+Las+Vegas%2C+NV+89101%2C+United+States",
      "cid": "1365349470747652924",
      "google_id": "/g/1jkyq417h",
      "maps_place_token": null
    },
    {
      "name": "Urban Matcha",
      "address": "3400 S Jones Blvd #3, Las Vegas, NV 89146, United States",
      "note": null,
      "is_favorite": false,
      "lat": 36.127978899999995,
      "lng": -115.22466109999999,
      "maps_url": "https://www.google.com/maps/search/?api=1&query=Urban+Matcha%2C+3400+S+Jones+Blvd+%233%2C+Las+Vegas%2C+NV+89146%2C+United+States",
      "cid": "5979384082737396088",
      "google_id": "/g/11hcfrg4f3",
      "maps_place_token": null
    },
    {
      "name": "Gäbi Coffee & Bakery",
      "address": "5808 Spring Mountain Rd #104, Las Vegas, NV 89146, United States",
      "note": null,
      "is_favorite": false,
      "lat": 36.1260036,
      "lng": -115.22180639999999,
      "maps_url": "https://www.google.com/maps/search/?api=1&query=G%C3%A4bi+Coffee+%26+Bakery%2C+5808+Spring+Mountain+Rd+%23104%2C+Las+Vegas%2C+NV+89146%2C+United+States",
      "cid": "16839899833895014497",
      "google_id": "/g/11ggzdkhm6",
      "maps_place_token": null
    },
    {
      "name": "Golden Steer Steakhouse Las Vegas",
      "address": "308 W Sahara Ave, Las Vegas, NV 89102, United States",
      "note": null,
      "is_favorite": false,
      "lat": 36.1441637,
      "lng": -115.16119619999999,
      "maps_url": "https://www.google.com/maps/search/?api=1&query=Golden+Steer+Steakhouse+Las+Vegas%2C+308+W+Sahara+Ave%2C+Las+Vegas%2C+NV+89102%2C+United+States",
      "cid": "17903321302055996701",
      "google_id": "/g/1tzzvsl_",
      "maps_place_token": null
    },
    {
      "name": "Mutao Wellness Spa",
      "address": "5685 Spring Mountain Rd, Las Vegas, NV 89146, United States",
      "note": null,
      "is_favorite": false,
      "lat": 36.1253302,
      "lng": -115.21905819999999,
      "maps_url": "https://www.google.com/maps/search/?api=1&query=Mutao+Wellness+Spa%2C+5685+Spring+Mountain+Rd%2C+Las+Vegas%2C+NV+89146%2C+United+States",
      "cid": "5680823962375988666",
      "google_id": "/g/11gr12cnzx",
      "maps_place_token": null
    },
    {
      "name": "Niu-Gu Noodle House",
      "address": null,
      "note": null,
      "is_favorite": false,
      "lat": 36.128093899999996,
      "lng": -115.1970939,
      "maps_url": "https://www.google.com/maps/search/?api=1&query=Niu-Gu+Noodle+House",
      "cid": "3558656038997305861",
      "google_id": null,
      "maps_place_token": null
    },
    {
      "name": "The Barbershop Cuts & Cocktails",
      "address": "Boulevard Tower, 3708 Las Vegas Blvd S Level 1, Las Vegas, NV 89109, United States",
      "note": null,
      "is_favorite": false,
      "lat": 36.1101872,
      "lng": -115.1734888,
      "maps_url": "https://www.google.com/maps/search/?api=1&query=The+Barbershop+Cuts+%26+Cocktails%2C+Boulevard+Tower%2C+3708+Las+Vegas+Blvd+S+Level+1%2C+Las+Vegas%2C+NV+89109%2C+United+States",
      "cid": "9117750560881125210",
      "google_id": "/g/11h6nfhyyv",
      "maps_place_token": null
    },
    {
      "name": "Topgolf Las Vegas",
      "address": "4627 Koval Ln, Las Vegas, NV 89109, United States",
      "note": null,
      "is_favorite": false,
      "lat": 36.105996,
      "lng": -115.1647223,
      "maps_url": "https://www.google.com/maps/search/?api=1&query=Topgolf+Las+Vegas%2C+4627+Koval+Ln%2C+Las+Vegas%2C+NV+89109%2C+United+States",
      "cid": "3126256572809373647",
      "google_id": "/g/11bxg82h3y",
      "maps_place_token": null
    },
    {
      "name": "Dim Sum Café",
      "address": "3700 S Hualapai Wy, Las Vegas, NV 89147, United States",
      "note": null,
      "is_favorite": false,
      "lat": 36.121652499999996,
      "lng": -115.31447899999999,
      "maps_url": "https://www.google.com/maps/search/?api=1&query=Dim+Sum+Caf%C3%A9%2C+3700+S+Hualapai+Wy%2C+Las+Vegas%2C+NV+89147%2C+United+States",
      "cid": "3330775137936164004",
      "google_id": "/g/1ptznlb_t",
      "maps_place_token": null
    },
    {
      "name": "Savor Coffee",
      "address": "6811 S Eastern Ave #104-D, Las Vegas, NV 89119, United States",
      "note": null,
      "is_favorite": false,
      "lat": 36.0661492,
      "lng": -115.11901619999999,
      "maps_url": "https://www.google.com/maps/search/?api=1&query=Savor+Coffee%2C+6811+S+Eastern+Ave+%23104-D%2C+Las+Vegas%2C+NV+89119%2C+United+States",
      "cid": "8446014055202680885",
      "google_id": "/g/11hkrm7n7g",
      "maps_place_token": null
    },
    {
      "name": "Texas de Brazil - Las Vegas",
      "address": "6533 Las Vegas Blvd S, Las Vegas, NV 89119, United States",
      "note": null,
      "is_favorite": false,
      "lat": 36.070113899999996,
      "lng": -115.1753406,
      "maps_url": "https://www.google.com/maps/search/?api=1&query=Texas+de+Brazil+-+Las+Vegas%2C+6533+Las+Vegas+Blvd+S%2C+Las+Vegas%2C+NV+89119%2C+United+States",
      "cid": "10323487745676900198",
      "google_id": "/g/1th1c_ng",
      "maps_place_token": null
    },
    {
      "name": "Atomic Golf",
      "address": "1850 S Main St, Las Vegas, NV 89104",
      "note": null,
      "is_favorite": false,
      "lat": 36.149346099999995,
      "lng": -115.1548847,
      "maps_url": "https://www.google.com/maps/search/?api=1&query=Atomic+Golf%2C+1850+S+Main+St%2C+Las+Vegas%2C+NV+89104",
      "cid": "10203025000739646038",
      "google_id": "/g/11v5jklfxg",
      "maps_place_token": null
    },
    {
      "name": "Bar Ginza",
      "address": "1301 S Main St suite 170, Las Vegas, NV 89104",
      "note": null,
      "is_favorite": false,
      "lat": 36.1557556,
      "lng": -115.15359319999999,
      "maps_url": "https://www.google.com/maps/search/?api=1&query=Bar+Ginza%2C+1301+S+Main+St+suite+170%2C+Las+Vegas%2C+NV+89104",
      "cid": "6819241103210943914",
      "google_id": "/g/11ld89j2w5",
      "maps_place_token": null
    },
    {
      "name": "Viet Noodle Bar",
      "address": "5288 W Spring Mountain Rd #106, Las Vegas, NV 89146",
      "note": null,
      "is_favorite": false,
      "lat": 36.1262314,
      "lng": -115.2132007,
      "maps_url": "https://www.google.com/maps/search/?api=1&query=Viet+Noodle+Bar%2C+5288+W+Spring+Mountain+Rd+%23106%2C+Las+Vegas%2C+NV+89146",
      "cid": "10438434170626427760",
      "google_id": "/g/11bvvzrgp0",
      "maps_place_token": null
    }
  ]
}
