{
  "fetched_at": "2026-04-15T23:42:51.393677+00:00",
  "refresh_after": "2026-04-29T23:42:51.393677+00:00",
  "source_signature": "74a0306451b54acd83459a4babe72394ea23e1a895c8c9091541cce105d5b29b",
  "configured_source_type": "google_list_url",
  "configured_source_url": "https://maps.app.goo.gl/WHTVv1f2rssaBWQ98",
  "configured_source_path": null,
  "source_url": "https://maps.app.goo.gl/WHTVv1f2rssaBWQ98",
  "list_id": "mENm-ajFcC2zdaYLbtBPLNjRYNygQw",
  "title": "Las Vegas, NV, USA 🇺🇲",
  "description": "Michael's Las Vegas, NV, USA 🇺🇲 bookmarks. See https://beacons.ai/demflyers for more.",
  "places": [
    {
      "name": "OJ Morning 早午餐",
      "address": "號1樓, No. 116, Changji St, Datong District, Taipei City, Taiwan 103",
      "note": null,
      "is_favorite": false,
      "lat": 25.0658702,
      "lng": 121.51458059999999,
      "maps_url": "https://maps.google.com/?cid=3765758976819582671",
      "cid": "3765758976819582671",
      "google_id": "/g/11pp9dw3cy",
      "maps_place_token": null
    },
    {
      "name": "Michael's Las Vegas, NV, USA 🇺🇲 bookmarks. See https://beacons.ai/demflyers for more.",
      "address": "8oz Korean Steak House and Bar",
      "note": null,
      "is_favorite": false,
      "lat": 36.1256729,
      "lng": -115.2025972,
      "maps_url": "https://maps.google.com/?cid=104356373423434804635",
      "cid": "104356373423434804635",
      "google_id": null,
      "maps_place_token": null
    },
    {
      "name": "PITAS",
      "address": null,
      "note": null,
      "is_favorite": false,
      "lat": 36.125915,
      "lng": -115.2117904,
      "maps_url": "https://maps.google.com/?cid=2280130578127378206",
      "cid": "2280130578127378206",
      "google_id": null,
      "maps_place_token": null
    },
    {
      "name": "Big Dan Shanxi Taste",
      "address": null,
      "note": null,
      "is_favorite": false,
      "lat": 36.1257173,
      "lng": -115.2106237,
      "maps_url": "https://maps.google.com/?cid=2104130298132126135",
      "cid": "2104130298132126135",
      "google_id": null,
      "maps_place_token": null
    },
    {
      "name": "Lotus of Siam - Flamingo Road",
      "address": "620 E Flamingo Rd, Las Vegas, NV 89119, United States",
      "note": null,
      "is_favorite": false,
      "lat": 36.1150969,
      "lng": -115.1497083,
      "maps_url": "https://maps.google.com/?cid=5952133127148270866",
      "cid": "5952133127148270866",
      "google_id": "/g/11mw7qn407",
      "maps_place_token": null
    },
    {
      "name": "Tacos El Gordo",
      "address": "3041 S Las Vegas Blvd, Las Vegas, NV 89109, United States",
      "note": null,
      "is_favorite": false,
      "lat": 36.132143,
      "lng": -115.1645509,
      "maps_url": "https://maps.google.com/?q=36.1321430,-115.1645509",
      "cid": null,
      "google_id": "/g/1tfd2p9z",
      "maps_place_token": null
    },
    {
      "name": "Tacos El Gordo",
      "address": "2560 W Sunset Rd, Las Vegas, NV 89119, United States",
      "note": null,
      "is_favorite": false,
      "lat": 36.0713627,
      "lng": -115.1761961,
      "maps_url": "https://maps.google.com/?q=36.0713627,-115.1761961",
      "cid": null,
      "google_id": "/g/11swptjmst",
      "maps_place_token": null
    },
    {
      "name": "Weera Thai Restaurant",
      "address": "3839 W Sahara Ave STE 9, Las Vegas, NV 89102, United States",
      "note": null,
      "is_favorite": false,
      "lat": 36.143955,
      "lng": -115.193131,
      "maps_url": "https://maps.google.com/?cid=5318083852720903351",
      "cid": "5318083852720903351",
      "google_id": "/g/1trxdzys",
      "maps_place_token": null
    },
    {
      "name": "Yard House",
      "address": "3545 S Las Vegas Blvd, Las Vegas, NV 89109, United States",
      "note": null,
      "is_favorite": false,
      "lat": 36.1178004,
      "lng": -115.1688858,
      "maps_url": "https://maps.google.com/?cid=7840913356744280736",
      "cid": "7840913356744280736",
      "google_id": "/g/1z3tbt1mc",
      "maps_place_token": null
    },
    {
      "name": "Peppermill Restaurant and Fireside Lounge",
      "address": "2985 Las Vegas Blvd S, Las Vegas, NV 89109, United States",
      "note": null,
      "is_favorite": false,
      "lat": 36.1337633,
      "lng": -115.163224,
      "maps_url": "https://maps.google.com/?cid=1654429034065460408",
      "cid": "1654429034065460408",
      "google_id": "/g/11h12my7z",
      "maps_place_token": null
    },
    {
      "name": "Black Bear Diner Las Vegas - S. Las Vegas Blvd",
      "address": "7680 S Las Vegas Blvd, Las Vegas, NV 89123, United States",
      "note": null,
      "is_favorite": false,
      "lat": 36.0505636,
      "lng": -115.1714683,
      "maps_url": "https://maps.google.com/?cid=1362184720153578226",
      "cid": "1362184720153578226",
      "google_id": "/g/11g7y66stv",
      "maps_place_token": null
    },
    {
      "name": "Earl of Sandwich",
      "address": "3667 Las Vegas Blvd S, Las Vegas, NV 89109, United States",
      "note": null,
      "is_favorite": false,
      "lat": 36.109407499999996,
      "lng": -115.17187469999999,
      "maps_url": "https://maps.google.com/?q=36.1094075,-115.1718747",
      "cid": null,
      "google_id": "/g/1tzvwvdp",
      "maps_place_token": null
    },
    {
      "name": "Gordon Ramsay Hell's Kitchen",
      "address": "3570 Las Vegas Blvd S, Las Vegas, NV 89109, United States",
      "note": null,
      "is_favorite": false,
      "lat": 36.1157296,
      "lng": -115.17323209999999,
      "maps_url": "https://maps.google.com/?cid=8539918260208114251",
      "cid": "8539918260208114251",
      "google_id": "/g/11hbfhg9b8",
      "maps_place_token": null
    },
    {
      "name": "Raku",
      "address": "5030 Spring Mountain Rd, Las Vegas, NV 89146, United States",
      "note": null,
      "is_favorite": false,
      "lat": 36.126968399999996,
      "lng": -115.2099315,
      "maps_url": "https://maps.google.com/?q=36.1269684,-115.2099315",
      "cid": null,
      "google_id": "/g/1xg5sz3d",
      "maps_place_token": null
    },
    {
      "name": "Kabuto-edomae sushi",
      "address": "5040 W Spring Mountain Rd, Las Vegas, NV 89146, United States",
      "note": null,
      "is_favorite": false,
      "lat": 36.1265346,
      "lng": -115.2098994,
      "maps_url": "https://maps.google.com/?q=36.1265346,-115.2098994",
      "cid": null,
      "google_id": null,
      "maps_place_token": null
    },
    {
      "name": "Chubby Cattle Hotpot | Las Vegas",
      "address": "3400 S Jones Blvd #15, Las Vegas, NV 89146, United States",
      "note": null,
      "is_favorite": false,
      "lat": 36.126885,
      "lng": -115.22417659999999,
      "maps_url": "https://maps.google.com/?q=36.1268850,-115.2241766",
      "cid": null,
      "google_id": "/g/11c0r2_y71",
      "maps_place_token": null
    },
    {
      "name": "Chubby Cattle BBQ | Las Vegas",
      "address": "4525 Spring Mountain Rd suite 106, Las Vegas, NV 89102, United States",
      "note": null,
      "is_favorite": false,
      "lat": 36.1256258,
      "lng": -115.2017704,
      "maps_url": "https://maps.google.com/?q=36.1256258,-115.2017704",
      "cid": null,
      "google_id": "/g/11vkz7byxd",
      "maps_place_token": null
    },
    {
      "name": "The X Pot",
      "address": "The Palazzo at The Venetian Resort, 3327 S Las Vegas Blvd Suite 2884, Las Vegas, NV 89109, United States",
      "note": null,
      "is_favorite": false,
      "lat": 36.1242075,
      "lng": -115.16765579999999,
      "maps_url": "https://maps.google.com/?q=36.1242075,-115.1676558",
      "cid": null,
      "google_id": "/g/11fnw0rb5c",
      "maps_place_token": null
    },
    {
      "name": "Omega Mart",
      "address": "3215 S Rancho Dr #100, Las Vegas, NV 89102, United States",
      "note": null,
      "is_favorite": false,
      "lat": 36.1324617,
      "lng": -115.18185229999999,
      "maps_url": "https://maps.google.com/?cid=1063402217899422698",
      "cid": "1063402217899422698",
      "google_id": "/g/11mr21q7s7",
      "maps_place_token": null
    },
    {
      "name": "The Neon Museum Las Vegas",
      "address": "770 Las Vegas Blvd N, Las Vegas, NV 89101, United States",
      "note": null,
      "is_favorite": false,
      "lat": 36.1769882,
      "lng": -115.1353374,
      "maps_url": "https://maps.google.com/?q=36.1769882,-115.1353374",
      "cid": null,
      "google_id": null,
      "maps_place_token": null
    },
    {
      "name": "PublicUs",
      "address": "1126 E Fremont St, Las Vegas, NV 89101, United States",
      "note": null,
      "is_favorite": false,
      "lat": 36.1657782,
      "lng": -115.13296199999999,
      "maps_url": "https://maps.google.com/?cid=1365349470747652924",
      "cid": "1365349470747652924",
      "google_id": "/g/1jkyq417h",
      "maps_place_token": null
    },
    {
      "name": "Urban Matcha",
      "address": "3400 S Jones Blvd #3, Las Vegas, NV 89146, United States",
      "note": null,
      "is_favorite": false,
      "lat": 36.127978899999995,
      "lng": -115.22466109999999,
      "maps_url": "https://maps.google.com/?cid=5979384082737396088",
      "cid": "5979384082737396088",
      "google_id": "/g/11hcfrg4f3",
      "maps_place_token": null
    },
    {
      "name": "Gäbi Coffee & Bakery",
      "address": "5808 Spring Mountain Rd #104, Las Vegas, NV 89146, United States",
      "note": null,
      "is_favorite": false,
      "lat": 36.1260036,
      "lng": -115.22180639999999,
      "maps_url": "https://maps.google.com/?q=36.1260036,-115.2218064",
      "cid": null,
      "google_id": "/g/11ggzdkhm6",
      "maps_place_token": null
    },
    {
      "name": "Golden Steer Steakhouse Las Vegas",
      "address": "308 W Sahara Ave, Las Vegas, NV 89102, United States",
      "note": null,
      "is_favorite": false,
      "lat": 36.1441637,
      "lng": -115.16119619999999,
      "maps_url": "https://maps.google.com/?q=36.1441637,-115.1611962",
      "cid": null,
      "google_id": "/g/1tzzvsl_",
      "maps_place_token": null
    },
    {
      "name": "Mutao Wellness Spa",
      "address": "5685 Spring Mountain Rd, Las Vegas, NV 89146, United States",
      "note": null,
      "is_favorite": false,
      "lat": 36.1253302,
      "lng": -115.21905819999999,
      "maps_url": "https://maps.google.com/?cid=5680823962375988666",
      "cid": "5680823962375988666",
      "google_id": "/g/11gr12cnzx",
      "maps_place_token": null
    },
    {
      "name": "Michael's Las Vegas, NV, USA 🇺🇲 bookmarks. See https://beacons.ai/demflyers for more.",
      "address": "Niu-Gu Noodle House",
      "note": null,
      "is_favorite": false,
      "lat": 36.128093899999996,
      "lng": -115.1970939,
      "maps_url": "https://maps.google.com/?cid=3558656038997305861",
      "cid": "3558656038997305861",
      "google_id": null,
      "maps_place_token": null
    },
    {
      "name": "The Barbershop Cuts & Cocktails",
      "address": "Boulevard Tower, 3708 Las Vegas Blvd S Level 1, Las Vegas, NV 89109, United States",
      "note": null,
      "is_favorite": false,
      "lat": 36.1101872,
      "lng": -115.1734888,
      "maps_url": "https://maps.google.com/?cid=9117750560881125210",
      "cid": "9117750560881125210",
      "google_id": "/g/11h6nfhyyv",
      "maps_place_token": null
    },
    {
      "name": "Topgolf Las Vegas",
      "address": "4627 Koval Ln, Las Vegas, NV 89109, United States",
      "note": null,
      "is_favorite": false,
      "lat": 36.105996,
      "lng": -115.1647223,
      "maps_url": "https://maps.google.com/?cid=3126256572809373647",
      "cid": "3126256572809373647",
      "google_id": "/g/11bxg82h3y",
      "maps_place_token": null
    },
    {
      "name": "Dim Sum Café",
      "address": "3700 S Hualapai Wy, Las Vegas, NV 89147, United States",
      "note": null,
      "is_favorite": false,
      "lat": 36.121652499999996,
      "lng": -115.31447899999999,
      "maps_url": "https://maps.google.com/?cid=3330775137936164004",
      "cid": "3330775137936164004",
      "google_id": "/g/1ptznlb_t",
      "maps_place_token": null
    },
    {
      "name": "Savor Coffee",
      "address": "6811 S Eastern Ave #104-D, Las Vegas, NV 89119, United States",
      "note": null,
      "is_favorite": false,
      "lat": 36.0661492,
      "lng": -115.11901619999999,
      "maps_url": "https://maps.google.com/?cid=8446014055202680885",
      "cid": "8446014055202680885",
      "google_id": "/g/11hkrm7n7g",
      "maps_place_token": null
    },
    {
      "name": "Texas de Brazil - Las Vegas",
      "address": "6533 Las Vegas Blvd S, Las Vegas, NV 89119, United States",
      "note": null,
      "is_favorite": false,
      "lat": 36.070113899999996,
      "lng": -115.1753406,
      "maps_url": "https://maps.google.com/?q=36.0701139,-115.1753406",
      "cid": null,
      "google_id": "/g/1th1c_ng",
      "maps_place_token": null
    },
    {
      "name": "Atomic Golf",
      "address": "1850 S Main St, Las Vegas, NV 89104",
      "note": null,
      "is_favorite": false,
      "lat": 36.149346099999995,
      "lng": -115.1548847,
      "maps_url": "https://maps.google.com/?q=36.1493461,-115.1548847",
      "cid": null,
      "google_id": "/g/11v5jklfxg",
      "maps_place_token": null
    },
    {
      "name": "Bar Ginza",
      "address": "1301 S Main St suite 170, Las Vegas, NV 89104",
      "note": null,
      "is_favorite": false,
      "lat": 36.1557556,
      "lng": -115.15359319999999,
      "maps_url": "https://maps.google.com/?cid=6819241103210943914",
      "cid": "6819241103210943914",
      "google_id": "/g/11ld89j2w5",
      "maps_place_token": null
    },
    {
      "name": "Viet Noodle Bar",
      "address": "5288 W Spring Mountain Rd #106, Las Vegas, NV 89146",
      "note": null,
      "is_favorite": false,
      "lat": 36.1262314,
      "lng": -115.2132007,
      "maps_url": "https://maps.google.com/?q=36.1262314,-115.2132007",
      "cid": null,
      "google_id": "/g/11bvvzrgp0",
      "maps_place_token": null
    }
  ]
}
