{
  "fetched_at": "2026-04-15T15:22:00.142042+00:00",
  "refresh_after": "2026-04-29T15:22:00.142042+00:00",
  "source_signature": "2d0dd068337179f35a7d9e83217ecfa893c67c81ca43aecb3d79a6975629bb9c",
  "configured_source_type": "google_list_url",
  "configured_source_url": "https://maps.app.goo.gl/4bF3nCUU3BgNZvqRA",
  "configured_source_path": null,
  "source_url": "https://maps.app.goo.gl/4bF3nCUU3BgNZvqRA",
  "list_id": "Cu7S0CxIRMGIrLrMkUX70g",
  "title": "London, United Kingdom 🇬🇧",
  "description": "Michael's list for London, United Kingdom 🇬🇧 See https://beacons.ai/demflyers for more.",
  "places": [
    {
      "name": "Candella Tea Room",
      "address": null,
      "note": null,
      "is_favorite": false,
      "lat": 51.5040748,
      "lng": -0.1919243,
      "maps_url": "https://maps.google.com/?cid=5221378373244157597",
      "cid": "5221378373244157597",
      "google_id": null,
      "maps_place_token": null
    },
    {
      "name": "TASTE OF CHONGQING",
      "address": null,
      "note": null,
      "is_favorite": false,
      "lat": 51.5240602,
      "lng": -0.1273637,
      "maps_url": "https://maps.google.com/?cid=5221390768465583787",
      "cid": "5221390768465583787",
      "google_id": null,
      "maps_place_token": null
    },
    {
      "name": "Ong Ong Buns",
      "address": null,
      "note": null,
      "is_favorite": false,
      "lat": 51.4962107,
      "lng": -0.0697328,
      "maps_url": "https://maps.google.com/?cid=5221364455471584231",
      "cid": "5221364455471584231",
      "google_id": null,
      "maps_place_token": null
    },
    {
      "name": "Kiln",
      "address": null,
      "note": null,
      "is_favorite": false,
      "lat": 51.511400699999996,
      "lng": -0.13605899999999999,
      "maps_url": "https://maps.google.com/?cid=5221366128423123455",
      "cid": "5221366128423123455",
      "google_id": null,
      "maps_place_token": null
    },
    {
      "name": "Electric Cinema White City",
      "address": "2, Television Centre, 101 Wood Ln, London W12 7FR, United Kingdom",
      "note": null,
      "is_favorite": false,
      "lat": 51.5106918,
      "lng": -0.2254695,
      "maps_url": "https://maps.google.com/?cid=5221378234701091563",
      "cid": "5221378234701091563",
      "google_id": "/g/11f57wdl9c",
      "maps_place_token": null
    },
    {
      "name": "Kitchen Table",
      "address": "70 Charlotte St., London W1T 4QG, United Kingdom",
      "note": null,
      "is_favorite": false,
      "lat": 51.520384299999996,
      "lng": -0.136523,
      "maps_url": "https://maps.google.com/?cid=5221390682513385181",
      "cid": "5221390682513385181",
      "google_id": "/g/124stm9v7",
      "maps_place_token": null
    },
    {
      "name": "Monmouth Coffee Company",
      "address": "27 Monmouth St, London WC2H 9EU, United Kingdom",
      "note": null,
      "is_favorite": false,
      "lat": 51.5143834,
      "lng": -0.1268196,
      "maps_url": "https://maps.google.com/?cid=5221366097296776043",
      "cid": "5221366097296776043",
      "google_id": "/g/11b75pw4tt",
      "maps_place_token": null
    },
    {
      "name": "Swift Soho",
      "address": "12 Old Compton St, London W1D 4TQ, United Kingdom",
      "note": null,
      "is_favorite": false,
      "lat": 51.513734,
      "lng": -0.1299972,
      "maps_url": "https://maps.google.com/?cid=5221366121142201625",
      "cid": "5221366121142201625",
      "google_id": "/g/11c2lrwbbv",
      "maps_place_token": null
    },
    {
      "name": "Hawksmoor Seven Dials",
      "address": "11 Langley St, London WC2H 9JG, United Kingdom",
      "note": null,
      "is_favorite": false,
      "lat": 51.5134879,
      "lng": -0.12574559999999999,
      "maps_url": "https://maps.google.com/?cid=5221366095944902665",
      "cid": "5221366095944902665",
      "google_id": "/g/1hcbbd81q",
      "maps_place_token": null
    },
    {
      "name": "American Bar",
      "address": "The Savoy, Strand, London WC2R 0EZ, United Kingdom",
      "note": null,
      "is_favorite": false,
      "lat": 51.5102188,
      "lng": -0.1206038,
      "maps_url": "https://maps.google.com/?cid=5221366091607931009",
      "cid": "5221366091607931009",
      "google_id": "/g/1z449srd6",
      "maps_place_token": null
    },
    {
      "name": "Side Hustle",
      "address": "Old Police Station Entrance, 28 Bow St, London WC2E 7AW, United Kingdom",
      "note": null,
      "is_favorite": false,
      "lat": 51.513412599999995,
      "lng": -0.1220179,
      "maps_url": "https://maps.google.com/?cid=5221367401556569575",
      "cid": "5221367401556569575",
      "google_id": "/g/11ng35ss25",
      "maps_place_token": null
    },
    {
      "name": "Gordon's Wine Bar",
      "address": "47 Villiers St, London WC2N 6NE, United Kingdom",
      "note": null,
      "is_favorite": false,
      "lat": 51.507943999999995,
      "lng": -0.123314,
      "maps_url": "https://maps.google.com/?cid=5221366104227605321",
      "cid": "5221366104227605321",
      "google_id": null,
      "maps_place_token": null
    },
    {
      "name": "Ikoyi Restaurant",
      "address": "180 Strand, Temple, London WC2R 1EA, United Kingdom",
      "note": null,
      "is_favorite": false,
      "lat": 51.5123709,
      "lng": -0.1155466,
      "maps_url": "https://maps.google.com/?cid=5221366115397143955",
      "cid": "5221366115397143955",
      "google_id": "/g/11d_2kddhl",
      "maps_place_token": null
    },
    {
      "name": "Chancery Press",
      "address": "81 Chancery Ln, London WC2A 1DD, United Kingdom",
      "note": null,
      "is_favorite": false,
      "lat": 51.5159178,
      "lng": -0.1119748,
      "maps_url": "https://maps.google.com/?cid=5221390828413758783",
      "cid": "5221390828413758783",
      "google_id": "/g/11cm3qx_rs",
      "maps_place_token": null
    },
    {
      "name": "Alchemy Café - The City",
      "address": "8 Ludgate Broadway, London EC4V 6DX, United Kingdom",
      "note": null,
      "is_favorite": false,
      "lat": 51.513413,
      "lng": -0.1026314,
      "maps_url": "https://maps.google.com/?cid=5221367551258901791",
      "cid": "5221367551258901791",
      "google_id": "/g/12m9j5g5m",
      "maps_place_token": null
    },
    {
      "name": "The Wren Coffee",
      "address": "114 Queen Victoria St, London EC4V 4BJ, United Kingdom",
      "note": null,
      "is_favorite": false,
      "lat": 51.512073799999996,
      "lng": -0.09689239999999999,
      "maps_url": "https://maps.google.com/?cid=5221365947594538111",
      "cid": "5221365947594538111",
      "google_id": "/g/1pzw2nw4v",
      "maps_place_token": null
    },
    {
      "name": "Dartbrooke Coffee",
      "address": "1 Leather Ln, London EC1N 2TD, United Kingdom",
      "note": null,
      "is_favorite": false,
      "lat": 51.5182092,
      "lng": -0.10891289999999999,
      "maps_url": "https://maps.google.com/?cid=5221391007521268269",
      "cid": "5221391007521268269",
      "google_id": "/g/11f656yr7l",
      "maps_place_token": null
    },
    {
      "name": "Mouse Tail Coffee",
      "address": "12 Mount Pleasant, London WC1X 0BU, United Kingdom",
      "note": null,
      "is_favorite": false,
      "lat": 51.523621999999996,
      "lng": -0.11254929999999999,
      "maps_url": "https://maps.google.com/?cid=5221390604833268741",
      "cid": "5221390604833268741",
      "google_id": "/g/11mr2x0t50",
      "maps_place_token": null
    },
    {
      "name": "WatchHouse Fetter Lane",
      "address": "92 Fetter Ln, London EC4A 1EP, United Kingdom",
      "note": null,
      "is_favorite": false,
      "lat": 51.5167357,
      "lng": -0.10917299999999999,
      "maps_url": "https://maps.google.com/?cid=5221365985641373559",
      "cid": "5221365985641373559",
      "google_id": "/g/11f102fp8r",
      "maps_place_token": null
    },
    {
      "name": "Prufrock Coffee",
      "address": "23-25 Leather Ln, London EC1N 7TE, United Kingdom",
      "note": null,
      "is_favorite": false,
      "lat": 51.519934899999996,
      "lng": -0.10943009999999999,
      "maps_url": "https://maps.google.com/?cid=5221390831860895081",
      "cid": "5221390831860895081",
      "google_id": "/g/1hc6b1tpw",
      "maps_place_token": null
    },
    {
      "name": "Briki",
      "address": "67 Exmouth Market, London EC1R 4QL, United Kingdom",
      "note": null,
      "is_favorite": false,
      "lat": 51.5264239,
      "lng": -0.10829269999999999,
      "maps_url": "https://maps.google.com/?cid=5221390803092705479",
      "cid": "5221390803092705479",
      "google_id": "/g/11bccgxxjy",
      "maps_place_token": null
    },
    {
      "name": "Pistachio & Pickle",
      "address": "142 Liverpool Rd, London N1 1LA, United Kingdom",
      "note": null,
      "is_favorite": false,
      "lat": 51.539244,
      "lng": -0.106584,
      "maps_url": "https://maps.google.com/?cid=5221390954654271035",
      "cid": "5221390954654271035",
      "google_id": "/g/1vljftpx",
      "maps_place_token": null
    },
    {
      "name": "Coffee Berry",
      "address": "3A Barnsbury Rd, London N1 0HG, United Kingdom",
      "note": null,
      "is_favorite": false,
      "lat": 51.5346343,
      "lng": -0.11161249999999999,
      "maps_url": "https://maps.google.com/?cid=5221391323888489099",
      "cid": "5221391323888489099",
      "google_id": "/g/11fn519lfp",
      "maps_place_token": null
    },
    {
      "name": "Bounce Old Street",
      "address": "241 Old St, London EC1V 9EY, United Kingdom",
      "note": null,
      "is_favorite": false,
      "lat": 51.5265778,
      "lng": -0.0842585,
      "maps_url": "https://maps.google.com/?cid=5221392314817156265",
      "cid": "5221392314817156265",
      "google_id": "/g/11bv1bk7bv",
      "maps_place_token": null
    },
    {
      "name": "Katsute 100",
      "address": "100 Islington High St, London N1 8EG, United Kingdom",
      "note": null,
      "is_favorite": false,
      "lat": 51.534241099999996,
      "lng": -0.1044919,
      "maps_url": "https://maps.google.com/?cid=5221390905262805311",
      "cid": "5221390905262805311",
      "google_id": "/g/11ddwn6v6s",
      "maps_place_token": null
    },
    {
      "name": "Nightjar Shoreditch",
      "address": "129 City Rd, London EC1V 1JB, United Kingdom",
      "note": null,
      "is_favorite": false,
      "lat": 51.526524599999995,
      "lng": -0.0877366,
      "maps_url": "https://maps.google.com/?cid=5221392316757742395",
      "cid": "5221392316757742395",
      "google_id": "/g/1tfkvt0q",
      "maps_place_token": null
    },
    {
      "name": "National Maritime Museum",
      "address": "Romney Rd, London SE10 9NF, United Kingdom",
      "note": null,
      "is_favorite": false,
      "lat": 51.4810058,
      "lng": -0.005226199999999999,
      "maps_url": "https://maps.google.com/?cid=5218289090375908531",
      "cid": "5218289090375908531",
      "google_id": null,
      "maps_place_token": null
    },
    {
      "name": "Victoria Park",
      "address": "Grove Rd., London E3 5TB, United Kingdom",
      "note": null,
      "is_favorite": false,
      "lat": 51.5367976,
      "lng": -0.0386354,
      "maps_url": "https://maps.google.com/?cid=5221392810544153373",
      "cid": "5221392810544153373",
      "google_id": null,
      "maps_place_token": null
    },
    {
      "name": "Three Sheets",
      "address": "510b Kingsland Rd, London E8 4AB, United Kingdom",
      "note": null,
      "is_favorite": false,
      "lat": 51.543952,
      "lng": -0.0758636,
      "maps_url": "https://maps.google.com/?cid=5221392239212049877",
      "cid": "5221392239212049877",
      "google_id": "/g/11c4bp6dtt",
      "maps_place_token": null
    },
    {
      "name": "52A Coffee House",
      "address": "52A Southgate Rd, London N1 3JF, United Kingdom",
      "note": null,
      "is_favorite": false,
      "lat": 51.5396283,
      "lng": -0.0854505,
      "maps_url": "https://maps.google.com/?cid=5221392264736132243",
      "cid": "5221392264736132243",
      "google_id": "/g/124sqhrl3",
      "maps_place_token": null
    },
    {
      "name": "Satan's Whiskers",
      "address": "Satan's Whiskers, 343 Cambridge Heath Rd, London E2 9RA, United Kingdom",
      "note": null,
      "is_favorite": false,
      "lat": 51.5294983,
      "lng": -0.056166799999999996,
      "maps_url": "https://maps.google.com/?cid=5221392546862977407",
      "cid": "5221392546862977407",
      "google_id": "/g/1yhbjsxcf",
      "maps_place_token": null
    },
    {
      "name": "Da Terra Restaurant",
      "address": "8 Patriot Square, London E2 9NF, United Kingdom",
      "note": null,
      "is_favorite": false,
      "lat": 51.530433599999995,
      "lng": -0.055982399999999995,
      "maps_url": "https://maps.google.com/?cid=5221393480876682399",
      "cid": "5221393480876682399",
      "google_id": "/g/11fjzkdm3t",
      "maps_place_token": null
    },
    {
      "name": "A Bar with Shapes for a Name",
      "address": "232 Kingsland Rd, Whitmore Estate, London E2 8AX, United Kingdom",
      "note": null,
      "is_favorite": false,
      "lat": 51.535673499999994,
      "lng": -0.0767291,
      "maps_url": "https://maps.google.com/?cid=5221393128807079599",
      "cid": "5221393128807079599",
      "google_id": "/g/11qzcjmfgb",
      "maps_place_token": null
    },
    {
      "name": "Climpson & Sons Café",
      "address": "67 Broadway Market, London E8 4PH, United Kingdom",
      "note": null,
      "is_favorite": false,
      "lat": 51.5374701,
      "lng": -0.0613386,
      "maps_url": "https://maps.google.com/?cid=5221392603393466055",
      "cid": "5221392603393466055",
      "google_id": "/g/1w0j3plr",
      "maps_place_token": null
    },
    {
      "name": "Alcotraz London: Cell Block Two-One-Two",
      "address": "Unit 3B, 127 Hackney Rd, London E2 8GY, United Kingdom",
      "note": null,
      "is_favorite": false,
      "lat": 51.5301085,
      "lng": -0.074373,
      "maps_url": "https://maps.google.com/?cid=5221392394207248759",
      "cid": "5221392394207248759",
      "google_id": "/g/11g9s_9swd",
      "maps_place_token": null
    },
    {
      "name": "Paper and Cup x SCT",
      "address": "18 Calvert Ave, London E2 7JP, United Kingdom",
      "note": null,
      "is_favorite": false,
      "lat": 51.5262367,
      "lng": -0.0768639,
      "maps_url": "https://maps.google.com/?cid=5221392403626555821",
      "cid": "5221392403626555821",
      "google_id": "/g/1hf03c7_q",
      "maps_place_token": null
    },
    {
      "name": "The Clove Club",
      "address": "Shoreditch Town Hall, 380 Old St, London EC1V 9LT, United Kingdom",
      "note": null,
      "is_favorite": false,
      "lat": 51.527145499999996,
      "lng": -0.07933649999999999,
      "maps_url": "https://maps.google.com/?cid=5221392404777054609",
      "cid": "5221392404777054609",
      "google_id": "/g/124ycpn_j",
      "maps_place_token": null
    },
    {
      "name": "Dishoom Shoreditch",
      "address": "7 Boundary St, London E2 7JE, United Kingdom",
      "note": null,
      "is_favorite": false,
      "lat": 51.5245002,
      "lng": -0.0765998,
      "maps_url": "https://maps.google.com/?cid=5221392403209227205",
      "cid": "5221392403209227205",
      "google_id": "/g/1hf08nz33",
      "maps_place_token": null
    },
    {
      "name": "Ballie Ballerson London",
      "address": "97-113 Curtain Rd, London EC2A 3BS, United Kingdom",
      "note": null,
      "is_favorite": false,
      "lat": 51.5256851,
      "lng": -0.0804477,
      "maps_url": "https://maps.google.com/?cid=5221392405853089847",
      "cid": "5221392405853089847",
      "google_id": "/g/11f0w_nzhs",
      "maps_place_token": null
    },
    {
      "name": "BRAT Restaurant",
      "address": "4 Redchurch St, London E1 6JL, United Kingdom",
      "note": null,
      "is_favorite": false,
      "lat": 51.5242042,
      "lng": -0.0767031,
      "maps_url": "https://maps.google.com/?cid=5221392363282593261",
      "cid": "5221392363282593261",
      "google_id": "/g/11gg9bm8ry",
      "maps_place_token": null
    },
    {
      "name": "Bubble & Scoop",
      "address": "79 Brick Ln, London E1 6QL, United Kingdom",
      "note": null,
      "is_favorite": false,
      "lat": 51.5202245,
      "lng": -0.07196659999999999,
      "maps_url": "https://maps.google.com/?cid=5221392811108358291",
      "cid": "5221392811108358291",
      "google_id": "/g/11nn09j86f",
      "maps_place_token": null
    },
    {
      "name": "Lyle's",
      "address": "Tea Building, 56 Shoreditch High St, London E1 6GY, United Kingdom",
      "note": null,
      "is_favorite": false,
      "lat": 51.5237542,
      "lng": -0.0764767,
      "maps_url": "https://maps.google.com/?cid=5221392363660000461",
      "cid": "5221392363660000461",
      "google_id": "/g/1q5btm6v_",
      "maps_place_token": null
    },
    {
      "name": "Yi Cha Bubble Tea",
      "address": "2 Commercial St, London E1 6LP, United Kingdom",
      "note": null,
      "is_favorite": false,
      "lat": 51.515555,
      "lng": -0.0718688,
      "maps_url": "https://maps.google.com/?cid=5221393177205900401",
      "cid": "5221393177205900401",
      "google_id": "/g/11pcm5vz2g",
      "maps_place_token": null
    },
    {
      "name": "Jen Tea London - 茶珍圓",
      "address": "16 Artillery Psge, London E1 7LJ, United Kingdom",
      "note": null,
      "is_favorite": false,
      "lat": 51.5181264,
      "lng": -0.077752,
      "maps_url": "https://maps.google.com/?cid=5221393286123026247",
      "cid": "5221393286123026247",
      "google_id": "/g/11j4ds_7k6",
      "maps_place_token": null
    },
    {
      "name": "Fazenda UK",
      "address": "9 Harrow Pl, London E1 7DB, United Kingdom",
      "note": null,
      "is_favorite": false,
      "lat": 51.516119499999995,
      "lng": -0.0772458,
      "maps_url": "https://maps.google.com/?cid=5221392379596978803",
      "cid": "5221392379596978803",
      "google_id": "/g/1vknnw94",
      "maps_place_token": null
    },
    {
      "name": "Moonshine Saloon",
      "address": "28-30 Houndsditch, London EC3A 7DB, United Kingdom",
      "note": null,
      "is_favorite": false,
      "lat": 51.5147826,
      "lng": -0.0780363,
      "maps_url": "https://maps.google.com/?cid=5221367215816584395",
      "cid": "5221367215816584395",
      "google_id": "/g/11gh9q8qpp",
      "maps_place_token": null
    },
    {
      "name": "Afternoon Tea at The Orchid Lounge - Pan Pacific London",
      "address": "80 Houndsditch, London EC3A 7AB, United Kingdom",
      "note": null,
      "is_favorite": false,
      "lat": 51.516495799999994,
      "lng": -0.08056289999999999,
      "maps_url": "https://maps.google.com/?cid=5221392371283975409",
      "cid": "5221392371283975409",
      "google_id": "/g/11q8v9q18g",
      "maps_place_token": null
    },
    {
      "name": "Rosslyn Coffee London Wall",
      "address": "118 London Wall, London EC2Y 5JA, United Kingdom",
      "note": null,
      "is_favorite": false,
      "lat": 51.5176899,
      "lng": -0.0890369,
      "maps_url": "https://maps.google.com/?cid=5221393316093424853",
      "cid": "5221393316093424853",
      "google_id": "/g/11p677y3c9",
      "maps_place_token": null
    },
    {
      "name": "Forbes and Hamilton Coffee House",
      "address": "47 London Wall, London EC2M 5TE, United Kingdom",
      "note": null,
      "is_favorite": false,
      "lat": 51.516978099999996,
      "lng": -0.0881,
      "maps_url": "https://maps.google.com/?cid=5221390725891629041",
      "cid": "5221390725891629041",
      "google_id": "/g/1v75rd1h",
      "maps_place_token": null
    },
    {
      "name": "Rosslyn Coffee Queen Victoria Street",
      "address": "78 Queen Victoria St, London EC4N 4SJ, United Kingdom",
      "note": null,
      "is_favorite": false,
      "lat": 51.5125801,
      "lng": -0.09350349999999999,
      "maps_url": "https://maps.google.com/?cid=5221364483717321673",
      "cid": "5221364483717321673",
      "google_id": "/g/11f3tv21w6",
      "maps_place_token": null
    },
    {
      "name": "v69 coffee",
      "address": "30 Gresham St, London EC2V 7PG, United Kingdom",
      "note": null,
      "is_favorite": false,
      "lat": 51.5146549,
      "lng": -0.09373419999999999,
      "maps_url": "https://maps.google.com/?cid=5221364483001233349",
      "cid": "5221364483001233349",
      "google_id": "/g/11gfn965zj",
      "maps_place_token": null
    },
    {
      "name": "La Dame de Pic London",
      "address": "Four Seasons Hotel at Ten, 10 Trinity Square, London EC3N 4AJ, United Kingdom",
      "note": null,
      "is_favorite": false,
      "lat": 51.510117799999996,
      "lng": -0.07797459999999999,
      "maps_url": "https://maps.google.com/?cid=5221364443535881169",
      "cid": "5221364443535881169",
      "google_id": "/g/11c6crp33l",
      "maps_place_token": null
    },
    {
      "name": "Restaurant Story",
      "address": "199 Tooley St, London SE1 2JX, United Kingdom",
      "note": null,
      "is_favorite": false,
      "lat": 51.502846399999996,
      "lng": -0.0777649,
      "maps_url": "https://maps.google.com/?cid=5221364415980879473",
      "cid": "5221364415980879473",
      "google_id": "/g/124sz4q1g",
      "maps_place_token": null
    },
    {
      "name": "Lyaness",
      "address": "20 Upper Ground, London SE1 9PD, United Kingdom",
      "note": null,
      "is_favorite": false,
      "lat": 51.508393899999994,
      "lng": -0.10666389999999999,
      "maps_url": "https://maps.google.com/?cid=5221365979519607525",
      "cid": "5221365979519607525",
      "google_id": "/g/11b6j3l0g4",
      "maps_place_token": null
    },
    {
      "name": "Tate Modern",
      "address": "Bankside, London SE1 9TG, United Kingdom",
      "note": null,
      "is_favorite": false,
      "lat": 51.5075953,
      "lng": -0.0993564,
      "maps_url": "https://maps.google.com/?cid=5221365942708476309",
      "cid": "5221365942708476309",
      "google_id": null,
      "maps_place_token": null
    },
    {
      "name": "Mango Indian",
      "address": "Cromwell Building, 6 Redcross Way, London SE1 9HR, United Kingdom",
      "note": null,
      "is_favorite": false,
      "lat": 51.504962,
      "lng": -0.092942,
      "maps_url": "https://maps.google.com/?cid=5221364494237635313",
      "cid": "5221364494237635313",
      "google_id": "/g/1tr7hw0d",
      "maps_place_token": null
    },
    {
      "name": "Opium Cocktail Bar & Dim Sum Parlour",
      "address": "15-16 Gerrard St, London W1D 6JE, United Kingdom",
      "note": null,
      "is_favorite": false,
      "lat": 51.511786199999996,
      "lng": -0.13144999999999998,
      "maps_url": "https://maps.google.com/?cid=5221366119495743341",
      "cid": "5221366119495743341",
      "google_id": "/g/11xc65k4_",
      "maps_place_token": null
    },
    {
      "name": "Formative Coffee",
      "address": "4 Butler Pl, London SW1H 0RH, United Kingdom",
      "note": null,
      "is_favorite": false,
      "lat": 51.4979102,
      "lng": -0.1354426,
      "maps_url": "https://maps.google.com/?cid=5221366705063357351",
      "cid": "5221366705063357351",
      "google_id": "/g/11h0b6jgrs",
      "maps_place_token": null
    },
    {
      "name": "Darjeeling Express",
      "address": "2.4 Kingly Ct, Carnaby, London W1B 5PW, United Kingdom",
      "note": null,
      "is_favorite": false,
      "lat": 51.512541,
      "lng": -0.13890429999999998,
      "maps_url": "https://maps.google.com/?cid=5221366131115741305",
      "cid": "5221366131115741305",
      "google_id": "/g/11dfr76v4z",
      "maps_place_token": null
    },
    {
      "name": "Annabel's",
      "address": "46 Berkeley Square, London W1J 5AT, United Kingdom",
      "note": null,
      "is_favorite": false,
      "lat": 51.509205599999994,
      "lng": -0.1461933,
      "maps_url": "https://maps.google.com/?cid=5221366516022644307",
      "cid": "5221366516022644307",
      "google_id": null,
      "maps_place_token": null
    },
    {
      "name": "Omotesando Koffee",
      "address": "8 Newman St, London W1T 1FB, United Kingdom",
      "note": null,
      "is_favorite": false,
      "lat": 51.516583999999995,
      "lng": -0.1348038,
      "maps_url": "https://maps.google.com/?cid=5221390804734008887",
      "cid": "5221390804734008887",
      "google_id": "/g/11hdgl_291",
      "maps_place_token": null
    },
    {
      "name": "Hideaway Coffee",
      "address": "7 Farrier's Psge, London W1D 7DP, United Kingdom",
      "note": null,
      "is_favorite": false,
      "lat": 51.511337499999996,
      "lng": -0.1352386,
      "maps_url": "https://maps.google.com/?cid=5221366851480607553",
      "cid": "5221366851480607553",
      "google_id": "/g/11g4lm05yc",
      "maps_place_token": null
    },
    {
      "name": "sketch",
      "address": "9 Conduit St, London W1S 2XG, United Kingdom",
      "note": null,
      "is_favorite": false,
      "lat": 51.512693,
      "lng": -0.141529,
      "maps_url": "https://maps.google.com/?cid=5221366498344142443",
      "cid": "5221366498344142443",
      "google_id": null,
      "maps_place_token": null
    },
    {
      "name": "Savile Row",
      "address": "London, UK",
      "note": null,
      "is_favorite": false,
      "lat": 51.511291299999996,
      "lng": -0.140763,
      "maps_url": "https://maps.google.com/?cid=5221366133199344585",
      "cid": "5221366133199344585",
      "google_id": null,
      "maps_place_token": null
    },
    {
      "name": "Meraki Greek Restaurant & Bar Fitzrovia",
      "address": "80-82 Great Titchfield St., London W1W 7QT, United Kingdom",
      "note": null,
      "is_favorite": false,
      "lat": 51.518888999999994,
      "lng": -0.1405294,
      "maps_url": "https://maps.google.com/?cid=5221390685397492837",
      "cid": "5221390685397492837",
      "google_id": "/g/11d_8gn4rf",
      "maps_place_token": null
    },
    {
      "name": "Attendant Coffee Roasters",
      "address": "27A Foley St, London W1W 6DY, United Kingdom",
      "note": null,
      "is_favorite": false,
      "lat": 51.5192293,
      "lng": -0.140675,
      "maps_url": "https://maps.google.com/?cid=5221390685343349071",
      "cid": "5221390685343349071",
      "google_id": "/g/1hhw4vrfm",
      "maps_place_token": null
    },
    {
      "name": "Sanderson Hotel",
      "address": "50 Berners St, London W1T 3NG, United Kingdom",
      "note": null,
      "is_favorite": false,
      "lat": 51.5174192,
      "lng": -0.1372793,
      "maps_url": "https://maps.google.com/?cid=5221391484005552445",
      "cid": "5221391484005552445",
      "google_id": null,
      "maps_place_token": null
    },
    {
      "name": "Kaffeine",
      "address": "15 Eastcastle St, London W1T 3AY, United Kingdom",
      "note": null,
      "is_favorite": false,
      "lat": 51.5168611,
      "lng": -0.1371645,
      "maps_url": "https://maps.google.com/?cid=5221390691366001385",
      "cid": "5221390691366001385",
      "google_id": "/g/11b6_vx_mk",
      "maps_place_token": null
    },
    {
      "name": "KOL Restaurant",
      "address": "9 Seymour St, London W1H 7BA, United Kingdom",
      "note": null,
      "is_favorite": false,
      "lat": 51.5147907,
      "lng": -0.157544,
      "maps_url": "https://maps.google.com/?cid=5221390526452791741",
      "cid": "5221390526452791741",
      "google_id": "/g/11h_sy3fzv",
      "maps_place_token": null
    },
    {
      "name": "Artesian",
      "address": "1C Portland Pl, London W1B 1JA, United Kingdom",
      "note": null,
      "is_favorite": false,
      "lat": 51.517589099999995,
      "lng": -0.1438754,
      "maps_url": "https://maps.google.com/?cid=5221390322983313171",
      "cid": "5221390322983313171",
      "google_id": "/g/1tfpp5bs",
      "maps_place_token": null
    },
    {
      "name": "Alain Ducasse at The Dorchester",
      "address": "53 Park Ln, London W1K 1QA, United Kingdom",
      "note": null,
      "is_favorite": false,
      "lat": 51.507411999999995,
      "lng": -0.1523328,
      "maps_url": "https://maps.google.com/?cid=5221366513846887181",
      "cid": "5221366513846887181",
      "google_id": null,
      "maps_place_token": null
    },
    {
      "name": "Le Gavroche",
      "address": "43 Upper Brook St, London W1K 7QR, United Kingdom",
      "note": null,
      "is_favorite": false,
      "lat": 51.5112956,
      "lng": -0.1551716,
      "maps_url": "https://maps.google.com/?cid=5221365580559808749",
      "cid": "5221365580559808749",
      "google_id": null,
      "maps_place_token": null
    },
    {
      "name": "Hélène Darroze at The Connaught",
      "address": "Carlos Pl, London W1K 2AL, United Kingdom",
      "note": null,
      "is_favorite": false,
      "lat": 51.5101843,
      "lng": -0.1497608,
      "maps_url": "https://maps.google.com/?cid=5221366505285539381",
      "cid": "5221366505285539381",
      "google_id": null,
      "maps_place_token": null
    },
    {
      "name": "The Connaught Bar",
      "address": "The Connaught, Connaught, 16 Carlos Pl, London W1K 2AL, United Kingdom",
      "note": null,
      "is_favorite": false,
      "lat": 51.510205,
      "lng": -0.1495582,
      "maps_url": "https://maps.google.com/?cid=5221366505268292305",
      "cid": "5221366505268292305",
      "google_id": "/g/11btvg99n3",
      "maps_place_token": null
    },
    {
      "name": "Library Bar",
      "address": "Hyde Park Corner, London SW1X 7TA, United Kingdom",
      "note": null,
      "is_favorite": false,
      "lat": 51.5026581,
      "lng": -0.1527627,
      "maps_url": "https://maps.google.com/?cid=5221366475282465649",
      "cid": "5221366475282465649",
      "google_id": "/g/1wzt1vrh",
      "maps_place_token": null
    },
    {
      "name": "The Dorchester",
      "address": "53 Park Ln, London W1K 1QA, United Kingdom",
      "note": null,
      "is_favorite": false,
      "lat": 51.5070726,
      "lng": -0.1522442,
      "maps_url": "https://maps.google.com/?cid=5221366142763744393",
      "cid": "5221366142763744393",
      "google_id": null,
      "maps_place_token": null
    },
    {
      "name": "Hyde Park",
      "address": "London, United Kingdom",
      "note": null,
      "is_favorite": false,
      "lat": 51.5073638,
      "lng": -0.1641135,
      "maps_url": "https://maps.google.com/?cid=5221366629762865797",
      "cid": "5221366629762865797",
      "google_id": null,
      "maps_place_token": null
    },
    {
      "name": "Dinner by Heston Blumenthal",
      "address": "66 Knightsbridge, London SW1X 7LA, United Kingdom",
      "note": null,
      "is_favorite": false,
      "lat": 51.502161,
      "lng": -0.159964,
      "maps_url": "https://maps.google.com/?cid=5221366562920084807",
      "cid": "5221366562920084807",
      "google_id": "/g/155q_gh3",
      "maps_place_token": null
    },
    {
      "name": "Sumi Restaurant",
      "address": "157 Westbourne Grove, London W11 2RS, United Kingdom",
      "note": null,
      "is_favorite": false,
      "lat": 51.514804,
      "lng": -0.1963739,
      "maps_url": "https://maps.google.com/?cid=5221377663873600043",
      "cid": "5221377663873600043",
      "google_id": "/g/11lg39l925",
      "maps_place_token": null
    },
    {
      "name": "Fabrique",
      "address": "212 Portobello Rd, London W11 1LA, United Kingdom",
      "note": null,
      "is_favorite": false,
      "lat": 51.5166974,
      "lng": -0.2053682,
      "maps_url": "https://maps.google.com/?cid=5221378538382799291",
      "cid": "5221378538382799291",
      "google_id": "/g/11ckkx9bvm",
      "maps_place_token": null
    },
    {
      "name": "Farmacy",
      "address": "74-76 Westbourne Grove, London W2 5SH, United Kingdom",
      "note": null,
      "is_favorite": false,
      "lat": 51.515436,
      "lng": -0.1927123,
      "maps_url": "https://maps.google.com/?cid=5221378418320283735",
      "cid": "5221378418320283735",
      "google_id": "/g/11cn0kf5cf",
      "maps_place_token": null
    },
    {
      "name": "The Distillery",
      "address": "186 Portobello Rd, London W11 1LA, United Kingdom",
      "note": null,
      "is_favorite": false,
      "lat": 51.5160552,
      "lng": -0.20486769999999999,
      "maps_url": "https://maps.google.com/?cid=5221378538619746723",
      "cid": "5221378538619746723",
      "google_id": "/g/11bzzygfgt",
      "maps_place_token": null
    },
    {
      "name": "Electric Diner",
      "address": "191 Portobello Rd, London W11 2ED, United Kingdom",
      "note": null,
      "is_favorite": false,
      "lat": 51.5155702,
      "lng": -0.20496419999999999,
      "maps_url": "https://maps.google.com/?cid=5221378538751424161",
      "cid": "5221378538751424161",
      "google_id": "/g/11cfj6r4y",
      "maps_place_token": null
    },
    {
      "name": "Trailer Happiness",
      "address": "177 Portobello Rd, London W11 2DY, United Kingdom",
      "note": null,
      "is_favorite": false,
      "lat": 51.514989299999996,
      "lng": -0.20458859999999998,
      "maps_url": "https://maps.google.com/?cid=5221378538621761051",
      "cid": "5221378538621761051",
      "google_id": "/g/1td52xyd",
      "maps_place_token": null
    },
    {
      "name": "Core by Clare Smyth",
      "address": "92 Kensington Park Rd, London W11 2PN, United Kingdom",
      "note": null,
      "is_favorite": false,
      "lat": 51.5127727,
      "lng": -0.2031335,
      "maps_url": "https://maps.google.com/?cid=5221378282783266133",
      "cid": "5221378282783266133",
      "google_id": "/g/11dfh5hpg5",
      "maps_place_token": null
    },
    {
      "name": "The Ladbroke Arms",
      "address": "54 Ladbroke Rd, London W11 3NW, United Kingdom",
      "note": null,
      "is_favorite": false,
      "lat": 51.5090928,
      "lng": -0.20290139999999998,
      "maps_url": "https://maps.google.com/?cid=5221378292007819015",
      "cid": "5221378292007819015",
      "google_id": "/g/1tfcsq3l",
      "maps_place_token": null
    },
    {
      "name": "The Churchill Arms, Kensington",
      "address": "119 Kensington Church St, London W8 7LN, United Kingdom",
      "note": null,
      "is_favorite": false,
      "lat": 51.506911699999996,
      "lng": -0.194801,
      "maps_url": "https://maps.google.com/?cid=5221378385234964505",
      "cid": "5221378385234964505",
      "google_id": "/g/11d_wtfd5b",
      "maps_place_token": null
    },
    {
      "name": "Dishoom Kensington",
      "address": "4 Derry St, London W8 5SE, United Kingdom",
      "note": null,
      "is_favorite": false,
      "lat": 51.5012647,
      "lng": -0.191139,
      "maps_url": "https://maps.google.com/?cid=5221378371374087103",
      "cid": "5221378371374087103",
      "google_id": "/g/11f1568cfg",
      "maps_place_token": null
    },
    {
      "name": "Notting Hill Coffee Project",
      "address": "63 Notting Hill Gate, London W11 3JS, United Kingdom",
      "note": null,
      "is_favorite": false,
      "lat": 51.5088807,
      "lng": -0.1966195,
      "maps_url": "https://maps.google.com/?cid=5221378111139783415",
      "cid": "5221378111139783415",
      "google_id": "/g/11j1t0hq5n",
      "maps_place_token": null
    },
    {
      "name": "Natural History Museum",
      "address": "Cromwell Rd, South Kensington, London SW7 5BD, United Kingdom",
      "note": null,
      "is_favorite": false,
      "lat": 51.496714999999995,
      "lng": -0.1763672,
      "maps_url": "https://maps.google.com/?cid=5221366602868993855",
      "cid": "5221366602868993855",
      "google_id": null,
      "maps_place_token": null
    },
    {
      "name": "Science Museum",
      "address": "Exhibition Rd, South Kensington, London SW7 2DD, United Kingdom",
      "note": null,
      "is_favorite": false,
      "lat": 51.497221599999996,
      "lng": -0.1767283,
      "maps_url": "https://maps.google.com/?cid=5221366603622439487",
      "cid": "5221366603622439487",
      "google_id": null,
      "maps_place_token": null
    },
    {
      "name": "Claude Bosi at Bibendum",
      "address": "Michelin House, 81 Fulham Rd., London SW3 6RD, United Kingdom",
      "note": null,
      "is_favorite": false,
      "lat": 51.493331,
      "lng": -0.16893,
      "maps_url": "https://maps.google.com/?cid=5221366771025798063",
      "cid": "5221366771025798063",
      "google_id": "/g/11c70h1h54",
      "maps_place_token": null
    },
    {
      "name": "A. Wong",
      "address": "70 Wilton Rd, Pimlico, London SW1V 1DE, United Kingdom",
      "note": null,
      "is_favorite": false,
      "lat": 51.493006,
      "lng": -0.1405639,
      "maps_url": "https://maps.google.com/?cid=5221366178593245329",
      "cid": "5221366178593245329",
      "google_id": "/g/1hc2ng28k",
      "maps_place_token": null
    },
    {
      "name": "Gordon Ramsay Bar & Grill - Chelsea",
      "address": "79 Royal Hospital Rd, London SW3 4AN, United Kingdom",
      "note": null,
      "is_favorite": false,
      "lat": 51.485958399999994,
      "lng": -0.1614697,
      "maps_url": "https://maps.google.com/?cid=5221366397142497381",
      "cid": "5221366397142497381",
      "google_id": "/g/1tdxkbj9",
      "maps_place_token": null
    },
    {
      "name": "Min Jiang",
      "address": null,
      "note": null,
      "is_favorite": false,
      "lat": 51.5027523,
      "lng": -0.1878415,
      "maps_url": "https://maps.google.com/?cid=5221378375267343563",
      "cid": "5221378375267343563",
      "google_id": null,
      "maps_place_token": null
    }
  ]
}
