{
  "fetched_at": "2026-04-15T23:44:39.068045+00:00",
  "refresh_after": "2026-04-29T23:44:39.068045+00:00",
  "source_signature": "f6f6e1899a58ec7015e731ed663df16075a354164be6a6847aa5bda3c77b8d9e",
  "configured_source_type": "google_list_url",
  "configured_source_url": "https://maps.app.goo.gl/y1PCGeedt9tPT9W7A",
  "configured_source_path": null,
  "source_url": "https://maps.app.goo.gl/y1PCGeedt9tPT9W7A",
  "list_id": "hIXNPGKLWZZ4WqzZZT6E9zxcmcVTRw",
  "title": "Luxembourg 🇱🇺",
  "description": null,
  "places": [
    {
      "name": "BLOOM SPECIALTY COFFEE SHOP",
      "address": "101 Rue Adolphe Fischer, 1521 Gare Luxembourg",
      "note": null,
      "is_favorite": false,
      "lat": 49.600837,
      "lng": 6.1280624999999995,
      "maps_url": "https://maps.google.com/?cid=5158109009224853475",
      "cid": "5158109009224853475",
      "google_id": "/g/11c2j_h2sj",
      "maps_place_token": null
    },
    {
      "name": "Café-Restaurant Um Dierfgen",
      "address": "6 Cote d'Eich, 1450 Ville-Haute Luxembourg",
      "note": null,
      "is_favorite": false,
      "lat": 49.612145299999995,
      "lng": 6.1316291,
      "maps_url": "https://maps.google.com/?cid=5158116002518512197",
      "cid": "5158116002518512197",
      "google_id": "/g/11b6dr9nn2",
      "maps_place_token": null
    },
    {
      "name": "Cathedral Notre-Dame of Luxembourg",
      "address": "Rue Notre Dame, 2240 Ville-Haute Luxembourg",
      "note": null,
      "is_favorite": false,
      "lat": 49.6099441,
      "lng": 6.131558,
      "maps_url": "https://maps.google.com/?cid=5158109026398603249",
      "cid": "5158109026398603249",
      "google_id": null,
      "maps_place_token": null
    },
    {
      "name": "Galeries Lafayette Luxembourg",
      "address": "103 Grand-Rue, 1661 Ville-Haute Luxembourg",
      "note": null,
      "is_favorite": false,
      "lat": 49.6120969,
      "lng": 6.1266283,
      "maps_url": "https://maps.google.com/?cid=5158116288777770233",
      "cid": "5158116288777770233",
      "google_id": "/g/11j3mqlw1_",
      "maps_place_token": null
    },
    {
      "name": "Chemin de la Corniche",
      "address": "Chemin de la Corniche, 2722 Ville-Haute Luxembourg",
      "note": null,
      "is_favorite": false,
      "lat": 49.6092387,
      "lng": 6.134004399999999,
      "maps_url": "https://maps.google.com/?cid=5158109017522543615",
      "cid": "5158109017522543615",
      "google_id": "/g/11rkgl2qry",
      "maps_place_token": null
    },
    {
      "name": "La Grande Tempérance Statue",
      "address": "18 Av. Emile Reuter, 2420 Ville-Haute Luxembourg",
      "note": null,
      "is_favorite": false,
      "lat": 49.612623199999994,
      "lng": 6.1228183,
      "maps_url": "https://maps.google.com/?cid=5158116475433285833",
      "cid": "5158116475433285833",
      "google_id": "/g/11r1jfxrvf",
      "maps_place_token": null
    },
    {
      "name": "Place d‘Armes",
      "address": null,
      "note": null,
      "is_favorite": false,
      "lat": 49.6113393,
      "lng": 6.1294756,
      "maps_url": "https://maps.google.com/?cid=5158115810225888451",
      "cid": "5158115810225888451",
      "google_id": null,
      "maps_place_token": null
    },
    {
      "name": "Casino Luxembourg",
      "address": "41 Rue Notre Dame, 2240 Ville-Haute Luxembourg",
      "note": null,
      "is_favorite": false,
      "lat": 49.6098,
      "lng": 6.12714,
      "maps_url": "https://maps.google.com/?cid=5158109026842594069",
      "cid": "5158109026842594069",
      "google_id": "/g/11byzcb4vk",
      "maps_place_token": null
    },
    {
      "name": "ARBED building",
      "address": "1841 Ville Haute Luxembourg",
      "note": null,
      "is_favorite": false,
      "lat": 49.6055839,
      "lng": 6.1297415,
      "maps_url": "https://maps.google.com/?cid=5158116002618214565",
      "cid": "5158116002618214565",
      "google_id": null,
      "maps_place_token": null
    },
    {
      "name": "Pl. de Paris",
      "address": "Pl. de Paris, 1931 Gare Luxembourg",
      "note": null,
      "is_favorite": false,
      "lat": 49.603825199999996,
      "lng": 6.1310229,
      "maps_url": "https://maps.google.com/?cid=5158109013649706307",
      "cid": "5158109013649706307",
      "google_id": "/g/11g1bpywlg",
      "maps_place_token": null
    },
    {
      "name": "Philharmonie Luxembourg",
      "address": "1 Pl. de l'Europe, 1499 Clausen Luxembourg",
      "note": null,
      "is_favorite": false,
      "lat": 49.618569699999995,
      "lng": 6.1424806,
      "maps_url": "https://maps.google.com/?cid=5158116019110431681",
      "cid": "5158116019110431681",
      "google_id": null,
      "maps_place_token": null
    },
    {
      "name": "Panoramic Elevator of the Pfaffenthal",
      "address": "2 Rue du Pont, 2344 Pafendall Luxembourg",
      "note": null,
      "is_favorite": false,
      "lat": 49.6153754,
      "lng": 6.129774599999999,
      "maps_url": "https://maps.google.com/?cid=5158115998676347309",
      "cid": "5158115998676347309",
      "google_id": "/g/11c0xhbxw5",
      "maps_place_token": null
    },
    {
      "name": "Skatepark Péitruss",
      "address": null,
      "note": null,
      "is_favorite": false,
      "lat": 49.6066248,
      "lng": 6.1329018,
      "maps_url": "https://maps.google.com/?cid=5158109015387506593",
      "cid": "5158109015387506593",
      "google_id": null,
      "maps_place_token": null
    },
    {
      "name": "Nationalmusée um Fëschmaart",
      "address": "Marché-aux-Poissons, 2345, Luxembourg",
      "note": null,
      "is_favorite": false,
      "lat": 49.611641899999995,
      "lng": 6.133858699999999,
      "maps_url": "https://maps.google.com/?cid=5158109553912719533",
      "cid": "5158109553912719533",
      "google_id": null,
      "maps_place_token": null
    },
    {
      "name": "Pont Adolphe",
      "address": "Uewerstad, 2320 Ville-Haute Luxembourg",
      "note": null,
      "is_favorite": false,
      "lat": 49.608353099999995,
      "lng": 6.1270177,
      "maps_url": "https://maps.google.com/?cid=5158109025203251163",
      "cid": "5158109025203251163",
      "google_id": null,
      "maps_place_token": null
    },
    {
      "name": "Pétrusse Casemates",
      "address": "Place de la Constitution Luxembourg, 2450, Luxembourg",
      "note": null,
      "is_favorite": false,
      "lat": 49.6094551,
      "lng": 6.1298296,
      "maps_url": "https://maps.google.com/?cid=5158109020874839687",
      "cid": "5158109020874839687",
      "google_id": null,
      "maps_place_token": null
    },
    {
      "name": "La Passerelle",
      "address": "5 Av. de la Gare, 1611 Ville-Haute Luxembourg",
      "note": null,
      "is_favorite": false,
      "lat": 49.6056473,
      "lng": 6.1337245,
      "maps_url": "https://maps.google.com/?cid=5158109014480022743",
      "cid": "5158109014480022743",
      "google_id": null,
      "maps_place_token": null
    },
    {
      "name": "Casemates du Bock",
      "address": "10 Montee de Clausen, 1343 Grund Luxembourg",
      "note": null,
      "is_favorite": false,
      "lat": 49.6117888,
      "lng": 6.1365853,
      "maps_url": "https://maps.google.com/?cid=5158116028213325365",
      "cid": "5158116028213325365",
      "google_id": "/g/1224z0rh",
      "maps_place_token": null
    },
    {
      "name": "Fort Thüngen",
      "address": "Rives de Clausen, 1499 Clausen Lëtzebuerg, Luxembourg",
      "note": null,
      "is_favorite": false,
      "lat": 49.6170171,
      "lng": 6.140238399999999,
      "maps_url": "https://maps.google.com/?cid=5158116022710674359",
      "cid": "5158116022710674359",
      "google_id": null,
      "maps_place_token": null
    },
    {
      "name": "Place de la Constitution",
      "address": "2 Bd Franklin Delano Roosevelt, 1116 Ville-Haute Luxembourg",
      "note": null,
      "is_favorite": false,
      "lat": 49.609296699999994,
      "lng": 6.129454099999999,
      "maps_url": "https://maps.google.com/?cid=5158109026132046817",
      "cid": "5158109026132046817",
      "google_id": "/g/11cjkh0jvt",
      "maps_place_token": null
    },
    {
      "name": "Mudam Museum of Modern Art",
      "address": "3 Park Drai Eechelen, 1499 Clausen Luxembourg",
      "note": null,
      "is_favorite": false,
      "lat": 49.6171219,
      "lng": 6.140340999999999,
      "maps_url": "https://maps.google.com/?cid=5158116020344821421",
      "cid": "5158116020344821421",
      "google_id": null,
      "maps_place_token": null
    },
    {
      "name": "William Square",
      "address": "23 Rue du Fossé, 1536 Ville-Haute Luxembourg",
      "note": null,
      "is_favorite": false,
      "lat": 49.610641699999995,
      "lng": 6.1309702,
      "maps_url": "https://maps.google.com/?cid=5158109020173483041",
      "cid": "5158109020173483041",
      "google_id": null,
      "maps_place_token": null
    },
    {
      "name": "Palais Grand-Ducal",
      "address": "17 Rue du Marché-aux-Herbes, 1728 Ville-Haute Luxembourg",
      "note": null,
      "is_favorite": false,
      "lat": 49.610887899999994,
      "lng": 6.1327603,
      "maps_url": "https://maps.google.com/?cid=5158116003826921823",
      "cid": "5158116003826921823",
      "google_id": null,
      "maps_place_token": null
    }
  ]
}
