{
  "fetched_at": "2026-04-15T23:52:30.927369+00:00",
  "refresh_after": "2026-04-29T23:52:30.927369+00:00",
  "source_signature": "055b2c68d59746ead29a0d9440b4f806e0222c7124cc40df46e0fef18d96d4d5",
  "configured_source_type": "google_list_url",
  "configured_source_url": "https://maps.app.goo.gl/Tdk96kR7P2qpULaS7",
  "configured_source_path": null,
  "source_url": "https://maps.app.goo.gl/Tdk96kR7P2qpULaS7",
  "list_id": "ENZlyhNURCG72dWGcCxDUw",
  "title": "Maine Coast, United States 🇺🇸",
  "description": "Michael's list for the Maine Coast, United States 🇺🇸 See https://beacons.ai/demflyers for more.",
  "places": [
    {
      "name": "Kennebunkport Historic District",
      "address": "6 Elm St, Kennebunkport, ME 04046, United States",
      "note": null,
      "is_favorite": false,
      "lat": 43.360356599999996,
      "lng": -70.4754085,
      "maps_url": "https://maps.google.com/?cid=5526668341901046765",
      "cid": "5526668341901046765",
      "google_id": null,
      "maps_place_token": null
    },
    {
      "name": "Seashore Trolley Museum",
      "address": "195 Log Cabin Rd, Kennebunkport, ME 04046, United States",
      "note": null,
      "is_favorite": false,
      "lat": 43.4091118,
      "lng": -70.4893944,
      "maps_url": "https://maps.google.com/?cid=5526672011399248717",
      "cid": "5526672011399248717",
      "google_id": null,
      "maps_place_token": null
    },
    {
      "name": "Blowing Cave Park",
      "address": "208 Ocean Ave, Kennebunkport, ME 04046, United States",
      "note": null,
      "is_favorite": false,
      "lat": 43.3439659,
      "lng": -70.4629163,
      "maps_url": "https://maps.google.com/?cid=5526668434177048799",
      "cid": "5526668434177048799",
      "google_id": "/g/11c606jvf_",
      "maps_place_token": null
    },
    {
      "name": "Mabel's Lobster Claw",
      "address": "124 Ocean Ave, Kennebunkport, ME 04046, United States",
      "note": null,
      "is_favorite": false,
      "lat": 43.3492003,
      "lng": -70.47218889999999,
      "maps_url": "https://maps.google.com/?cid=5526668409066665755",
      "cid": "5526668409066665755",
      "google_id": "/g/11c1ptf2gx",
      "maps_place_token": null
    },
    {
      "name": "Arundel Wharf - Seafood - Cocktail Bar - Craft Beer",
      "address": "43 Ocean Ave, Kennebunkport, ME 04046, United States",
      "note": null,
      "is_favorite": false,
      "lat": 43.3587837,
      "lng": -70.4767608,
      "maps_url": "https://maps.google.com/?cid=5526668341580318449",
      "cid": "5526668341580318449",
      "google_id": "/g/1tw_mvfx",
      "maps_place_token": null
    },
    {
      "name": "The Pilot House",
      "address": "State Rte 9, Kennebunk, ME 04043, United States",
      "note": null,
      "is_favorite": false,
      "lat": 43.360332299999996,
      "lng": -70.4787705,
      "maps_url": "https://maps.google.com/?cid=5526668339252293223",
      "cid": "5526668339252293223",
      "google_id": "/g/11bbrlzvb4",
      "maps_place_token": null
    },
    {
      "name": "Alisson's Restaurant",
      "address": "11 Dock Square, Kennebunkport, ME 04046, United States",
      "note": null,
      "is_favorite": false,
      "lat": 43.3616483,
      "lng": -70.4773653,
      "maps_url": "https://maps.google.com/?cid=5526668728212950069",
      "cid": "5526668728212950069",
      "google_id": "/g/1tg9h4kb",
      "maps_place_token": null
    },
    {
      "name": "Rococo Ice Cream",
      "address": "8 Western Ave Unit 5, Kennebunk, ME 04043, United States",
      "note": null,
      "is_favorite": false,
      "lat": 43.3597836,
      "lng": -70.4788808,
      "maps_url": "https://maps.google.com/?cid=5526668727369769901",
      "cid": "5526668727369769901",
      "google_id": "/g/12m95g3fs",
      "maps_place_token": null
    },
    {
      "name": "H B Provisions",
      "address": "15 Western Ave, Kennebunk, ME 04043, United States",
      "note": null,
      "is_favorite": false,
      "lat": 43.360030599999995,
      "lng": -70.48053809999999,
      "maps_url": "https://maps.google.com/?cid=5526668316549397385",
      "cid": "5526668316549397385",
      "google_id": "/g/1v_s5h5s",
      "maps_place_token": null
    },
    {
      "name": "Gooch's Beach",
      "address": "Gooch's Beach, Beach Ave, Kennebunk, ME 04043",
      "note": null,
      "is_favorite": false,
      "lat": 43.346938,
      "lng": -70.485126,
      "maps_url": "https://maps.google.com/?cid=5526668380986074111",
      "cid": "5526668380986074111",
      "google_id": "/g/11c1rthlg1",
      "maps_place_token": null
    },
    {
      "name": "Acadia Perk",
      "address": "5 Firefly Ln, Bar Harbor, ME 04609",
      "note": null,
      "is_favorite": false,
      "lat": 44.388241099999995,
      "lng": -68.2046411,
      "maps_url": "https://maps.google.com/?cid=5525564889876251445",
      "cid": "5525564889876251445",
      "google_id": "/g/11px13hljp",
      "maps_place_token": null
    },
    {
      "name": "Coffee Hound Coffee Co. at the Stadium",
      "address": "62 Main St, Bar Harbor, ME 04609",
      "note": null,
      "is_favorite": false,
      "lat": 44.389833599999996,
      "lng": -68.20448449999999,
      "maps_url": "https://maps.google.com/?cid=5525564337003238867",
      "cid": "5525564337003238867",
      "google_id": "/g/12m93p_wc",
      "maps_place_token": null
    },
    {
      "name": "Choco-Latte Cafe",
      "address": "240 Main St, Bar Harbor, ME 04609",
      "note": null,
      "is_favorite": false,
      "lat": 44.3861539,
      "lng": -68.2038201,
      "maps_url": "https://maps.google.com/?cid=5525564231412273523",
      "cid": "5525564231412273523",
      "google_id": "/g/11b5zz9dtq",
      "maps_place_token": null
    },
    {
      "name": "Udder Heaven Ice Cream Retreat",
      "address": "369 ME-3, Bar Harbor, ME 04609",
      "note": null,
      "is_favorite": false,
      "lat": 44.431007,
      "lng": -68.26724519999999,
      "maps_url": "https://maps.google.com/?cid=5525564250007064637",
      "cid": "5525564250007064637",
      "google_id": "/g/1hc1k0_0l",
      "maps_place_token": null
    },
    {
      "name": "Jordan Pond Ice Cream & Fudge",
      "address": "45 Main St, Bar Harbor, ME 04609",
      "note": null,
      "is_favorite": false,
      "lat": 44.3902231,
      "lng": -68.2049681,
      "maps_url": "https://maps.google.com/?cid=5525564336985919933",
      "cid": "5525564336985919933",
      "google_id": "/g/11bw21xvt4",
      "maps_place_token": null
    },
    {
      "name": "Mount Desert Island Ice Cream",
      "address": "7 Firefly Ln, Bar Harbor, ME 04609",
      "note": null,
      "is_favorite": false,
      "lat": 44.3882328,
      "lng": -68.2047717,
      "maps_url": "https://maps.google.com/?cid=5525564226077064221",
      "cid": "5525564226077064221",
      "google_id": "/g/1tj735th",
      "maps_place_token": null
    },
    {
      "name": "Galyn's",
      "address": "17 Main St, Bar Harbor, ME 04609",
      "note": null,
      "is_favorite": false,
      "lat": 44.3907607,
      "lng": -68.205075,
      "maps_url": "https://maps.google.com/?cid=5525564336979270287",
      "cid": "5525564336979270287",
      "google_id": "/g/1vlz9z74",
      "maps_place_token": null
    },
    {
      "name": "West Street Cafe",
      "address": "76 West St, Bar Harbor, ME 04609",
      "note": null,
      "is_favorite": false,
      "lat": 44.390768099999995,
      "lng": -68.206936,
      "maps_url": "https://maps.google.com/?cid=5525564339359169137",
      "cid": "5525564339359169137",
      "google_id": "/g/1v2f031x",
      "maps_place_token": null
    },
    {
      "name": "Paddy's Irish Pub & Restaurant",
      "address": "50 West St, Bar Harbor, ME 04609",
      "note": null,
      "is_favorite": false,
      "lat": 44.3909466,
      "lng": -68.205646,
      "maps_url": "https://maps.google.com/?cid=5525564338934800189",
      "cid": "5525564338934800189",
      "google_id": "/g/1pp2vcsp5",
      "maps_place_token": null
    },
    {
      "name": "Side Street Cafe",
      "address": "49 Rodick St, Bar Harbor, ME 04609",
      "note": null,
      "is_favorite": false,
      "lat": 44.388359699999995,
      "lng": -68.20634199999999,
      "maps_url": "https://maps.google.com/?cid=5525564334919547253",
      "cid": "5525564334919547253",
      "google_id": "/g/1td09jys",
      "maps_place_token": null
    },
    {
      "name": "Testa's Bar & Grill",
      "address": "53 Main St, Bar Harbor, ME 04609",
      "note": null,
      "is_favorite": false,
      "lat": 44.3900475,
      "lng": -68.2050069,
      "maps_url": "https://maps.google.com/?cid=5525564336978118053",
      "cid": "5525564336978118053",
      "google_id": "/g/1td8yqlb",
      "maps_place_token": null
    },
    {
      "name": "Thirsty Whale Tavern",
      "address": "40 Cottage St, Bar Harbor, ME 04609",
      "note": null,
      "is_favorite": false,
      "lat": 44.3894495,
      "lng": -68.20629749999999,
      "maps_url": "https://maps.google.com/?cid=5525564335987749599",
      "cid": "5525564335987749599",
      "google_id": "/g/1tcww9yy",
      "maps_place_token": null
    },
    {
      "name": "Geddy's",
      "address": "19 Main St, Bar Harbor, ME 04609",
      "note": null,
      "is_favorite": false,
      "lat": 44.390680599999996,
      "lng": -68.2051812,
      "maps_url": "https://maps.google.com/?cid=5525564336978838543",
      "cid": "5525564336978838543",
      "google_id": "/g/1tm880dt",
      "maps_place_token": null
    },
    {
      "name": "Wild Gardens of Acadia",
      "address": "Bar Harbor, ME 04609",
      "note": null,
      "is_favorite": false,
      "lat": 44.362443299999995,
      "lng": -68.2080861,
      "maps_url": "https://maps.google.com/?cid=5525563949297985107",
      "cid": "5525563949297985107",
      "google_id": null,
      "maps_place_token": null
    },
    {
      "name": "Egg Rock Lighthouse",
      "address": "Egg Rock Lighthouse, Bar Harbor, ME 04609",
      "note": null,
      "is_favorite": false,
      "lat": 44.3540474,
      "lng": -68.1381567,
      "maps_url": "https://maps.google.com/?cid=5525557162492066295",
      "cid": "5525557162492066295",
      "google_id": null,
      "maps_place_token": null
    },
    {
      "name": "Bubble Rock",
      "address": "Park Loop Rd, Mt Desert, ME 04660",
      "note": null,
      "is_favorite": false,
      "lat": 44.339249699999996,
      "lng": -68.2533474,
      "maps_url": "https://maps.google.com/?cid=5525563312662164933",
      "cid": "5525563312662164933",
      "google_id": "/g/11ckw28mbm",
      "maps_place_token": null
    },
    {
      "name": "Thunder Hole",
      "address": "Bar Harbor, ME 04609",
      "note": null,
      "is_favorite": false,
      "lat": 44.320611799999995,
      "lng": -68.18855789999999,
      "maps_url": "https://maps.google.com/?cid=5525557603061445253",
      "cid": "5525557603061445253",
      "google_id": "/g/11bbrkpxky",
      "maps_place_token": null
    },
    {
      "name": "Agamont Park",
      "address": "Newport Dr, Bar Harbor, ME 04609",
      "note": null,
      "is_favorite": false,
      "lat": 44.3908603,
      "lng": -68.20442369999999,
      "maps_url": "https://maps.google.com/?cid=5525564337375692875",
      "cid": "5525564337375692875",
      "google_id": "/g/1tgw4mls",
      "maps_place_token": null
    },
    {
      "name": "Abbe Museum",
      "address": "26 Mt Desert St, Bar Harbor, ME 04609",
      "note": null,
      "is_favorite": false,
      "lat": 44.3870528,
      "lng": -68.2060494,
      "maps_url": "https://maps.google.com/?cid=5525564329139080793",
      "cid": "5525564329139080793",
      "google_id": null,
      "maps_place_token": null
    },
    {
      "name": "Bar Harbor Shore path",
      "address": "48-52 Hancock St, Bar Harbor, ME 04609",
      "note": null,
      "is_favorite": false,
      "lat": 44.386695599999996,
      "lng": -68.197434,
      "maps_url": "https://maps.google.com/?cid=5525564229049064701",
      "cid": "5525564229049064701",
      "google_id": "/g/11g81rl3jv",
      "maps_place_token": null
    },
    {
      "name": "Megunticook Falls",
      "address": "33 Main St, Camden, ME 04843, United States",
      "note": null,
      "is_favorite": false,
      "lat": 44.2105743,
      "lng": -69.06386499999999,
      "maps_url": "https://maps.google.com/?cid=5525308764087913119",
      "cid": "5525308764087913119",
      "google_id": "/g/11c38j_v25",
      "maps_place_token": null
    },
    {
      "name": "The Waterfront Restaurant",
      "address": "48 Bay View St, Camden, ME 04843",
      "note": null,
      "is_favorite": false,
      "lat": 44.2084997,
      "lng": -69.06289799999999,
      "maps_url": "https://maps.google.com/?cid=5525308775550035117",
      "cid": "5525308775550035117",
      "google_id": "/g/1ty73w59",
      "maps_place_token": null
    },
    {
      "name": "Rockland Café",
      "address": "441 Main St, Rockland, ME 04841, United States",
      "note": null,
      "is_favorite": false,
      "lat": 44.1052064,
      "lng": -69.10898929999999,
      "maps_url": "https://maps.google.com/?cid=5525298992188472435",
      "cid": "5525298992188472435",
      "google_id": "/g/11bbrjm7bp",
      "maps_place_token": null
    },
    {
      "name": "Park Street Grille",
      "address": "1 Park Dr, Rockland, ME 04841, United States",
      "note": null,
      "is_favorite": false,
      "lat": 44.102135399999995,
      "lng": -69.1078053,
      "maps_url": "https://maps.google.com/?cid=5525298976496562181",
      "cid": "5525298976496562181",
      "google_id": "/g/1thznhfj",
      "maps_place_token": null
    },
    {
      "name": "Hill's Seafood Co",
      "address": "266 Main St, Rockland, ME 04841, United States",
      "note": null,
      "is_favorite": false,
      "lat": 44.1013884,
      "lng": -69.1092753,
      "maps_url": "https://maps.google.com/?cid=5525298976373444673",
      "cid": "5525298976373444673",
      "google_id": "/g/11b5qyr13j",
      "maps_place_token": null
    },
    {
      "name": "Wasses Hot Dogs",
      "address": "2 N Main St, Rockland, ME 04841, United States",
      "note": null,
      "is_favorite": false,
      "lat": 44.109293699999995,
      "lng": -69.1099978,
      "maps_url": "https://maps.google.com/?cid=5525303035501807775",
      "cid": "5525303035501807775",
      "google_id": "/g/1pp2tys6d",
      "maps_place_token": null
    },
    {
      "name": "Camden Hills State Park",
      "address": "280 Belfast Rd, Camden, ME 04843, United States",
      "note": null,
      "is_favorite": false,
      "lat": 44.2310537,
      "lng": -69.0482997,
      "maps_url": "https://maps.google.com/?cid=5525485872069289867",
      "cid": "5525485872069289867",
      "google_id": null,
      "maps_place_token": null
    },
    {
      "name": "Andre The Seal Statue",
      "address": null,
      "note": null,
      "is_favorite": false,
      "lat": 44.186213599999995,
      "lng": -69.0737224,
      "maps_url": "https://maps.google.com/?cid=5525309033355700423",
      "cid": "5525309033355700423",
      "google_id": null,
      "maps_place_token": null
    },
    {
      "name": "Beech Hill Preserve",
      "address": "316 Beech Hill Rd, Rockport, ME 04856, United States",
      "note": null,
      "is_favorite": false,
      "lat": 44.1659581,
      "lng": -69.0978767,
      "maps_url": "https://maps.google.com/?cid=5525301847852696859",
      "cid": "5525301847852696859",
      "google_id": "/g/11clw07zjf",
      "maps_place_token": null
    },
    {
      "name": "River Ducks Ice Cream",
      "address": "19 Mechanic St, Camden, ME 04843",
      "note": null,
      "is_favorite": false,
      "lat": 44.210398399999995,
      "lng": -69.065648,
      "maps_url": "https://maps.google.com/?cid=5525308762372546611",
      "cid": "5525308762372546611",
      "google_id": "/g/11cr_h1n8j",
      "maps_place_token": null
    },
    {
      "name": "Ada's Kitchen",
      "address": "449 Main St, Rockland, ME 04841, United States",
      "note": null,
      "is_favorite": false,
      "lat": 44.105337999999996,
      "lng": -69.10916399999999,
      "maps_url": "https://maps.google.com/?cid=5525298991573237759",
      "cid": "5525298991573237759",
      "google_id": "/g/11gclzl1q4",
      "maps_place_token": null
    },
    {
      "name": "Peter Ott's on the Water",
      "address": "16 Bay Vw Lndg, Camden, ME 04843",
      "note": null,
      "is_favorite": false,
      "lat": 44.209434099999996,
      "lng": -69.0632552,
      "maps_url": "https://maps.google.com/?cid=5525308764841855939",
      "cid": "5525308764841855939",
      "google_id": "/g/1ttq1q2m",
      "maps_place_token": null
    },
    {
      "name": "Primo Restaurant",
      "address": "2 Main St, Rockland, ME 04841, United States",
      "note": null,
      "is_favorite": false,
      "lat": 44.0899783,
      "lng": -69.1105549,
      "maps_url": "https://maps.google.com/?cid=5525299089494801955",
      "cid": "5525299089494801955",
      "google_id": null,
      "maps_place_token": null
    },
    {
      "name": "Fort Knox and Penobscot Narrows Observatory",
      "address": "740 Ft Knox Rd, Prospect, ME 04981",
      "note": null,
      "is_favorite": false,
      "lat": 44.5665471,
      "lng": -68.80427639999999,
      "maps_url": "https://maps.google.com/?cid=5525455803449679939",
      "cid": "5525455803449679939",
      "google_id": null,
      "maps_place_token": null
    },
    {
      "name": "Archer’s on the Pier",
      "address": "58 Ocean St, Rockland, ME 04841, United States",
      "note": null,
      "is_favorite": false,
      "lat": 44.0989699,
      "lng": -69.1050388,
      "maps_url": "https://maps.google.com/?cid=5525302930903887359",
      "cid": "5525302930903887359",
      "google_id": "/g/1263pcwhb",
      "maps_place_token": null
    },
    {
      "name": "Bass Harbor Head Light Station",
      "address": "116 Lighthouse Rd, Bass Harbor, ME 04653",
      "note": null,
      "is_favorite": false,
      "lat": 44.2219908,
      "lng": -68.33726229999999,
      "maps_url": "https://maps.google.com/?cid=5525533726240972865",
      "cid": "5525533726240972865",
      "google_id": null,
      "maps_place_token": null
    },
    {
      "name": "Penobscot Narrows Bridge Observatory",
      "address": "740 Ft Knox Rd, Prospect, ME 04981",
      "note": null,
      "is_favorite": false,
      "lat": 44.5605306,
      "lng": -68.80378019999999,
      "maps_url": "https://maps.google.com/?cid=5525455785493156129",
      "cid": "5525455785493156129",
      "google_id": "/g/11bw5twf4q",
      "maps_place_token": null
    },
    {
      "name": "Birch Point State Park",
      "address": "459 S Shore Dr, Owls Head, ME 04854, United States",
      "note": null,
      "is_favorite": false,
      "lat": 44.0413911,
      "lng": -69.09718029999999,
      "maps_url": "https://maps.google.com/?cid=5525296688256842409",
      "cid": "5525296688256842409",
      "google_id": null,
      "maps_place_token": null
    },
    {
      "name": "Coastal Maine Botanical Gardens",
      "address": "105 Botanical Gdns Dr, Boothbay, ME 04537, United States",
      "note": null,
      "is_favorite": false,
      "lat": 43.8721277,
      "lng": -69.6589985,
      "maps_url": "https://maps.google.com/?cid=5525241199685723761",
      "cid": "5525241199685723761",
      "google_id": null,
      "maps_place_token": null
    },
    {
      "name": "Maine Lighthouse Museum",
      "address": "1 Park Dr, Rockland, ME 04841, United States",
      "note": null,
      "is_favorite": false,
      "lat": 44.1020779,
      "lng": -69.107986,
      "maps_url": "https://maps.google.com/?cid=5525298979320242501",
      "cid": "5525298979320242501",
      "google_id": "/g/1w111srh",
      "maps_place_token": null
    },
    {
      "name": "Marshall Point Lighthouse & Museum",
      "address": "Marshall Point Rd, Port Clyde, ME 04855, United States",
      "note": null,
      "is_favorite": false,
      "lat": 43.9174333,
      "lng": -69.2612762,
      "maps_url": "https://maps.google.com/?cid=5525273362572438159",
      "cid": "5525273362572438159",
      "google_id": "/g/1jlj_4zx1",
      "maps_place_token": null
    },
    {
      "name": "Pemaquid Point Lighthouse",
      "address": "3115 Bristol Rd, New Harbor, ME 04554, United States",
      "note": null,
      "is_favorite": false,
      "lat": 43.8369934,
      "lng": -69.5059356,
      "maps_url": "https://maps.google.com/?cid=5525237080240359783",
      "cid": "5525237080240359783",
      "google_id": null,
      "maps_place_token": null
    },
    {
      "name": "Owls Head State Park",
      "address": "186 Lighthouse Rd, Owls Head, ME 04854, United States",
      "note": null,
      "is_favorite": false,
      "lat": 44.091274299999995,
      "lng": -69.05001159999999,
      "maps_url": "https://maps.google.com/?cid=5525298762503857149",
      "cid": "5525298762503857149",
      "google_id": "/g/1v8y3mqq",
      "maps_place_token": null
    },
    {
      "name": "Harbor Park",
      "address": "1 Pleasant St, Rockland, ME 04841, United States",
      "note": null,
      "is_favorite": false,
      "lat": 44.1010858,
      "lng": -69.1084041,
      "maps_url": "https://maps.google.com/?cid=5525298976245345199",
      "cid": "5525298976245345199",
      "google_id": "/g/1tm8dl64",
      "maps_place_token": null
    },
    {
      "name": "Claws",
      "address": "743 Main St, Rockland, ME 04841, United States",
      "note": null,
      "is_favorite": false,
      "lat": 44.1117869,
      "lng": -69.106638,
      "maps_url": "https://maps.google.com/?cid=5525303038813487895",
      "cid": "5525303038813487895",
      "google_id": "/g/1q5bl173y",
      "maps_place_token": null
    },
    {
      "name": "Hazel's Take-out",
      "address": "557 Old County Rd, Rockland, ME 04841, United States",
      "note": null,
      "is_favorite": false,
      "lat": 44.1236495,
      "lng": -69.116867,
      "maps_url": "https://maps.google.com/?cid=5525301227778185341",
      "cid": "5525301227778185341",
      "google_id": "/g/11bvcv7dry",
      "maps_place_token": null
    },
    {
      "name": "Trackside Station",
      "address": "4 Union St, Rockland, ME 04841, United States",
      "note": null,
      "is_favorite": false,
      "lat": 44.1008722,
      "lng": -69.11081109999999,
      "maps_url": "https://maps.google.com/?cid=5525298977878465845",
      "cid": "5525298977878465845",
      "google_id": "/g/1v0lkcgp",
      "maps_place_token": null
    },
    {
      "name": "Waterworks Restaurant",
      "address": "7 Lindsey St, Rockland, ME 04841, United States",
      "note": null,
      "is_favorite": false,
      "lat": 44.1061026,
      "lng": -69.1102631,
      "maps_url": "https://maps.google.com/?cid=5525298993829712733",
      "cid": "5525298993829712733",
      "google_id": "/g/1vlz9z6j",
      "maps_place_token": null
    },
    {
      "name": "Home Kitchen Cafe",
      "address": "650 Main St, Rockland, ME 04841, United States",
      "note": null,
      "is_favorite": false,
      "lat": 44.110341899999995,
      "lng": -69.1093691,
      "maps_url": "https://maps.google.com/?cid=5525303035956388065",
      "cid": "5525303035956388065",
      "google_id": "/g/1wc30vcj",
      "maps_place_token": null
    },
    {
      "name": "Rockland Breakwater Lighthouse",
      "address": "44.104031, -69.077487, Rockland, ME 04841, United States",
      "note": null,
      "is_favorite": false,
      "lat": 44.104054399999995,
      "lng": -69.07747479999999,
      "maps_url": "https://maps.google.com/?cid=5525303202608172787",
      "cid": "5525303202608172787",
      "google_id": null,
      "maps_place_token": null
    },
    {
      "name": "McLoons Lobster Shack",
      "address": "315 Island Rd, South Thomaston, ME 04858, United States",
      "note": null,
      "is_favorite": false,
      "lat": 43.995348899999996,
      "lng": -69.1178795,
      "maps_url": "https://maps.google.com/?cid=5525294742149061777",
      "cid": "5525294742149061777",
      "google_id": "/g/11b6_bfp9t",
      "maps_place_token": null
    },
    {
      "name": "Rockport",
      "address": "Camden, ME",
      "note": null,
      "is_favorite": false,
      "lat": 44.1910592,
      "lng": -69.079469,
      "maps_url": "https://maps.google.com/?cid=5525301657574830083",
      "cid": "5525301657574830083",
      "google_id": null,
      "maps_place_token": null
    },
    {
      "name": "Bar Harbor",
      "address": "Bar Harbor, ME",
      "note": null,
      "is_favorite": false,
      "lat": 44.3875617,
      "lng": -68.2042989,
      "maps_url": "https://maps.google.com/?cid=5525563009637819795",
      "cid": "5525563009637819795",
      "google_id": null,
      "maps_place_token": null
    },
    {
      "name": "Kennebunkport",
      "address": "Kennebunkport, ME 04046",
      "note": null,
      "is_favorite": false,
      "lat": 43.361726399999995,
      "lng": -70.4767957,
      "maps_url": "https://maps.google.com/?cid=5526665776006530025",
      "cid": "5526665776006530025",
      "google_id": null,
      "maps_place_token": null
    },
    {
      "name": "Acadia National Park",
      "address": null,
      "note": null,
      "is_favorite": false,
      "lat": 44.338555899999996,
      "lng": -68.2733346,
      "maps_url": "https://maps.google.com/?cid=5525533777975191845",
      "cid": "5525533777975191845",
      "google_id": null,
      "maps_place_token": null
    },
    {
      "name": "Rangeley Lake",
      "address": null,
      "note": null,
      "is_favorite": false,
      "lat": 44.9415062,
      "lng": -70.6972061,
      "maps_url": "https://maps.google.com/?cid=5526264124967198561",
      "cid": "5526264124967198561",
      "google_id": null,
      "maps_place_token": null
    },
    {
      "name": "Camden",
      "address": "Camden, ME",
      "note": null,
      "is_favorite": false,
      "lat": 44.209792799999995,
      "lng": -69.0647838,
      "maps_url": "https://maps.google.com/?cid=5525309852018442949",
      "cid": "5525309852018442949",
      "google_id": null,
      "maps_place_token": null
    },
    {
      "name": "Sebago Lake",
      "address": null,
      "note": null,
      "is_favorite": false,
      "lat": 43.853733999999996,
      "lng": -70.5620952,
      "maps_url": "https://maps.google.com/?cid=5526748467279445773",
      "cid": "5526748467279445773",
      "google_id": null,
      "maps_place_token": null
    },
    {
      "name": "Boothbay Harbor",
      "address": "Boothbay Harbor, ME 04538",
      "note": null,
      "is_favorite": false,
      "lat": 43.852304499999995,
      "lng": -69.62810139999999,
      "maps_url": "https://maps.google.com/?cid=5525240446291310233",
      "cid": "5525240446291310233",
      "google_id": null,
      "maps_place_token": null
    }
  ]
}
