{
  "fetched_at": "2026-04-15T15:18:00.921091+00:00",
  "refresh_after": "2026-04-29T15:18:00.921091+00:00",
  "source_signature": "2474be5097e2db6c6bab12ccf56881a3fa15bbed567d7e7f29ea5d5d3c279f48",
  "configured_source_type": "google_list_url",
  "configured_source_url": "https://maps.app.goo.gl/axiF2zmHLN6KPbf36",
  "configured_source_path": null,
  "source_url": "https://maps.app.goo.gl/axiF2zmHLN6KPbf36",
  "list_id": "8YWx5F9nQrGPWLMQkKOHEw",
  "title": "Marseilles, France 🇫🇷",
  "description": "Michael's list for Marseilles, France 🇫🇷 See https://beacons.ai/demflyers for more.",
  "places": [
    {
      "name": "Calanque de Port-Miou",
      "address": "50 Av. des Calanques, 13260 Cassis, France",
      "note": null,
      "is_favorite": false,
      "lat": 43.2121297,
      "lng": 5.5219324,
      "maps_url": "https://maps.google.com/?cid=1353818265420892611",
      "cid": "1353818265420892611",
      "google_id": null,
      "maps_place_token": null
    },
    {
      "name": "L'Espigoulier",
      "address": "204 Quai du Port, 13002 Marseille, France",
      "note": null,
      "is_favorite": false,
      "lat": 43.295662199999995,
      "lng": 5.3659199,
      "maps_url": "https://maps.google.com/?cid=1353825109040652157",
      "cid": "1353825109040652157",
      "google_id": "/g/11fyzcpkvp",
      "maps_place_token": null
    },
    {
      "name": "The Marseille Soap Museum",
      "address": "25 Quai de Rive Neuve, 13007 Marseille, France",
      "note": null,
      "is_favorite": false,
      "lat": 43.292851399999996,
      "lng": 5.3695319999999995,
      "maps_url": "https://maps.google.com/?cid=1353825121235050841",
      "cid": "1353825121235050841",
      "google_id": "/g/11c0xnt02v",
      "maps_place_token": null
    },
    {
      "name": "Au Bout du Quai",
      "address": "1 Av. de Saint-Jean, 13002 Marseille, France",
      "note": null,
      "is_favorite": false,
      "lat": 43.295580799999996,
      "lng": 5.364799,
      "maps_url": "https://maps.google.com/?cid=1353825108870649381",
      "cid": "1353825108870649381",
      "google_id": "/g/1tfysf7h",
      "maps_place_token": null
    },
    {
      "name": "Chez Roger",
      "address": "28 Quai du Port, 13002 Marseille, France",
      "note": null,
      "is_favorite": false,
      "lat": 43.296513,
      "lng": 5.3723068,
      "maps_url": "https://maps.google.com/?cid=1353825096410443263",
      "cid": "1353825096410443263",
      "google_id": "/g/1tds92b8",
      "maps_place_token": null
    },
    {
      "name": "Restaurant Les Arcenaulx Marseille Vieux Port",
      "address": null,
      "note": null,
      "is_favorite": false,
      "lat": 43.2924945,
      "lng": 5.3732245,
      "maps_url": "https://maps.google.com/?cid=1353825061643397337",
      "cid": "1353825061643397337",
      "google_id": null,
      "maps_place_token": null
    },
    {
      "name": "La Caravelle",
      "address": null,
      "note": null,
      "is_favorite": false,
      "lat": 43.2965064,
      "lng": 5.372001,
      "maps_url": "https://maps.google.com/?cid=1353825097083177507",
      "cid": "1353825097083177507",
      "google_id": null,
      "maps_place_token": null
    },
    {
      "name": "Bar Gaspard",
      "address": null,
      "note": null,
      "is_favorite": false,
      "lat": 43.2902543,
      "lng": 5.3726712999999995,
      "maps_url": "https://maps.google.com/?cid=1353825128342817635",
      "cid": "1353825128342817635",
      "google_id": null,
      "maps_place_token": null
    },
    {
      "name": "The F pub",
      "address": null,
      "note": null,
      "is_favorite": false,
      "lat": 43.3030621,
      "lng": 5.3682668,
      "maps_url": "https://maps.google.com/?cid=1353826305869396411",
      "cid": "1353826305869396411",
      "google_id": null,
      "maps_place_token": null
    },
    {
      "name": "White Rabbit",
      "address": null,
      "note": null,
      "is_favorite": false,
      "lat": 43.301423299999996,
      "lng": 5.3645255999999995,
      "maps_url": "https://maps.google.com/?cid=1353825266595201697",
      "cid": "1353825266595201697",
      "google_id": null,
      "maps_place_token": null
    },
    {
      "name": "La Table du Fort Restaurant Marseille Vieux-Port",
      "address": null,
      "note": null,
      "is_favorite": false,
      "lat": 43.2928801,
      "lng": 5.3711236,
      "maps_url": "https://maps.google.com/?cid=1353825124095508433",
      "cid": "1353825124095508433",
      "google_id": null,
      "maps_place_token": null
    },
    {
      "name": "Aux Antipodes",
      "address": null,
      "note": null,
      "is_favorite": false,
      "lat": 43.292572199999995,
      "lng": 5.3753665,
      "maps_url": "https://maps.google.com/?cid=1353825060938422135",
      "cid": "1353825060938422135",
      "google_id": null,
      "maps_place_token": null
    },
    {
      "name": "Au Doyen",
      "address": null,
      "note": null,
      "is_favorite": false,
      "lat": 43.2958097,
      "lng": 5.3665946,
      "maps_url": "https://maps.google.com/?cid=1353825110861632225",
      "cid": "1353825110861632225",
      "google_id": null,
      "maps_place_token": null
    },
    {
      "name": "Pastis & Olives",
      "address": null,
      "note": null,
      "is_favorite": false,
      "lat": 43.292510199999995,
      "lng": 5.375551499999999,
      "maps_url": "https://maps.google.com/?cid=1353825060928792967",
      "cid": "1353825060928792967",
      "google_id": null,
      "maps_place_token": null
    },
    {
      "name": "Le Souk",
      "address": null,
      "note": null,
      "is_favorite": false,
      "lat": 43.2961184,
      "lng": 5.368341099999999,
      "maps_url": "https://maps.google.com/?cid=1353825099365267607",
      "cid": "1353825099365267607",
      "google_id": null,
      "maps_place_token": null
    },
    {
      "name": "La Galiote",
      "address": null,
      "note": null,
      "is_favorite": false,
      "lat": 43.2931721,
      "lng": 5.3714287,
      "maps_url": "https://maps.google.com/?cid=1353825124167974677",
      "cid": "1353825124167974677",
      "google_id": null,
      "maps_place_token": null
    },
    {
      "name": "La Côte de Bœuf",
      "address": null,
      "note": null,
      "is_favorite": false,
      "lat": 43.2923,
      "lng": 5.3723665,
      "maps_url": "https://maps.google.com/?cid=1353825126523106257",
      "cid": "1353825126523106257",
      "google_id": null,
      "maps_place_token": null
    },
    {
      "name": "Une Table au Sud",
      "address": null,
      "note": null,
      "is_favorite": false,
      "lat": 43.296388799999995,
      "lng": 5.3736301,
      "maps_url": "https://maps.google.com/?cid=1353825091317597403",
      "cid": "1353825091317597403",
      "google_id": null,
      "maps_place_token": null
    },
    {
      "name": "Chez Madie Les Galinettes",
      "address": null,
      "note": null,
      "is_favorite": false,
      "lat": 43.296019699999995,
      "lng": 5.3675961,
      "maps_url": "https://maps.google.com/?cid=1353825110990614625",
      "cid": "1353825110990614625",
      "google_id": null,
      "maps_place_token": null
    },
    {
      "name": "Les Buvards",
      "address": null,
      "note": null,
      "is_favorite": false,
      "lat": 43.2978504,
      "lng": 5.3715877,
      "maps_url": "https://maps.google.com/?cid=1353825095462043913",
      "cid": "1353825095462043913",
      "google_id": null,
      "maps_place_token": null
    },
    {
      "name": "Old Port of Marseille",
      "address": null,
      "note": null,
      "is_favorite": false,
      "lat": 43.2950303,
      "lng": 5.3646265,
      "maps_url": "https://maps.google.com/?cid=1353825122347398953",
      "cid": "1353825122347398953",
      "google_id": null,
      "maps_place_token": null
    },
    {
      "name": "Palais Longchamp",
      "address": null,
      "note": null,
      "is_favorite": false,
      "lat": 43.304266899999995,
      "lng": 5.3946029,
      "maps_url": "https://maps.google.com/?cid=1353823592065483649",
      "cid": "1353823592065483649",
      "google_id": null,
      "maps_place_token": null
    },
    {
      "name": "Unité d'Habitation",
      "address": null,
      "note": null,
      "is_favorite": false,
      "lat": 43.2613455,
      "lng": 5.3964891999999995,
      "maps_url": "https://maps.google.com/?cid=1353816161165482849",
      "cid": "1353816161165482849",
      "google_id": null,
      "maps_place_token": null
    },
    {
      "name": "Abbaye Saint-Victor",
      "address": null,
      "note": null,
      "is_favorite": false,
      "lat": 43.2903502,
      "lng": 5.3655664,
      "maps_url": "https://maps.google.com/?cid=1353825160932680787",
      "cid": "1353825160932680787",
      "google_id": null,
      "maps_place_token": null
    },
    {
      "name": "Mucem - Museum of Civilizations of Europe and the Mediterranean",
      "address": null,
      "note": null,
      "is_favorite": false,
      "lat": 43.296694099999996,
      "lng": 5.3610825,
      "maps_url": "https://maps.google.com/?cid=1353824933068534765",
      "cid": "1353824933068534765",
      "google_id": null,
      "maps_place_token": null
    },
    {
      "name": "Cathédrale La Major",
      "address": null,
      "note": null,
      "is_favorite": false,
      "lat": 43.299262399999996,
      "lng": 5.3646914,
      "maps_url": "https://maps.google.com/?cid=1353825081098390195",
      "cid": "1353825081098390195",
      "google_id": null,
      "maps_place_token": null
    },
    {
      "name": "La Vieille Charité",
      "address": null,
      "note": null,
      "is_favorite": false,
      "lat": 43.3001259,
      "lng": 5.367890399999999,
      "maps_url": "https://maps.google.com/?cid=1353825276046843609",
      "cid": "1353825276046843609",
      "google_id": null,
      "maps_place_token": null
    },
    {
      "name": "Basilique Notre-Dame de la Garde",
      "address": null,
      "note": null,
      "is_favorite": false,
      "lat": 43.284022,
      "lng": 5.3712547,
      "maps_url": "https://maps.google.com/?cid=1353825134514314741",
      "cid": "1353825134514314741",
      "google_id": null,
      "maps_place_token": null
    },
    {
      "name": "Marseille History Museum",
      "address": null,
      "note": null,
      "is_favorite": false,
      "lat": 43.297791,
      "lng": 5.3754829,
      "maps_url": "https://maps.google.com/?cid=1353824870726033811",
      "cid": "1353824870726033811",
      "google_id": null,
      "maps_place_token": null
    }
  ]
}
