{
  "fetched_at": "2026-04-15T15:24:35.909486+00:00",
  "refresh_after": "2026-04-29T15:24:35.909486+00:00",
  "source_signature": "1ef7d9eabb5e87678dbaa329ebcf98427eda057192690fcc15416f8b334fb934",
  "configured_source_type": "google_list_url",
  "configured_source_url": "https://maps.app.goo.gl/UihVvJXRj7ipNewn9",
  "configured_source_path": null,
  "source_url": "https://maps.app.goo.gl/UihVvJXRj7ipNewn9",
  "list_id": "YhW5P_09rj3fUsNZJHa8vXAkFepZhg",
  "title": "Matsumoto, Japan 🇯🇵",
  "description": "Michael’s Matsumoto, Japan 🇯🇵 bookmarks. See https://beacons.ai/demflyers for more.",
  "places": [
    {
      "name": "Matsumoto-jō Castle",
      "address": "4-1 Marunouchi, Matsumoto, Nagano 390-0873",
      "note": null,
      "is_favorite": false,
      "lat": 36.238653,
      "lng": 137.9688674,
      "maps_url": "https://maps.google.com/?cid=6925707766537017753",
      "cid": "6925707766537017753",
      "google_id": null,
      "maps_place_token": null
    },
    {
      "name": "Hanjiro Soup Curry",
      "address": "4857-1 Hotaka, Azumino, Nagano 399-8303",
      "note": null,
      "is_favorite": false,
      "lat": 36.346667499999995,
      "lng": 137.88859349999998,
      "maps_url": "https://maps.google.com/?cid=6925812550091176407",
      "cid": "6925812550091176407",
      "google_id": "/g/12qg5t3yl",
      "maps_place_token": null
    },
    {
      "name": "Sanzoku",
      "address": "10-1 Daimon Nanabancho, Shiojiri, Nagano 399-0738",
      "note": null,
      "is_favorite": false,
      "lat": 36.1136471,
      "lng": 137.9513776,
      "maps_url": "https://maps.google.com/?cid=6925697219390809527",
      "cid": "6925697219390809527",
      "google_id": "/g/1v8k_pjz",
      "maps_place_token": null
    },
    {
      "name": "昇月",
      "address": "〒399-8301 Nagano, Azumino, Hotakaariake, 矢村8884−9",
      "note": null,
      "is_favorite": false,
      "lat": 36.3713629,
      "lng": 137.8349183,
      "maps_url": "https://maps.google.com/?cid=6925807075200955897",
      "cid": "6925807075200955897",
      "google_id": "/g/1v75r_45",
      "maps_place_token": null
    },
    {
      "name": "Soba restaurant okina",
      "address": "3056-5 Nakau, Ikeda, Kitaazumi District, Nagano 399-8603",
      "note": null,
      "is_favorite": false,
      "lat": 36.382479499999995,
      "lng": 137.896816,
      "maps_url": "https://maps.google.com/?cid=6925813040950218437",
      "cid": "6925813040950218437",
      "google_id": "/g/1tfv0m9v",
      "maps_place_token": null
    },
    {
      "name": "Maeyao Shindaimae",
      "address": "〒390-0871 Nagano, Matsumoto, Kiri, 2 Chome−1−25 御小柴ハイツ",
      "note": null,
      "is_favorite": false,
      "lat": 36.2519625,
      "lng": 137.9763045,
      "maps_url": "https://maps.google.com/?cid=6925705138562701845",
      "cid": "6925705138562701845",
      "google_id": "/g/1td9dv8b",
      "maps_place_token": null
    },
    {
      "name": "Maeyao Kiri",
      "address": "1 Chome-2-35 Kiri, Matsumoto, Nagano 390-0871",
      "note": null,
      "is_favorite": false,
      "lat": 36.248358599999996,
      "lng": 137.9736584,
      "maps_url": "https://maps.google.com/?cid=6925707871583168227",
      "cid": "6925707871583168227",
      "google_id": "/g/1tdbwv3n",
      "maps_place_token": null
    },
    {
      "name": "お野菜居酒屋 旬彩 心粋",
      "address": "〒390-0811 Nagano, Matsumoto, Central, 1 Chome−12-16 ガーデンハイツ",
      "note": null,
      "is_favorite": false,
      "lat": 36.2325346,
      "lng": 137.9666264,
      "maps_url": "https://maps.google.com/?cid=6925707808003280621",
      "cid": "6925707808003280621",
      "google_id": "/g/11b7hjm2hk",
      "maps_place_token": null
    },
    {
      "name": "Kimama",
      "address": "1 Chome-3-13 Central, Matsumoto, Nagano 390-0811",
      "note": null,
      "is_favorite": false,
      "lat": 36.2313969,
      "lng": 137.9664817,
      "maps_url": "https://maps.google.com/?cid=6925707796554383361",
      "cid": "6925707796554383361",
      "google_id": "/g/11btrrhhcl",
      "maps_place_token": null
    },
    {
      "name": "瀞（とろ）",
      "address": "1 Chome-5-14 Central, Matsumoto, Nagano 390-0811",
      "note": null,
      "is_favorite": false,
      "lat": 36.232431399999996,
      "lng": 137.9666293,
      "maps_url": "https://maps.google.com/?cid=6925707807929663489",
      "cid": "6925707807929663489",
      "google_id": "/g/11bwh5tx7j",
      "maps_place_token": null
    },
    {
      "name": "卯屋",
      "address": "1 Chome-2-12 Central, Matsumoto, Nagano 390-0811",
      "note": null,
      "is_favorite": false,
      "lat": 36.2321612,
      "lng": 137.9651663,
      "maps_url": "https://maps.google.com/?cid=6925707784641664341",
      "cid": "6925707784641664341",
      "google_id": "/g/1tnqh1py",
      "maps_place_token": null
    },
    {
      "name": "Torishin",
      "address": "1 Chome-2-24 Central, Matsumoto, Nagano 390-0811",
      "note": null,
      "is_favorite": false,
      "lat": 36.231867799999996,
      "lng": 137.9651983,
      "maps_url": "https://maps.google.com/?cid=6925707784660114159",
      "cid": "6925707784660114159",
      "google_id": "/g/1tcy4cvf",
      "maps_place_token": null
    },
    {
      "name": "Bar Yobanashi",
      "address": "〒390-0811 Nagano, Matsumoto, Central, 5−５ １丁目５−１８シャイニービルタナカ1F",
      "note": null,
      "is_favorite": false,
      "lat": 36.232064099999995,
      "lng": 137.966546,
      "maps_url": "https://maps.google.com/?cid=6925707807893480191",
      "cid": "6925707807893480191",
      "google_id": "/g/12qfj__hc",
      "maps_place_token": null
    },
    {
      "name": "オールドパル",
      "address": "〒390-0811 Nagano, Matsumoto, Central, 1 Chome−8−3 ふじやビル１f",
      "note": null,
      "is_favorite": false,
      "lat": 36.2318424,
      "lng": 137.96758839999998,
      "maps_url": "https://maps.google.com/?cid=6925707796826969429",
      "cid": "6925707796826969429",
      "google_id": "/g/1tdc598w",
      "maps_place_token": null
    },
    {
      "name": "ポンヌフ",
      "address": "1 Chome-2-3 Fukashi, Matsumoto, Nagano 390-0815",
      "note": null,
      "is_favorite": false,
      "lat": 36.2308836,
      "lng": 137.9664877,
      "maps_url": "https://maps.google.com/?cid=6925707796254702933",
      "cid": "6925707796254702933",
      "google_id": "/g/1td1k1z2",
      "maps_place_token": null
    },
    {
      "name": "大衆酒場 風林火山",
      "address": "〒390-0811 Nagano, Matsumoto, Central, 1 Chome−3−1 坐和民",
      "note": null,
      "is_favorite": false,
      "lat": 36.231324799999996,
      "lng": 137.9659155,
      "maps_url": "https://maps.google.com/?cid=6925707796347443751",
      "cid": "6925707796347443751",
      "google_id": "/g/1wnf13p0",
      "maps_place_token": null
    },
    {
      "name": "Mingei restaurants MoriYoshi",
      "address": "2 Chome-1-21 Fukashi, Matsumoto, Nagano 390-0815",
      "note": null,
      "is_favorite": false,
      "lat": 36.230435199999995,
      "lng": 137.96797859999998,
      "maps_url": "https://maps.google.com/?cid=6925707797915974201",
      "cid": "6925707797915974201",
      "google_id": "/g/1tkb55hc",
      "maps_place_token": null
    },
    {
      "name": "オー・クリヨー・ド・ヴァン",
      "address": "1 Chome-2-11 Fukashi, Matsumoto, Nagano 390-0815",
      "note": null,
      "is_favorite": false,
      "lat": 36.230708299999996,
      "lng": 137.9673142,
      "maps_url": "https://maps.google.com/?cid=6925707798360310097",
      "cid": "6925707798360310097",
      "google_id": "/g/1tfmhx4x",
      "maps_place_token": null
    },
    {
      "name": "馬肉バル 新三よし 松本本店",
      "address": "1 Chome-7-17 Central, Matsumoto, Nagano 390-0811",
      "note": null,
      "is_favorite": false,
      "lat": 36.231344799999995,
      "lng": 137.96847,
      "maps_url": "https://maps.google.com/?cid=6925707797744241633",
      "cid": "6925707797744241633",
      "google_id": "/g/1tfqr0g2",
      "maps_place_token": null
    },
    {
      "name": "満腹厨房だぶる",
      "address": "1 Chome-12-9 Central, Matsumoto, Nagano 390-0811",
      "note": null,
      "is_favorite": false,
      "lat": 36.2329309,
      "lng": 137.9666492,
      "maps_url": "https://maps.google.com/?cid=6925707808078343781",
      "cid": "6925707808078343781",
      "google_id": "/g/1tdg38yp",
      "maps_place_token": null
    },
    {
      "name": "Miyota",
      "address": "〒390-0811 Nagano, Matsumoto, Central, 2 Chome−1−24 本町ビル 1Ｆ 五幸",
      "note": null,
      "is_favorite": false,
      "lat": 36.231756499999996,
      "lng": 137.96892599999998,
      "maps_url": "https://maps.google.com/?cid=6925707803756905979",
      "cid": "6925707803756905979",
      "google_id": "/g/1tjg_fpz",
      "maps_place_token": null
    },
    {
      "name": "Mensho Sakura",
      "address": "1 Chome-20-26 Central, Matsumoto, Nagano 390-0811",
      "note": null,
      "is_favorite": false,
      "lat": 36.233163,
      "lng": 137.9678904,
      "maps_url": "https://maps.google.com/?cid=6925707807544426327",
      "cid": "6925707807544426327",
      "google_id": "/g/1tgkhc8c",
      "maps_place_token": null
    },
    {
      "name": "Main Bar Coat",
      "address": "〒390-0811 Nagano, Matsumoto, 3, 中央２丁目３−５ ミワビル2F",
      "note": null,
      "is_favorite": false,
      "lat": 36.233481399999995,
      "lng": 137.9688136,
      "maps_url": "https://maps.google.com/?cid=6925707806669386391",
      "cid": "6925707806669386391",
      "google_id": "/g/1tklqmlm",
      "maps_place_token": null
    },
    {
      "name": "ロティスリーレストロリン",
      "address": "〒390-0811 Nagano, Matsumoto, Central, 2 Chome−20−2 信毎メディアガーデン ３Ｆ",
      "note": null,
      "is_favorite": false,
      "lat": 36.2329073,
      "lng": 137.9696587,
      "maps_url": "https://maps.google.com/?cid=6925707809374642077",
      "cid": "6925707809374642077",
      "google_id": "/g/12hqlrc6x",
      "maps_place_token": null
    },
    {
      "name": "Hizuki",
      "address": "4 Chome-6-3 Ote, Matsumoto, Nagano 390-0874",
      "note": null,
      "is_favorite": false,
      "lat": 36.2351386,
      "lng": 137.9740118,
      "maps_url": "https://maps.google.com/?cid=6925707820014255079",
      "cid": "6925707820014255079",
      "google_id": "/g/1v_sn9hd",
      "maps_place_token": null
    },
    {
      "name": "Soba Club Sasaki",
      "address": "4 Chome-8-3 Ote, Matsumoto, Nagano 390-0874",
      "note": null,
      "is_favorite": false,
      "lat": 36.2357107,
      "lng": 137.97191429999998,
      "maps_url": "https://maps.google.com/?cid=6925707821196266169",
      "cid": "6925707821196266169",
      "google_id": "/g/1tdfc5dv",
      "maps_place_token": null
    },
    {
      "name": "Okina-do — Classic Western Style Dinner",
      "address": "2 Chome-4-10 Central, Matsumoto, Nagano 390-0811",
      "note": null,
      "is_favorite": false,
      "lat": 36.2341565,
      "lng": 137.97041059999998,
      "maps_url": "https://maps.google.com/?cid=6925707805248818363",
      "cid": "6925707805248818363",
      "google_id": "/g/1tlwfqpc",
      "maps_place_token": null
    },
    {
      "name": "Standing Bar 8 Ounce",
      "address": "4 Chome-10-13 Ote, Matsumoto, Nagano 390-0874",
      "note": null,
      "is_favorite": false,
      "lat": 36.2363376,
      "lng": 137.9726074,
      "maps_url": "https://maps.google.com/?cid=6925707820982844047",
      "cid": "6925707820982844047",
      "google_id": "/g/1vc6dgy2",
      "maps_place_token": null
    },
    {
      "name": "Kikuzo",
      "address": "4 Chome-7-10 Ote, Matsumoto, Nagano 390-0874",
      "note": null,
      "is_favorite": false,
      "lat": 36.2357095,
      "lng": 137.9734921,
      "maps_url": "https://maps.google.com/?cid=6925707820517619751",
      "cid": "6925707820517619751",
      "google_id": "/g/1th63g6j",
      "maps_place_token": null
    },
    {
      "name": "とり麺や五色",
      "address": "1 Chome-1-13 Shiraita, Matsumoto, Nagano 390-0863",
      "note": null,
      "is_favorite": false,
      "lat": 36.2331131,
      "lng": 137.9617035,
      "maps_url": "https://maps.google.com/?cid=6925707779784938543",
      "cid": "6925707779784938543",
      "google_id": null,
      "maps_place_token": null
    },
    {
      "name": "Shiduka",
      "address": "4 Chome-10-8 Ote, Matsumoto, Nagano 390-0874",
      "note": null,
      "is_favorite": false,
      "lat": 36.2368589,
      "lng": 137.97245709999999,
      "maps_url": "https://maps.google.com/?cid=6925707814493838831",
      "cid": "6925707814493838831",
      "google_id": "/g/1tfmc9hq",
      "maps_place_token": null
    },
    {
      "name": "mannacktable (マナックターブル)",
      "address": "2 Chome-7-3 Ote, Matsumoto, Nagano 390-0874",
      "note": null,
      "is_favorite": false,
      "lat": 36.2355065,
      "lng": 137.9674365,
      "maps_url": "https://maps.google.com/?cid=6925707810353812905",
      "cid": "6925707810353812905",
      "google_id": "/g/11c1xfc9xx",
      "maps_place_token": null
    },
    {
      "name": "Soba asada Matsumoto",
      "address": "3 Chome-10-11 Fukashi, Matsumoto, Nagano 390-0815",
      "note": null,
      "is_favorite": false,
      "lat": 36.2303597,
      "lng": 137.9756648,
      "maps_url": "https://maps.google.com/?cid=6925708211879855141",
      "cid": "6925708211879855141",
      "google_id": "/g/1tf9yhj8",
      "maps_place_token": null
    },
    {
      "name": "やなのうなぎ 観光荘 松本店",
      "address": "2 Chome-2-5 Nagisa, Matsumoto, Nagano 390-0841",
      "note": null,
      "is_favorite": false,
      "lat": 36.2317877,
      "lng": 137.9593159,
      "maps_url": "https://maps.google.com/?cid=6925707825011473317",
      "cid": "6925707825011473317",
      "google_id": "/g/1v8gc35h",
      "maps_place_token": null
    },
    {
      "name": "Unagi no Matsuka",
      "address": "3 Chome-2-29 Central, Matsumoto, Nagano 390-0811",
      "note": null,
      "is_favorite": false,
      "lat": 36.2325181,
      "lng": 137.9718301,
      "maps_url": "https://maps.google.com/?cid=6925707824251392155",
      "cid": "6925707824251392155",
      "google_id": "/g/1tcxzxk1",
      "maps_place_token": null
    },
    {
      "name": "Tanemura",
      "address": "3 Chome-9-4 Central, Matsumoto, Nagano 390-0811",
      "note": null,
      "is_favorite": false,
      "lat": 36.2330372,
      "lng": 137.9736451,
      "maps_url": "https://maps.google.com/?cid=6925707823613301163",
      "cid": "6925707823613301163",
      "google_id": "/g/113gh5h7n",
      "maps_place_token": null
    },
    {
      "name": "Masamura",
      "address": "2 Chome-5-24 Fukashi, Matsumoto, Nagano 390-0815",
      "note": null,
      "is_favorite": false,
      "lat": 36.2302491,
      "lng": 137.9695491,
      "maps_url": "https://maps.google.com/?cid=6925707801006006929",
      "cid": "6925707801006006929",
      "google_id": "/g/1tdg38yq",
      "maps_place_token": null
    },
    {
      "name": "来っ来知っ来",
      "address": "2 Chome-3-14 Fukashi, Matsumoto, Nagano 390-0815",
      "note": null,
      "is_favorite": false,
      "lat": 36.229471499999995,
      "lng": 137.9692537,
      "maps_url": "https://maps.google.com/?cid=6925707801283490083",
      "cid": "6925707801283490083",
      "google_id": "/g/1tg2dkwm",
      "maps_place_token": null
    },
    {
      "name": "松本つなぐ横丁",
      "address": "1 Chome-3-21 Fukashi, Matsumoto, Nagano 390-0815",
      "note": null,
      "is_favorite": false,
      "lat": 36.2295465,
      "lng": 137.9664986,
      "maps_url": "https://maps.google.com/?cid=6925709076930688469",
      "cid": "6925709076930688469",
      "google_id": "/g/11h6dkpw6f",
      "maps_place_token": null
    },
    {
      "name": "Asian Kitchen",
      "address": "ビール2F, 1 Chome-4-10 Fukashi, Matsumoto, Nagano 390-0815",
      "note": null,
      "is_favorite": false,
      "lat": 36.228975399999996,
      "lng": 137.9676183,
      "maps_url": "https://maps.google.com/?cid=6925707799646076103",
      "cid": "6925707799646076103",
      "google_id": "/g/11c2mwsw9h",
      "maps_place_token": null
    },
    {
      "name": "Ōboshi Matsumoto-hirata",
      "address": "1 Chome-4-1 Hiratanishi, Matsumoto, Nagano 399-0015",
      "note": null,
      "is_favorite": false,
      "lat": 36.1960447,
      "lng": 137.9600477,
      "maps_url": "https://maps.google.com/?cid=6925709015067682171",
      "cid": "6925709015067682171",
      "google_id": "/g/1xpwjw1j",
      "maps_place_token": null
    },
    {
      "name": "月の兎影",
      "address": "〒390-0833 Nagano, Matsumoto, Futaba, 7−23 ＤａｎＤａｎＰＬＡＺＡ東",
      "note": null,
      "is_favorite": false,
      "lat": 36.210407499999995,
      "lng": 137.9664536,
      "maps_url": "https://maps.google.com/?cid=6925708286240600857",
      "cid": "6925708286240600857",
      "google_id": "/g/11b7hmg6nt",
      "maps_place_token": null
    },
    {
      "name": "櫻守",
      "address": "2 Chome-18-12 Namiyanagi, Matsumoto, Nagano 390-0825",
      "note": null,
      "is_favorite": false,
      "lat": 36.211439899999995,
      "lng": 137.9823859,
      "maps_url": "https://maps.google.com/?cid=6925708441080849439",
      "cid": "6925708441080849439",
      "google_id": "/g/1td_yp6w",
      "maps_place_token": null
    },
    {
      "name": "Shōnen",
      "address": "1 Chome-2-27 Minamimatsumoto, Matsumoto, Nagano 390-0832",
      "note": null,
      "is_favorite": false,
      "lat": 36.2143855,
      "lng": 137.9687581,
      "maps_url": "https://maps.google.com/?cid=6925709173258508763",
      "cid": "6925709173258508763",
      "google_id": "/g/11f6dpnrcz",
      "maps_place_token": null
    }
  ]
}
