{
  "fetched_at": "2026-04-20T16:06:38.143386+00:00",
  "refresh_after": "2026-05-01T17:31:02.143386+00:00",
  "source_signature": "a699a4cf69e96ad9348027ef7163f694154ec5358b1490966b286f79e09d5f01",
  "configured_source_type": "google_list_url",
  "configured_source_url": "https://maps.app.goo.gl/FGvK2LZPrDf8koYX6",
  "configured_source_path": null,
  "source_url": "https://maps.app.goo.gl/FGvK2LZPrDf8koYX6",
  "list_id": "_21wnOmwSiqZerBjo6GEPQ",
  "title": "Nagasaki, Japan 🇯🇵",
  "description": "Michael’s Nagasaki, Japan 🇯🇵 bookmarks. See https://beacons.ai/demflyers for more.",
  "places": [
    {
      "name": "永楽苑",
      "address": null,
      "note": null,
      "is_favorite": false,
      "lat": 32.7452113,
      "lng": 129.8725619,
      "maps_url": "https://www.google.com/maps/search/?api=1&query=%E6%B0%B8%E6%A5%BD%E8%8B%91",
      "cid": "3825054984037528701",
      "google_id": null,
      "maps_place_token": null
    },
    {
      "name": "Victor",
      "address": "〒850-0901 Nagasaki, Motoshikkuimachi, 5−13 シンアイビル",
      "note": null,
      "is_favorite": false,
      "lat": 32.741909299999996,
      "lng": 129.8796878,
      "maps_url": "https://www.google.com/maps/search/?api=1&query=Victor%2C+%E3%80%92850-0901+Nagasaki%2C+Motoshikkuimachi%2C+5%E2%88%9213+%E3%82%B7%E3%83%B3%E3%82%A2%E3%82%A4%E3%83%93%E3%83%AB",
      "cid": "3825055175947042457",
      "google_id": "/g/1tdmscpb",
      "maps_place_token": null
    },
    {
      "name": "欧風料理 ラムール",
      "address": null,
      "note": null,
      "is_favorite": false,
      "lat": 32.848549,
      "lng": 130.0465319,
      "maps_url": "https://www.google.com/maps/search/?api=1&query=%E6%AC%A7%E9%A2%A8%E6%96%99%E7%90%86+%E3%83%A9%E3%83%A0%E3%83%BC%E3%83%AB",
      "cid": "3837070504088432049",
      "google_id": null,
      "maps_place_token": null
    },
    {
      "name": "Trattoria Aglio",
      "address": null,
      "note": null,
      "is_favorite": false,
      "lat": 32.8488842,
      "lng": 130.04279499999998,
      "maps_url": "https://www.google.com/maps/search/?api=1&query=Trattoria+Aglio",
      "cid": "3837070410329983255",
      "google_id": null,
      "maps_place_token": null
    },
    {
      "name": "Villa del nido",
      "address": null,
      "note": null,
      "is_favorite": false,
      "lat": 32.8659471,
      "lng": 130.3116282,
      "maps_url": "https://www.google.com/maps/search/?api=1&query=Villa+del+nido",
      "cid": "3837184339635308143",
      "google_id": null,
      "maps_place_token": null
    },
    {
      "name": "山の寺 邑居(ゆうきょ)",
      "address": null,
      "note": null,
      "is_favorite": false,
      "lat": 32.740153299999996,
      "lng": 130.313849,
      "maps_url": "https://www.google.com/maps/search/?api=1&query=%E5%B1%B1%E3%81%AE%E5%AF%BA+%E9%82%91%E5%B1%85%28%E3%82%86%E3%81%86%E3%81%8D%E3%82%87%29",
      "cid": "3837192966109127449",
      "google_id": null,
      "maps_place_token": null
    },
    {
      "name": "pesceco",
      "address": null,
      "note": null,
      "is_favorite": false,
      "lat": 32.7983733,
      "lng": 130.36908649999998,
      "maps_url": "https://www.google.com/maps/search/?api=1&query=pesceco",
      "cid": "3837185712821866957",
      "google_id": null,
      "maps_place_token": null
    },
    {
      "name": "Hachiman Jigoku",
      "address": null,
      "note": null,
      "is_favorite": false,
      "lat": 32.741701899999995,
      "lng": 130.2624686,
      "maps_url": "https://www.google.com/maps/search/?api=1&query=Hachiman+Jigoku",
      "cid": "3837081880626094371",
      "google_id": null,
      "maps_place_token": null
    },
    {
      "name": "Unzen Onsen Tourist Association",
      "address": null,
      "note": null,
      "is_favorite": false,
      "lat": 32.7385139,
      "lng": 130.2616935,
      "maps_url": "https://www.google.com/maps/search/?api=1&query=Unzen+Onsen+Tourist+Association",
      "cid": "3837081881377014207",
      "google_id": null,
      "maps_place_token": null
    },
    {
      "name": "Dai Kyokan Jigoku",
      "address": null,
      "note": null,
      "is_favorite": false,
      "lat": 32.7398023,
      "lng": 130.2651773,
      "maps_url": "https://www.google.com/maps/search/?api=1&query=Dai+Kyokan+Jigoku",
      "cid": "3837081892914851675",
      "google_id": null,
      "maps_place_token": null
    },
    {
      "name": "Hot Foot 105",
      "address": null,
      "note": null,
      "is_favorite": false,
      "lat": 32.7268797,
      "lng": 130.2051624,
      "maps_url": "https://www.google.com/maps/search/?api=1&query=Hot+Foot+105",
      "cid": "3837083103657912603",
      "google_id": null,
      "maps_place_token": null
    },
    {
      "name": "小浜温泉観光協会",
      "address": null,
      "note": null,
      "is_favorite": false,
      "lat": 32.729314599999995,
      "lng": 130.2067947,
      "maps_url": "https://www.google.com/maps/search/?api=1&query=%E5%B0%8F%E6%B5%9C%E6%B8%A9%E6%B3%89%E8%A6%B3%E5%85%89%E5%8D%94%E4%BC%9A",
      "cid": "3837083098207691347",
      "google_id": null,
      "maps_place_token": null
    },
    {
      "name": "Naminoyu 'Akane'",
      "address": null,
      "note": null,
      "is_favorite": false,
      "lat": 32.7262562,
      "lng": 130.2042524,
      "maps_url": "https://www.google.com/maps/search/?api=1&query=Naminoyu+%27Akane%27",
      "cid": "3837083131048142963",
      "google_id": null,
      "maps_place_token": null
    },
    {
      "name": "Chijiwa Beach",
      "address": null,
      "note": null,
      "is_favorite": false,
      "lat": 32.7906427,
      "lng": 130.1853162,
      "maps_url": "https://www.google.com/maps/search/?api=1&query=Chijiwa+Beach",
      "cid": "3837084282973511913",
      "google_id": null,
      "maps_place_token": null
    },
    {
      "name": "スプーンフルカフェ",
      "address": null,
      "note": null,
      "is_favorite": false,
      "lat": 32.8503045,
      "lng": 130.04299129999998,
      "maps_url": "https://www.google.com/maps/search/?api=1&query=%E3%82%B9%E3%83%97%E3%83%BC%E3%83%B3%E3%83%95%E3%83%AB%E3%82%AB%E3%83%95%E3%82%A7",
      "cid": "3837098538871899551",
      "google_id": null,
      "maps_place_token": null
    },
    {
      "name": "Hakushika",
      "address": null,
      "note": null,
      "is_favorite": false,
      "lat": 32.7437172,
      "lng": 129.8799354,
      "maps_url": "https://www.google.com/maps/search/?api=1&query=Hakushika",
      "cid": "3825054994422439637",
      "google_id": null,
      "maps_place_token": null
    },
    {
      "name": "長崎郷土料理 一二三亭 思案橋店",
      "address": null,
      "note": null,
      "is_favorite": false,
      "lat": 32.7426872,
      "lng": 129.87927919999998,
      "maps_url": "https://www.google.com/maps/search/?api=1&query=%E9%95%B7%E5%B4%8E%E9%83%B7%E5%9C%9F%E6%96%99%E7%90%86+%E4%B8%80%E4%BA%8C%E4%B8%89%E4%BA%AD+%E6%80%9D%E6%A1%88%E6%A9%8B%E5%BA%97",
      "cid": "3825054993141717711",
      "google_id": null,
      "maps_place_token": null
    },
    {
      "name": "Fukusaya Main Store",
      "address": null,
      "note": null,
      "is_favorite": false,
      "lat": 32.7416499,
      "lng": 129.8794228,
      "maps_url": "https://www.google.com/maps/search/?api=1&query=Fukusaya+Main+Store",
      "cid": "3825055176010996579",
      "google_id": null,
      "maps_place_token": null
    },
    {
      "name": "Houuntei",
      "address": null,
      "note": null,
      "is_favorite": false,
      "lat": 32.7421247,
      "lng": 129.8778088,
      "maps_url": "https://www.google.com/maps/search/?api=1&query=Houuntei",
      "cid": "3825054809648955827",
      "google_id": null,
      "maps_place_token": null
    }
  ]
}
