{
  "fetched_at": "2026-04-15T15:24:35.493476+00:00",
  "refresh_after": "2026-04-29T15:24:35.493476+00:00",
  "source_signature": "a699a4cf69e96ad9348027ef7163f694154ec5358b1490966b286f79e09d5f01",
  "configured_source_type": "google_list_url",
  "configured_source_url": "https://maps.app.goo.gl/FGvK2LZPrDf8koYX6",
  "configured_source_path": null,
  "source_url": "https://maps.app.goo.gl/FGvK2LZPrDf8koYX6",
  "list_id": "_21wnOmwSiqZerBjo6GEPQ",
  "title": "Nagasaki, Japan 🇯🇵",
  "description": "Michael’s Nagasaki, Japan 🇯🇵 bookmarks. See https://beacons.ai/demflyers for more.",
  "places": [
    {
      "name": "Victor",
      "address": "〒850-0901 Nagasaki, Motoshikkuimachi, 5−13 シンアイビル",
      "note": null,
      "is_favorite": false,
      "lat": 32.741909299999996,
      "lng": 129.8796878,
      "maps_url": "https://maps.google.com/?cid=3825055175947042457",
      "cid": "3825055175947042457",
      "google_id": "/g/1tdmscpb",
      "maps_place_token": null
    },
    {
      "name": "欧風料理 ラムール",
      "address": null,
      "note": null,
      "is_favorite": false,
      "lat": 32.848549,
      "lng": 130.0465319,
      "maps_url": "https://maps.google.com/?cid=3837070504088432049",
      "cid": "3837070504088432049",
      "google_id": null,
      "maps_place_token": null
    },
    {
      "name": "Trattoria Aglio",
      "address": null,
      "note": null,
      "is_favorite": false,
      "lat": 32.8488842,
      "lng": 130.04279499999998,
      "maps_url": "https://maps.google.com/?cid=3837070410329983255",
      "cid": "3837070410329983255",
      "google_id": null,
      "maps_place_token": null
    },
    {
      "name": "Villa del nido",
      "address": null,
      "note": null,
      "is_favorite": false,
      "lat": 32.8659471,
      "lng": 130.3116282,
      "maps_url": "https://maps.google.com/?cid=3837184339635308143",
      "cid": "3837184339635308143",
      "google_id": null,
      "maps_place_token": null
    },
    {
      "name": "山の寺 邑居(ゆうきょ)",
      "address": null,
      "note": null,
      "is_favorite": false,
      "lat": 32.740153299999996,
      "lng": 130.313849,
      "maps_url": "https://maps.google.com/?cid=3837192966109127449",
      "cid": "3837192966109127449",
      "google_id": null,
      "maps_place_token": null
    },
    {
      "name": "pesceco",
      "address": null,
      "note": null,
      "is_favorite": false,
      "lat": 32.7983733,
      "lng": 130.36908649999998,
      "maps_url": "https://maps.google.com/?cid=3837185712821866957",
      "cid": "3837185712821866957",
      "google_id": null,
      "maps_place_token": null
    },
    {
      "name": "Hachiman Jigoku",
      "address": null,
      "note": null,
      "is_favorite": false,
      "lat": 32.741701899999995,
      "lng": 130.2624686,
      "maps_url": "https://maps.google.com/?cid=3837081880626094371",
      "cid": "3837081880626094371",
      "google_id": null,
      "maps_place_token": null
    },
    {
      "name": "Unzen Onsen Tourist Association",
      "address": null,
      "note": null,
      "is_favorite": false,
      "lat": 32.7385139,
      "lng": 130.2616935,
      "maps_url": "https://maps.google.com/?cid=3837081881377014207",
      "cid": "3837081881377014207",
      "google_id": null,
      "maps_place_token": null
    },
    {
      "name": "Dai Kyokan Jigoku",
      "address": null,
      "note": null,
      "is_favorite": false,
      "lat": 32.7398023,
      "lng": 130.2651773,
      "maps_url": "https://maps.google.com/?cid=3837081892914851675",
      "cid": "3837081892914851675",
      "google_id": null,
      "maps_place_token": null
    },
    {
      "name": "Hot Foot 105",
      "address": null,
      "note": null,
      "is_favorite": false,
      "lat": 32.7268797,
      "lng": 130.2051624,
      "maps_url": "https://maps.google.com/?cid=3837083103657912603",
      "cid": "3837083103657912603",
      "google_id": null,
      "maps_place_token": null
    },
    {
      "name": "小浜温泉観光協会",
      "address": null,
      "note": null,
      "is_favorite": false,
      "lat": 32.729314599999995,
      "lng": 130.2067947,
      "maps_url": "https://maps.google.com/?cid=3837083098207691347",
      "cid": "3837083098207691347",
      "google_id": null,
      "maps_place_token": null
    },
    {
      "name": "Naminoyu 'Akane'",
      "address": null,
      "note": null,
      "is_favorite": false,
      "lat": 32.7262562,
      "lng": 130.2042524,
      "maps_url": "https://maps.google.com/?cid=3837083131048142963",
      "cid": "3837083131048142963",
      "google_id": null,
      "maps_place_token": null
    },
    {
      "name": "Chijiwa Beach",
      "address": null,
      "note": null,
      "is_favorite": false,
      "lat": 32.7906427,
      "lng": 130.1853162,
      "maps_url": "https://maps.google.com/?cid=3837084282973511913",
      "cid": "3837084282973511913",
      "google_id": null,
      "maps_place_token": null
    },
    {
      "name": "スプーンフルカフェ",
      "address": null,
      "note": null,
      "is_favorite": false,
      "lat": 32.8503045,
      "lng": 130.04299129999998,
      "maps_url": "https://maps.google.com/?cid=3837098538871899551",
      "cid": "3837098538871899551",
      "google_id": null,
      "maps_place_token": null
    },
    {
      "name": "Hakushika",
      "address": null,
      "note": null,
      "is_favorite": false,
      "lat": 32.7437172,
      "lng": 129.8799354,
      "maps_url": "https://maps.google.com/?cid=3825054994422439637",
      "cid": "3825054994422439637",
      "google_id": null,
      "maps_place_token": null
    },
    {
      "name": "長崎郷土料理 一二三亭 思案橋店",
      "address": null,
      "note": null,
      "is_favorite": false,
      "lat": 32.7426872,
      "lng": 129.87927919999998,
      "maps_url": "https://maps.google.com/?cid=3825054993141717711",
      "cid": "3825054993141717711",
      "google_id": null,
      "maps_place_token": null
    },
    {
      "name": "Fukusaya Main Store",
      "address": null,
      "note": null,
      "is_favorite": false,
      "lat": 32.7416499,
      "lng": 129.8794228,
      "maps_url": "https://maps.google.com/?cid=3825055176010996579",
      "cid": "3825055176010996579",
      "google_id": null,
      "maps_place_token": null
    },
    {
      "name": "Houuntei",
      "address": null,
      "note": null,
      "is_favorite": false,
      "lat": 32.7421247,
      "lng": 129.8778088,
      "maps_url": "https://maps.google.com/?cid=3825054809648955827",
      "cid": "3825054809648955827",
      "google_id": null,
      "maps_place_token": null
    }
  ]
}
