{
  "fetched_at": "2026-04-15T15:28:05.944503+00:00",
  "refresh_after": "2026-04-29T15:28:05.944503+00:00",
  "source_signature": "a90813908d7bbdf027eb436ea06cf14ec8501431e63add7c0d5615dae191a156",
  "configured_source_type": "google_list_url",
  "configured_source_url": "https://maps.app.goo.gl/NwSXEAXNGxZ4235E6",
  "configured_source_path": null,
  "source_url": "https://maps.app.goo.gl/NwSXEAXNGxZ4235E6",
  "list_id": "uDtHbejP4tGoXCQ8G4idSvlw3qirkg",
  "title": "Penghu, Taiwan 🇹🇼",
  "description": "Michael's list for Penghu, Taiwan 🇹🇼 See https://beacons.ai/demflyers for more.",
  "places": [
    {
      "name": "Peter's Bistro 澎湖彼得寓所人気酒吧 餐酒館 私厨無菜単 必吃宵夜美食",
      "address": "2, No. 16號, Zhongyang St, Magong City, Penghu County, 台湾 880",
      "note": null,
      "is_favorite": false,
      "lat": 23.564484,
      "lng": 119.564763,
      "maps_url": "https://maps.google.com/?cid=3777494853279959367",
      "cid": "3777494853279959367",
      "google_id": "/g/11gr60n180",
      "maps_place_token": null
    },
    {
      "name": "野礦酒吧",
      "address": "No. 61, Minfu Rd, Magong City, Penghu County, 台湾 880",
      "note": null,
      "is_favorite": false,
      "lat": 23.5653978,
      "lng": 119.56832779999999,
      "maps_url": "https://maps.google.com/?cid=3777494185445528031",
      "cid": "3777494185445528031",
      "google_id": "/g/11f3n1dlf0",
      "maps_place_token": null
    },
    {
      "name": "洛克先生酒吧",
      "address": "No. 5號, Guangwu St, Magong City, Penghu County, 台湾 880",
      "note": null,
      "is_favorite": false,
      "lat": 23.5659195,
      "lng": 119.56590089999999,
      "maps_url": "https://maps.google.com/?cid=3777494187431269091",
      "cid": "3777494187431269091",
      "google_id": "/g/1hc0t1lf1",
      "maps_place_token": null
    },
    {
      "name": "Bella bar-早餐街隠蔵版調酒専売店 澎湖酒吧bar",
      "address": "No. 16號, Wenkang St, Magong City, Penghu County, 台湾 880",
      "note": null,
      "is_favorite": false,
      "lat": 23.5681372,
      "lng": 119.5671026,
      "maps_url": "https://maps.google.com/?cid=3777494282678048483",
      "cid": "3777494282678048483",
      "google_id": "/g/11jws8zl1p",
      "maps_place_token": null
    },
    {
      "name": "Adong Seafood Restaurant",
      "address": null,
      "note": null,
      "is_favorite": false,
      "lat": 23.569299299999997,
      "lng": 119.5729624,
      "maps_url": "https://maps.google.com/?cid=3777493969216543233",
      "cid": "3777493969216543233",
      "google_id": null,
      "maps_place_token": null
    },
    {
      "name": "Lai Fu Seafood Restaurant",
      "address": null,
      "note": null,
      "is_favorite": false,
      "lat": 23.5700184,
      "lng": 119.56956299999999,
      "maps_url": "https://maps.google.com/?cid=3777494165964891243",
      "cid": "3777494165964891243",
      "google_id": null,
      "maps_place_token": null
    },
    {
      "name": "Blessed Oyster Restaurant",
      "address": null,
      "note": null,
      "is_favorite": false,
      "lat": 23.5671847,
      "lng": 119.56454989999999,
      "maps_url": "https://maps.google.com/?cid=3777494187498274557",
      "cid": "3777494187498274557",
      "google_id": null,
      "maps_place_token": null
    },
    {
      "name": "澎湖峰鮮宴「粥 seafood」隱市食堂",
      "address": null,
      "note": null,
      "is_favorite": false,
      "lat": 23.5654404,
      "lng": 119.56544729999999,
      "maps_url": "https://maps.google.com/?cid=3777494963235813921",
      "cid": "3777494963235813921",
      "google_id": null,
      "maps_place_token": null
    },
    {
      "name": "澎湖呷飽飽燒烤屋",
      "address": null,
      "note": null,
      "is_favorite": false,
      "lat": 23.5756163,
      "lng": 119.5803359,
      "maps_url": "https://maps.google.com/?cid=3777495330298803783",
      "cid": "3777495330298803783",
      "google_id": null,
      "maps_place_token": null
    },
    {
      "name": "外婆麵猴 ｜未提供訂位 ｜ 4/28 - 5/3 公休",
      "address": null,
      "note": null,
      "is_favorite": false,
      "lat": 23.572373799999998,
      "lng": 119.5745755,
      "maps_url": "https://maps.google.com/?cid=3777494952410133427",
      "cid": "3777494952410133427",
      "google_id": null,
      "maps_place_token": null
    },
    {
      "name": "川牛木石亭 澎湖店",
      "address": null,
      "note": null,
      "is_favorite": false,
      "lat": 23.5745708,
      "lng": 119.5772526,
      "maps_url": "https://maps.google.com/?cid=3777495324993774437",
      "cid": "3777495324993774437",
      "google_id": null,
      "maps_place_token": null
    },
    {
      "name": "Shanshui Beef Noodle Restaurant",
      "address": null,
      "note": null,
      "is_favorite": false,
      "lat": 23.5198038,
      "lng": 119.5942687,
      "maps_url": "https://maps.google.com/?cid=3777470516480330181",
      "cid": "3777470516480330181",
      "google_id": null,
      "maps_place_token": null
    },
    {
      "name": "海城 上湯鮮魚粥",
      "address": null,
      "note": null,
      "is_favorite": false,
      "lat": 23.5771172,
      "lng": 119.57021359999999,
      "maps_url": "https://maps.google.com/?cid=3777495015293059317",
      "cid": "3777495015293059317",
      "google_id": null,
      "maps_place_token": null
    },
    {
      "name": "沐一",
      "address": null,
      "note": null,
      "is_favorite": false,
      "lat": 23.573152999999998,
      "lng": 119.57311569999999,
      "maps_url": "https://maps.google.com/?cid=3777494740072544201",
      "cid": "3777494740072544201",
      "google_id": null,
      "maps_place_token": null
    },
    {
      "name": "瑪咖朵披薩 Mercato Pizza (營業時間請看粉絲頁公告)",
      "address": null,
      "note": null,
      "is_favorite": false,
      "lat": 23.5704674,
      "lng": 119.5712313,
      "maps_url": "https://maps.google.com/?cid=3777494194299304237",
      "cid": "3777494194299304237",
      "google_id": null,
      "maps_place_token": null
    },
    {
      "name": "藍洞Apatite",
      "address": null,
      "note": null,
      "is_favorite": false,
      "lat": 23.5679677,
      "lng": 119.575638,
      "maps_url": "https://maps.google.com/?cid=3777494156600896371",
      "cid": "3777494156600896371",
      "google_id": null,
      "maps_place_token": null
    },
    {
      "name": "岩田丼屋",
      "address": null,
      "note": null,
      "is_favorite": false,
      "lat": 23.577087799999997,
      "lng": 119.5725736,
      "maps_url": "https://maps.google.com/?cid=3777493968739543107",
      "cid": "3777493968739543107",
      "google_id": null,
      "maps_place_token": null
    },
    {
      "name": "澎湖美食毛毛的店 | 澎湖美食推薦 澎湖必吃 附近美食 餐廳 小管 restaurants 午餐 晚餐",
      "address": null,
      "note": null,
      "is_favorite": false,
      "lat": 23.5667094,
      "lng": 119.5664377,
      "maps_url": "https://maps.google.com/?cid=3777496397114177875",
      "cid": "3777496397114177875",
      "google_id": null,
      "maps_place_token": null
    },
    {
      "name": "Jing Dian Seafood Restaurant",
      "address": null,
      "note": null,
      "is_favorite": false,
      "lat": 23.5647761,
      "lng": 119.5689975,
      "maps_url": "https://maps.google.com/?cid=3777493749388423943",
      "cid": "3777493749388423943",
      "google_id": null,
      "maps_place_token": null
    },
    {
      "name": "668 Seafood Restaurant",
      "address": null,
      "note": null,
      "is_favorite": false,
      "lat": 23.5713573,
      "lng": 119.5676254,
      "maps_url": "https://maps.google.com/?cid=3777494183230089093",
      "cid": "3777494183230089093",
      "google_id": null,
      "maps_place_token": null
    },
    {
      "name": "CHUJU",
      "address": null,
      "note": null,
      "is_favorite": false,
      "lat": 23.5770218,
      "lng": 119.572783,
      "maps_url": "https://maps.google.com/?cid=3777494124019647545",
      "cid": "3777494124019647545",
      "google_id": null,
      "maps_place_token": null
    },
    {
      "name": "Addict restaurant",
      "address": null,
      "note": null,
      "is_favorite": false,
      "lat": 23.5741487,
      "lng": 119.5772374,
      "maps_url": "https://maps.google.com/?cid=3777494466827045895",
      "cid": "3777494466827045895",
      "google_id": null,
      "maps_place_token": null
    },
    {
      "name": "康倪海洋生技-丑丑館",
      "address": null,
      "note": null,
      "is_favorite": false,
      "lat": 23.556603499999998,
      "lng": 119.6059241,
      "maps_url": "https://maps.google.com/?cid=3777470674888808447",
      "cid": "3777470674888808447",
      "google_id": null,
      "maps_place_token": null
    },
    {
      "name": "Beichen Temple Night Market",
      "address": null,
      "note": null,
      "is_favorite": false,
      "lat": 23.566019999999998,
      "lng": 119.565243,
      "maps_url": "https://maps.google.com/?cid=3777494187794253627",
      "cid": "3777494187794253627",
      "google_id": null,
      "maps_place_token": null
    },
    {
      "name": "Guanyinting Recreation Area",
      "address": null,
      "note": null,
      "is_favorite": false,
      "lat": 23.568645699999998,
      "lng": 119.56243099999999,
      "maps_url": "https://maps.google.com/?cid=3777494193908216753",
      "cid": "3777494193908216753",
      "google_id": null,
      "maps_place_token": null
    },
    {
      "name": "蛇頭山遊憩區",
      "address": null,
      "note": null,
      "is_favorite": false,
      "lat": 23.55164,
      "lng": 119.54756499999999,
      "maps_url": "https://maps.google.com/?cid=3777493665629371337",
      "cid": "3777493665629371337",
      "google_id": null,
      "maps_place_token": null
    },
    {
      "name": "Four-eyedwell",
      "address": null,
      "note": null,
      "is_favorite": false,
      "lat": 23.5651792,
      "lng": 119.5649382,
      "maps_url": "https://maps.google.com/?cid=3777494188033274319",
      "cid": "3777494188033274319",
      "google_id": null,
      "maps_place_token": null
    },
    {
      "name": "Tongliang Great Banyan",
      "address": null,
      "note": null,
      "is_favorite": false,
      "lat": 23.6566132,
      "lng": 119.55701529999999,
      "maps_url": "https://maps.google.com/?cid=3777496099590522969",
      "cid": "3777496099590522969",
      "google_id": null,
      "maps_place_token": null
    },
    {
      "name": "Xiying Rainbow Bridge",
      "address": null,
      "note": null,
      "is_favorite": false,
      "lat": 23.569248299999998,
      "lng": 119.55999589999999,
      "maps_url": "https://maps.google.com/?cid=3777494193962005825",
      "cid": "3777494193962005825",
      "google_id": null,
      "maps_place_token": null
    },
    {
      "name": "Nanliao Ancient House",
      "address": null,
      "note": null,
      "is_favorite": false,
      "lat": 23.5841027,
      "lng": 119.6711953,
      "maps_url": "https://maps.google.com/?cid=3777469230278332877",
      "cid": "3777469230278332877",
      "google_id": null,
      "maps_place_token": null
    },
    {
      "name": "Aimen Beach",
      "address": null,
      "note": null,
      "is_favorite": false,
      "lat": 23.5547805,
      "lng": 119.63890409999999,
      "maps_url": "https://maps.google.com/?cid=3777494188173340225",
      "cid": "3777494188173340225",
      "google_id": null,
      "maps_place_token": null
    },
    {
      "name": "美東芳牛肉麵",
      "address": null,
      "note": null,
      "is_favorite": false,
      "lat": 23.648282899999998,
      "lng": 119.5991339,
      "maps_url": "https://maps.google.com/?cid=3777496088093506463",
      "cid": "3777496088093506463",
      "google_id": null,
      "maps_place_token": null
    },
    {
      "name": "Penghu Aquarium",
      "address": null,
      "note": null,
      "is_favorite": false,
      "lat": 23.6499486,
      "lng": 119.6040311,
      "maps_url": "https://maps.google.com/?cid=3777468074985569345",
      "cid": "3777468074985569345",
      "google_id": null,
      "maps_place_token": null
    },
    {
      "name": "Whale Cave",
      "address": null,
      "note": null,
      "is_favorite": false,
      "lat": 23.655196099999998,
      "lng": 119.5198044,
      "maps_url": "https://maps.google.com/?cid=3777495461815661173",
      "cid": "3777495461815661173",
      "google_id": null,
      "maps_place_token": null
    },
    {
      "name": "自由伯 - 澎湖第一仙人掌冰 ️",
      "address": null,
      "note": null,
      "is_favorite": false,
      "lat": 23.6564187,
      "lng": 119.5572321,
      "maps_url": "https://maps.google.com/?cid=3777496397085755719",
      "cid": "3777496397085755719",
      "google_id": null,
      "maps_place_token": null
    },
    {
      "name": "老街茶坊-杏仁茶，野生一條根",
      "address": null,
      "note": null,
      "is_favorite": false,
      "lat": 23.564675299999998,
      "lng": 119.5648416,
      "maps_url": "https://maps.google.com/?cid=3777493748122206957",
      "cid": "3777493748122206957",
      "google_id": null,
      "maps_place_token": null
    },
    {
      "name": "Shili Beach",
      "address": null,
      "note": null,
      "is_favorite": false,
      "lat": 23.525679699999998,
      "lng": 119.56693369999999,
      "maps_url": "https://maps.google.com/?cid=3777482588252510621",
      "cid": "3777482588252510621",
      "google_id": null,
      "maps_place_token": null
    },
    {
      "name": "Lizhengjiao Beach",
      "address": null,
      "note": null,
      "is_favorite": false,
      "lat": 23.553403199999998,
      "lng": 119.68265609999999,
      "maps_url": "https://maps.google.com/?cid=3777470945946738231",
      "cid": "3777470945946738231",
      "google_id": null,
      "maps_place_token": null
    },
    {
      "name": "Kuibishan Beach",
      "address": null,
      "note": null,
      "is_favorite": false,
      "lat": 23.601456199999998,
      "lng": 119.67142559999999,
      "maps_url": "https://maps.google.com/?cid=3777469449929593455",
      "cid": "3777469449929593455",
      "google_id": null,
      "maps_place_token": null
    },
    {
      "name": "林投金沙灘",
      "address": null,
      "note": null,
      "is_favorite": false,
      "lat": 23.5606694,
      "lng": 119.6460154,
      "maps_url": "https://maps.google.com/?cid=3777470080731407501",
      "cid": "3777470080731407501",
      "google_id": null,
      "maps_place_token": null
    },
    {
      "name": "文康滷菜",
      "address": "No. 277號, Guangfu Rd, Magong City, Penghu County, 台湾 880",
      "note": null,
      "is_favorite": false,
      "lat": 23.5754272,
      "lng": 119.5743851,
      "maps_url": "https://maps.google.com/?cid=3777494130778911315",
      "cid": "3777494130778911315",
      "google_id": "/g/11ckqsx843",
      "maps_place_token": null
    },
    {
      "name": "文澳祖師廟觀光夜市",
      "address": "880 台湾 Penghu County, Magong City",
      "note": null,
      "is_favorite": false,
      "lat": 23.5650194,
      "lng": 119.5824758,
      "maps_url": "https://maps.google.com/?cid=3777493975869936813",
      "cid": "3777493975869936813",
      "google_id": "/g/1tg65vc2",
      "maps_place_token": null
    },
    {
      "name": "池東大菓葉玄武岩",
      "address": "881 台湾 Penghu County, Xiyu Township, 10號",
      "note": null,
      "is_favorite": false,
      "lat": 23.595584,
      "lng": 119.5163386,
      "maps_url": "https://maps.google.com/?cid=3777493329813810683",
      "cid": "3777493329813810683",
      "google_id": "/g/1q62dz9f0",
      "maps_place_token": null
    },
    {
      "name": "Duxingshi Village",
      "address": "880 台湾 Penghu County, Magong City, 新復路二巷22號",
      "note": null,
      "is_favorite": false,
      "lat": 23.563854199999998,
      "lng": 119.5609494,
      "maps_url": "https://maps.google.com/?cid=3777493743198837103",
      "cid": "3777493743198837103",
      "google_id": "/g/1tjfdlbp",
      "maps_place_token": null
    },
    {
      "name": "玉冠嫩仙草",
      "address": "No. 32, Minfu Rd, Magong City, Penghu County, 台湾 880",
      "note": null,
      "is_favorite": false,
      "lat": 23.5660976,
      "lng": 119.5685944,
      "maps_url": "https://maps.google.com/?cid=3777494185506025731",
      "cid": "3777494185506025731",
      "google_id": "/g/1ttyth7w",
      "maps_place_token": null
    },
    {
      "name": "菓葉灰窯",
      "address": "885 台湾 Penghu County, Huxi Township, 菓葉村",
      "note": null,
      "is_favorite": false,
      "lat": 23.5752796,
      "lng": 119.6806883,
      "maps_url": "https://maps.google.com/?cid=3777469204537922079",
      "cid": "3777469204537922079",
      "google_id": "/g/11b7_1d2s9",
      "maps_place_token": null
    },
    {
      "name": "澎湖跨海大橋",
      "address": "884 台湾 Penghu County, Baisha Township, 通梁村",
      "note": null,
      "is_favorite": false,
      "lat": 23.6578236,
      "lng": 119.55453899999999,
      "maps_url": "https://maps.google.com/?cid=3777495784741475115",
      "cid": "3777495784741475115",
      "google_id": "/g/155t06ms",
      "maps_place_token": null
    },
    {
      "name": "澎湖大姐自助碳烤広場",
      "address": "No. 88號, Minzu Rd, Magong City, Penghu County, 台湾 880",
      "note": null,
      "is_favorite": false,
      "lat": 23.5725697,
      "lng": 119.56685449999999,
      "maps_url": "https://maps.google.com/?cid=3777494181347722085",
      "cid": "3777494181347722085",
      "google_id": "/g/11f53hclz5",
      "maps_place_token": null
    },
    {
      "name": "奎壁山摩西分海",
      "address": "885 台湾 Penghu County, Huxi Township",
      "note": null,
      "is_favorite": false,
      "lat": 23.5978987,
      "lng": 119.672563,
      "maps_url": "https://maps.google.com/?cid=3777469446930720901",
      "cid": "3777469446930720901",
      "google_id": "/g/11b7wc4m0m",
      "maps_place_token": null
    },
    {
      "name": "SUNLA",
      "address": "880 台湾 Penghu County, Magong City, 112號",
      "note": null,
      "is_favorite": false,
      "lat": 23.5798819,
      "lng": 119.5713701,
      "maps_url": "https://maps.google.com/?cid=3777494366309827817",
      "cid": "3777494366309827817",
      "google_id": "/g/11jq24jx6w",
      "maps_place_token": null
    },
    {
      "name": "butterfly Cafe'",
      "address": "No. 253號, Sanduo Rd, Magong City, Penghu County, 台湾 880",
      "note": null,
      "is_favorite": false,
      "lat": 23.5765381,
      "lng": 119.5737935,
      "maps_url": "https://maps.google.com/?cid=3777494130603798143",
      "cid": "3777494130603798143",
      "google_id": "/g/11cnc9ksnh",
      "maps_place_token": null
    },
    {
      "name": "林投貝殻教堂[台湾好行]",
      "address": "885 台湾 澎湖県 湖西郷",
      "note": null,
      "is_favorite": false,
      "lat": 23.561688999999998,
      "lng": 119.64678099999999,
      "maps_url": "https://maps.google.com/?cid=3777470083808458121",
      "cid": "3777470083808458121",
      "google_id": "/g/11jlnw9xr7",
      "maps_place_token": null
    },
    {
      "name": "青湾情人海灘",
      "address": "台湾 澎湖縣馬公市嵵裡里",
      "note": null,
      "is_favorite": false,
      "lat": 23.5319641,
      "lng": 119.553573,
      "maps_url": "https://maps.google.com/?cid=3777482742712049795",
      "cid": "3777482742712049795",
      "google_id": "/g/11x9_8ngd",
      "maps_place_token": null
    },
    {
      "name": "Fongguei Cave",
      "address": "880 台湾 Penghu County, Magong City, 風櫃里",
      "note": null,
      "is_favorite": false,
      "lat": 23.537891,
      "lng": 119.5437331,
      "maps_url": "https://maps.google.com/?cid=3777482812381234147",
      "cid": "3777482812381234147",
      "google_id": "/g/155t13yb",
      "maps_place_token": null
    },
    {
      "name": "PADI澎湖興仁潜水訓練中心",
      "address": "88053 台湾 Penghu County, Magong City, 烏崁里128號之25",
      "note": null,
      "is_favorite": false,
      "lat": 23.5480062,
      "lng": 119.6177345,
      "maps_url": "https://maps.google.com/?cid=3777470353723950233",
      "cid": "3777470353723950233",
      "google_id": "/g/11bwh4n1zm",
      "maps_place_token": null
    }
  ]
}
