{
  "fetched_at": "2026-04-15T15:30:35.703585+00:00",
  "refresh_after": "2026-04-29T15:30:35.703585+00:00",
  "source_signature": "6619000546cbb4c25897a49e416ff66254bb47e78322c9c4452266a4223667a5",
  "configured_source_type": "google_list_url",
  "configured_source_url": "https://maps.app.goo.gl/B9fZqbwbWNeudkEr6",
  "configured_source_path": null,
  "source_url": "https://maps.app.goo.gl/B9fZqbwbWNeudkEr6",
  "list_id": "88cB91lNQJqwQrECCJNzAg",
  "title": "Perth & Fremantle, Australia 🇦🇺",
  "description": "Michael's list for Perth & Fremantle, Australia 🇦🇺 See https://beacons.ai/demflyers for more.",
  "places": [
    {
      "name": "Pearl's Bar",
      "address": "151 Bussell Hwy, Margaret River WA 6285, Australia",
      "note": null,
      "is_favorite": false,
      "lat": -33.9534872,
      "lng": 115.0737406,
      "maps_url": "https://maps.google.com/?cid=3039839316648212881",
      "cid": "3039839316648212881",
      "google_id": "/g/11sbhj04lt",
      "maps_place_token": null
    },
    {
      "name": "Beaconsfield Wine Bar",
      "address": "4B/115 Lefroy Rd, Beaconsfield WA 6162, Australia",
      "note": null,
      "is_favorite": false,
      "lat": -32.0674272,
      "lng": 115.7750087,
      "maps_url": "https://maps.google.com/?cid=3040672931853484885",
      "cid": "3040672931853484885",
      "google_id": "/g/11vc51kkxr",
      "maps_place_token": null
    },
    {
      "name": "Lola Underground",
      "address": "Hay St &, Cathedral Ave, Perth WA 6000, Australia",
      "note": null,
      "is_favorite": false,
      "lat": -31.9549688,
      "lng": 115.8609673,
      "maps_url": "https://maps.google.com/?cid=3040698308894550531",
      "cid": "3040698308894550531",
      "google_id": "/g/11wqqpwh8_",
      "maps_place_token": null
    },
    {
      "name": "Foxtrot Unicorn",
      "address": "Basement, Level 101 St Georges Terrace enter through glass door on the left, 101 St Georges Terrace, Perth WA 6000, Australia",
      "note": null,
      "is_favorite": false,
      "lat": -31.955218,
      "lng": 115.8569835,
      "maps_url": "https://maps.google.com/?cid=3040699256100175389",
      "cid": "3040699256100175389",
      "google_id": "/g/11h8lf4qhm",
      "maps_place_token": null
    },
    {
      "name": "Terrarium Perth",
      "address": "Entry via, Tenancy 2, 99 St Georges Terrace, Howard St, Perth WA 6000, Australia",
      "note": null,
      "is_favorite": false,
      "lat": -31.955343199999998,
      "lng": 115.85729839999999,
      "maps_url": "https://maps.google.com/?cid=3040698316824419951",
      "cid": "3040698316824419951",
      "google_id": "/g/11sr0n9l9d",
      "maps_place_token": null
    },
    {
      "name": "Balthazar",
      "address": "6 The Esplanade, Perth WA 6000, Australia",
      "note": null,
      "is_favorite": false,
      "lat": -31.9564764,
      "lng": 115.8583391,
      "maps_url": "https://maps.google.com/?cid=3040698487387956601",
      "cid": "3040698487387956601",
      "google_id": "/g/1vl91chv",
      "maps_place_token": null
    },
    {
      "name": "The Royal Perth",
      "address": "531 Wellington St, Perth WA 6000, Australia",
      "note": null,
      "is_favorite": false,
      "lat": -31.951282499999998,
      "lng": 115.857817,
      "maps_url": "https://maps.google.com/?cid=3040698118607026783",
      "cid": "3040698118607026783",
      "google_id": "/g/11j2jvq4j5",
      "maps_place_token": null
    },
    {
      "name": "Bobeche",
      "address": "Basement |, 131 St Georges Terrace, Perth WA 6000, Australia",
      "note": null,
      "is_favorite": false,
      "lat": -31.9545295,
      "lng": 115.85520319999999,
      "maps_url": "https://maps.google.com/?cid=3040698126831405811",
      "cid": "3040698126831405811",
      "google_id": "/g/1pwfwd7td",
      "maps_place_token": null
    },
    {
      "name": "Yagan Square",
      "address": "Cnr Wellington Street and, William St, Perth WA 6000, Australia",
      "note": null,
      "is_favorite": false,
      "lat": -31.950742299999998,
      "lng": 115.8588053,
      "maps_url": "https://maps.google.com/?cid=3040698129642736953",
      "cid": "3040698129642736953",
      "google_id": "/g/11g6rkk346",
      "maps_place_token": null
    },
    {
      "name": "ARARA and Tupí",
      "address": "16 Queen St, Perth WA 6000, Australia",
      "note": null,
      "is_favorite": false,
      "lat": -31.9515359,
      "lng": 115.8564701,
      "maps_url": "https://maps.google.com/?cid=3040698119950820623",
      "cid": "3040698119950820623",
      "google_id": "/g/11b6qln1gf",
      "maps_place_token": null
    },
    {
      "name": "Post",
      "address": "1 Cathedral Ave, Perth WA 6000, Australia",
      "note": null,
      "is_favorite": false,
      "lat": -31.9556726,
      "lng": 115.8603874,
      "maps_url": "https://maps.google.com/?cid=3040698486770523463",
      "cid": "3040698486770523463",
      "google_id": "/g/11clgk4x25",
      "maps_place_token": null
    },
    {
      "name": "CK Retro Restaurant",
      "address": "546 Hay St, Perth WA 6000, Australia",
      "note": null,
      "is_favorite": false,
      "lat": -31.9550178,
      "lng": 115.8620881,
      "maps_url": "https://maps.google.com/?cid=3040699031890320423",
      "cid": "3040699031890320423",
      "google_id": "/g/11fr5jv52t",
      "maps_place_token": null
    },
    {
      "name": "PICA — Perth Institute of Contemporary Arts",
      "address": "51 James St, Perth WA 6000, Australia",
      "note": null,
      "is_favorite": false,
      "lat": -31.949802299999998,
      "lng": 115.86021339999999,
      "maps_url": "https://maps.google.com/?cid=3040698106214749055",
      "cid": "3040698106214749055",
      "google_id": null,
      "maps_place_token": null
    },
    {
      "name": "Varnish on King",
      "address": "75 King St, Perth WA 6000, Australia",
      "note": null,
      "is_favorite": false,
      "lat": -31.950951399999997,
      "lng": 115.8554114,
      "maps_url": "https://maps.google.com/?cid=3040698116098004325",
      "cid": "3040698116098004325",
      "google_id": "/g/1pwfy466k",
      "maps_place_token": null
    },
    {
      "name": "Kings Park and Botanic Garden",
      "address": "Fraser Ave, Perth WA 6005, Australia",
      "note": null,
      "is_favorite": false,
      "lat": -31.9609106,
      "lng": 115.8321929,
      "maps_url": "https://maps.google.com/?cid=3040674276921122607",
      "cid": "3040674276921122607",
      "google_id": null,
      "maps_place_token": null
    },
    {
      "name": "The Sunshine Harvester Works",
      "address": "2/1 James Street Corner Beach and, 1/1 James St, Fremantle WA 6160, Australia",
      "note": null,
      "is_favorite": false,
      "lat": -32.0465359,
      "lng": 115.7509072,
      "maps_url": "https://maps.google.com/?cid=3040670161251919823",
      "cid": "3040670161251919823",
      "google_id": "/g/11fk4nwd0s",
      "maps_place_token": null
    },
    {
      "name": "Freo.Social",
      "address": "Parry St, Fremantle WA 6160, Australia",
      "note": null,
      "is_favorite": false,
      "lat": -32.054773,
      "lng": 115.75112419999999,
      "maps_url": "https://maps.google.com/?cid=3040669994161785535",
      "cid": "3040669994161785535",
      "google_id": "/g/11fj_t2y1q",
      "maps_place_token": null
    },
    {
      "name": "Manuka Woodfire Kitchen",
      "address": "134 High St, Fremantle WA 6160, Australia",
      "note": null,
      "is_favorite": false,
      "lat": -32.0534697,
      "lng": 115.74940219999999,
      "maps_url": "https://maps.google.com/?cid=3040670152818272785",
      "cid": "3040670152818272785",
      "google_id": "/g/11cknfgqpy",
      "maps_place_token": null
    },
    {
      "name": "Fremantle Markets",
      "address": "South Terrace &, Henderson St, Fremantle WA 6160, Australia",
      "note": null,
      "is_favorite": false,
      "lat": -32.056264299999995,
      "lng": 115.74885069999999,
      "maps_url": "https://maps.google.com/?cid=3040670248098763967",
      "cid": "3040670248098763967",
      "google_id": null,
      "maps_place_token": null
    },
    {
      "name": "Tonic & Ginger",
      "address": "92 South Terrace, Fremantle WA 6160, Australia",
      "note": null,
      "is_favorite": false,
      "lat": -32.0567677,
      "lng": 115.7498186,
      "maps_url": "https://maps.google.com/?cid=3040670476181597591",
      "cid": "3040670476181597591",
      "google_id": "/g/11fpjmbnb6",
      "maps_place_token": null
    },
    {
      "name": "Portorosa",
      "address": "85 Market St, Fremantle WA 6160, Australia",
      "note": null,
      "is_favorite": false,
      "lat": -32.055458,
      "lng": 115.7466345,
      "maps_url": "https://maps.google.com/?cid=3040670246301342363",
      "cid": "3040670246301342363",
      "google_id": "/g/1tdjn77g",
      "maps_place_token": null
    },
    {
      "name": "Sail and Anchor",
      "address": "64 South Terrace, Fremantle WA 6160, Australia",
      "note": null,
      "is_favorite": false,
      "lat": -32.0561857,
      "lng": 115.74869059999999,
      "maps_url": "https://maps.google.com/?cid=3040670248103944799",
      "cid": "3040670248103944799",
      "google_id": null,
      "maps_place_token": null
    },
    {
      "name": "Lions And Tigers",
      "address": "8 Bannister St, Fremantle WA 6160, Australia",
      "note": null,
      "is_favorite": false,
      "lat": -32.0552139,
      "lng": 115.7458932,
      "maps_url": "https://maps.google.com/?cid=3040669854500151951",
      "cid": "3040669854500151951",
      "google_id": "/g/11fmlfmq17",
      "maps_place_token": null
    },
    {
      "name": "Bathers Beach House",
      "address": "6/47 Mews Rd, Fremantle WA 6160, Australia",
      "note": null,
      "is_favorite": false,
      "lat": -32.0582466,
      "lng": 115.7421493,
      "maps_url": "https://maps.google.com/?cid=3040670205247341221",
      "cid": "3040670205247341221",
      "google_id": "/g/11b6p86cql",
      "maps_place_token": null
    },
    {
      "name": "Twin Fin Fish & Chips Restaurant+Bar",
      "address": "8/47 Mews Rd, Fremantle WA 6160, Australia",
      "note": null,
      "is_favorite": false,
      "lat": -32.057910899999996,
      "lng": 115.74249259999999,
      "maps_url": "https://maps.google.com/?cid=3040670784416803259",
      "cid": "3040670784416803259",
      "google_id": "/g/11j0bgth9d",
      "maps_place_token": null
    },
    {
      "name": "Kailis Fishmarket Cafe",
      "address": "46 Mews Rd, Fremantle WA 6160, Australia",
      "note": null,
      "is_favorite": false,
      "lat": -32.0587322,
      "lng": 115.74240329999999,
      "maps_url": "https://maps.google.com/?cid=3040670205585781337",
      "cid": "3040670205585781337",
      "google_id": "/g/1tpmdfk6",
      "maps_place_token": null
    },
    {
      "name": "Sealanes Cafe",
      "address": "178 Marine Terrace, South Fremantle WA 6162, Australia",
      "note": null,
      "is_favorite": false,
      "lat": -32.0730875,
      "lng": 115.75217699999999,
      "maps_url": "https://maps.google.com/?cid=3040670362908054021",
      "cid": "3040670362908054021",
      "google_id": "/g/11j3x68pzs",
      "maps_place_token": null
    },
    {
      "name": "Cicerello's Fremantle",
      "address": "44 Mews Rd, Fremantle WA 6160, Australia",
      "note": null,
      "is_favorite": false,
      "lat": -32.058535,
      "lng": 115.743077,
      "maps_url": "https://maps.google.com/?cid=3040670205077873007",
      "cid": "3040670205077873007",
      "google_id": "/g/1tjcrs0p",
      "maps_place_token": null
    },
    {
      "name": "Little Creatures Brewery, Fremantle",
      "address": "40 Mews Rd, Fremantle WA 6160, Australia",
      "note": null,
      "is_favorite": false,
      "lat": -32.0592654,
      "lng": 115.74437289999999,
      "maps_url": "https://maps.google.com/?cid=3040670203791793971",
      "cid": "3040670203791793971",
      "google_id": null,
      "maps_place_token": null
    },
    {
      "name": "Sentinel Bar & Grill",
      "address": null,
      "note": null,
      "is_favorite": false,
      "lat": -31.954862199999997,
      "lng": 115.856218,
      "maps_url": "https://maps.google.com/?cid=3040698124934774621",
      "cid": "3040698124934774621",
      "google_id": null,
      "maps_place_token": null
    }
  ]
}
