{
  "fetched_at": "2026-04-15T23:43:26.951423+00:00",
  "refresh_after": "2026-04-29T23:43:26.951423+00:00",
  "source_signature": "5731b905d22d71853de768f33dfb0cac1d40b6059fe637973f176aa6bbd03404",
  "configured_source_type": "google_list_url",
  "configured_source_url": "https://maps.app.goo.gl/FFpz3CY9GehrBmbr6",
  "configured_source_path": null,
  "source_url": "https://maps.app.goo.gl/FFpz3CY9GehrBmbr6",
  "list_id": "sdOp2XkPRqGHTxDtlaFUFw",
  "title": "San Francisco, California 🌉",
  "description": "Michael's list for San Francisco, California, United States 🇺🇸 See https://beacons.ai/demflyers for more.",
  "places": [
    {
      "name": "Cotogna",
      "address": "490 Pacific Ave, San Francisco, CA 94133, United States",
      "note": null,
      "is_favorite": false,
      "lat": 37.7974009,
      "lng": -122.4035761,
      "maps_url": "https://maps.google.com/?cid=3844909922527115641",
      "cid": "3844909922527115641",
      "google_id": null,
      "maps_place_token": null
    },
    {
      "name": "Restaurant Naides",
      "address": "708 Bush St, San Francisco, CA 94108, United States",
      "note": null,
      "is_favorite": false,
      "lat": 37.7902449,
      "lng": -122.409088,
      "maps_url": "https://maps.google.com/?q=37.7902449,-122.4090880",
      "cid": null,
      "google_id": "/g/11ynl1hm6j",
      "maps_place_token": null
    },
    {
      "name": "La Cigale",
      "address": "679 Chenery St, San Francisco, CA 94131",
      "note": null,
      "is_favorite": false,
      "lat": 37.734407499999996,
      "lng": -122.4334153,
      "maps_url": "https://maps.google.com/?q=37.7344075,-122.4334153",
      "cid": null,
      "google_id": "/g/11yf7ns78x",
      "maps_place_token": null
    },
    {
      "name": "Osmanthus Dim Sum Lounge",
      "address": "504 Broadway, San Francisco, CA 94133, United States",
      "note": null,
      "is_favorite": false,
      "lat": 37.7981209,
      "lng": -122.4057057,
      "maps_url": "https://maps.google.com/?cid=5409186209426992063",
      "cid": "5409186209426992063",
      "google_id": "/g/11j4pz7qq6",
      "maps_place_token": null
    },
    {
      "name": "Anchor Oyster Bar",
      "address": "579 Castro St, San Francisco, CA 94114, United States",
      "note": null,
      "is_favorite": false,
      "lat": 37.7596962,
      "lng": -122.4347512,
      "maps_url": "https://maps.google.com/?cid=6034675008981876862",
      "cid": "6034675008981876862",
      "google_id": null,
      "maps_place_token": null
    },
    {
      "name": "Tiya",
      "address": "3213 Scott St, San Francisco, CA 94123, United States",
      "note": null,
      "is_favorite": false,
      "lat": 37.7995085,
      "lng": -122.4412277,
      "maps_url": "https://maps.google.com/?q=37.7995085,-122.4412277",
      "cid": null,
      "google_id": "/g/11vzcnqpm5",
      "maps_place_token": null
    },
    {
      "name": "Tacos del barrio",
      "address": "2817 24th St, San Francisco, CA 94110, United States",
      "note": null,
      "is_favorite": false,
      "lat": 37.752656099999996,
      "lng": -122.40861,
      "maps_url": "https://maps.google.com/?q=37.7526561,-122.4086100",
      "cid": null,
      "google_id": "/g/11kjnphxsj",
      "maps_place_token": null
    },
    {
      "name": "El Metate",
      "address": "2406 Bryant St, San Francisco, CA 94110, United States",
      "note": null,
      "is_favorite": false,
      "lat": 37.7557361,
      "lng": -122.40959339999999,
      "maps_url": "https://maps.google.com/?q=37.7557361,-122.4095934",
      "cid": null,
      "google_id": "/g/11rsqd_wx5",
      "maps_place_token": null
    },
    {
      "name": "El Rey Taquiza Artesanal",
      "address": "2491 Mission St, San Francisco, CA 94110, United States",
      "note": null,
      "is_favorite": false,
      "lat": 37.757267899999995,
      "lng": -122.41873199999999,
      "maps_url": "https://maps.google.com/?q=37.7572679,-122.4187320",
      "cid": null,
      "google_id": "/g/11t49yc6cf",
      "maps_place_token": null
    },
    {
      "name": "Mexico Tipico",
      "address": "4581 Mission St, San Francisco, CA 94112, United States",
      "note": null,
      "is_favorite": false,
      "lat": 37.7249592,
      "lng": -122.4344417,
      "maps_url": "https://maps.google.com/?cid=8114814777890038701",
      "cid": "8114814777890038701",
      "google_id": null,
      "maps_place_token": null
    },
    {
      "name": "Taqueria Cancun",
      "address": "3211 Mission St #3213, San Francisco, CA 94110, United States",
      "note": null,
      "is_favorite": false,
      "lat": 37.745360399999996,
      "lng": -122.4199087,
      "maps_url": "https://maps.google.com/?q=37.7453604,-122.4199087",
      "cid": null,
      "google_id": "/g/1tdjx7gs",
      "maps_place_token": null
    },
    {
      "name": "La Vaca Birria",
      "address": "2962 24th St, San Francisco, CA 94110, United States",
      "note": null,
      "is_favorite": false,
      "lat": 37.7527699,
      "lng": -122.4114087,
      "maps_url": "https://maps.google.com/?q=37.7527699,-122.4114087",
      "cid": null,
      "google_id": "/g/11q91znrp8",
      "maps_place_token": null
    },
    {
      "name": "SanJalisco Mexican Restaurant",
      "address": "901 S Van Ness Ave, San Francisco, CA 94110, United States",
      "note": null,
      "is_favorite": false,
      "lat": 37.758663299999995,
      "lng": -122.4167111,
      "maps_url": "https://maps.google.com/?cid=8479380053246533185",
      "cid": "8479380053246533185",
      "google_id": "/g/113f82n5c",
      "maps_place_token": null
    },
    {
      "name": "Taqueria San Jose",
      "address": "2830 Mission St, San Francisco, CA 94110, United States",
      "note": null,
      "is_favorite": false,
      "lat": 37.7516098,
      "lng": -122.41822119999999,
      "maps_url": "https://maps.google.com/?cid=8025973842790668866",
      "cid": "8025973842790668866",
      "google_id": "/g/1yl45hq01",
      "maps_place_token": null
    },
    {
      "name": "Poc-Chuc Restaurant",
      "address": "2886 16th St, San Francisco, CA 94103, United States",
      "note": null,
      "is_favorite": false,
      "lat": 37.765338799999995,
      "lng": -122.4171439,
      "maps_url": "https://maps.google.com/?cid=3799449704690906695",
      "cid": "3799449704690906695",
      "google_id": null,
      "maps_place_token": null
    },
    {
      "name": "Merchant Roots",
      "address": "1148 Mission St, San Francisco, CA 94103, United States",
      "note": null,
      "is_favorite": false,
      "lat": 37.7784058,
      "lng": -122.4121866,
      "maps_url": "https://maps.google.com/?cid=1114618151513796290",
      "cid": "1114618151513796290",
      "google_id": "/g/11f3n9h1v3",
      "maps_place_token": null
    },
    {
      "name": "🌉",
      "address": "Abacá",
      "note": null,
      "is_favorite": false,
      "lat": 37.806736699999995,
      "lng": -122.4169367,
      "maps_url": "https://maps.google.com/?cid=104356373423434804635",
      "cid": "104356373423434804635",
      "google_id": null,
      "maps_place_token": null
    },
    {
      "name": "Dragon Horse",
      "address": "917 Folsom St, San Francisco, CA 94107, United States",
      "note": null,
      "is_favorite": false,
      "lat": 37.7798312,
      "lng": -122.40366279999999,
      "maps_url": "https://maps.google.com/?cid=2238734840529851025",
      "cid": "2238734840529851025",
      "google_id": "/g/11kc0d3l7h",
      "maps_place_token": null
    },
    {
      "name": "Kiln",
      "address": "149 Fell St, San Francisco, CA 94102, United States",
      "note": null,
      "is_favorite": false,
      "lat": 37.7761559,
      "lng": -122.42041189999999,
      "maps_url": "https://maps.google.com/?q=37.7761559,-122.4204119",
      "cid": null,
      "google_id": "/g/11srrp6qf6",
      "maps_place_token": null
    },
    {
      "name": "Nisei",
      "address": "2316 Polk St, San Francisco, CA 94109, United States",
      "note": null,
      "is_favorite": false,
      "lat": 37.7981765,
      "lng": -122.42208529999999,
      "maps_url": "https://maps.google.com/?cid=963425384699482225",
      "cid": "963425384699482225",
      "google_id": "/g/11k6r1c2ps",
      "maps_place_token": null
    },
    {
      "name": "Mijoté",
      "address": "2400 Harrison St, San Francisco, CA 94110",
      "note": null,
      "is_favorite": false,
      "lat": 37.7588898,
      "lng": -122.41285049999999,
      "maps_url": "https://maps.google.com/?cid=3748081942563517299",
      "cid": "3748081942563517299",
      "google_id": "/g/11rvcnsl2y",
      "maps_place_token": null
    },
    {
      "name": "Baklavastory.",
      "address": "1830 Harrison St Ste B, San Francisco, CA 94103, United States",
      "note": null,
      "is_favorite": false,
      "lat": 37.7679709,
      "lng": -122.4137207,
      "maps_url": "https://maps.google.com/?q=37.7679709,-122.4137207",
      "cid": null,
      "google_id": "/g/11s4fgck2f",
      "maps_place_token": null
    },
    {
      "name": "Ernest",
      "address": "1890 Bryant St Suite 100, San Francisco, CA 94110, United States",
      "note": null,
      "is_favorite": false,
      "lat": 37.7631455,
      "lng": -122.4109946,
      "maps_url": "https://maps.google.com/?q=37.7631455,-122.4109946",
      "cid": null,
      "google_id": "/g/11kn2n6x7k",
      "maps_place_token": null
    },
    {
      "name": "San Francisco's Hometown Creamery",
      "address": "1290 9th Ave, San Francisco, CA 94122",
      "note": null,
      "is_favorite": false,
      "lat": 37.7644063,
      "lng": -122.46616279999999,
      "maps_url": "https://maps.google.com/?q=37.7644063,-122.4661628",
      "cid": null,
      "google_id": null,
      "maps_place_token": null
    },
    {
      "name": "Philmore Creamery",
      "address": "1840 Fillmore St, San Francisco, CA 94115, United States",
      "note": null,
      "is_favorite": false,
      "lat": 37.7865433,
      "lng": -122.4332707,
      "maps_url": "https://maps.google.com/?cid=1231183495849507687",
      "cid": "1231183495849507687",
      "google_id": "/g/11g04yx1sl",
      "maps_place_token": null
    },
    {
      "name": "Over The Moon Creamery",
      "address": "2144 Chestnut St, San Francisco, CA 94109, United States",
      "note": null,
      "is_favorite": false,
      "lat": 37.800626099999995,
      "lng": -122.43871469999999,
      "maps_url": "https://maps.google.com/?q=37.8006261,-122.4387147",
      "cid": null,
      "google_id": "/g/1pxqffc9p",
      "maps_place_token": null
    },
    {
      "name": "Bar Iris",
      "address": "2310 Polk St, San Francisco, CA 94109, United States",
      "note": null,
      "is_favorite": false,
      "lat": 37.798112599999996,
      "lng": -122.42208199999999,
      "maps_url": "https://maps.google.com/?cid=3063989756799622109",
      "cid": "3063989756799622109",
      "google_id": "/g/11q2p_dkp5",
      "maps_place_token": null
    },
    {
      "name": "Members Only",
      "address": "1000 Larkin St, San Francisco, CA 94109",
      "note": null,
      "is_favorite": false,
      "lat": 37.7873051,
      "lng": -122.4182117,
      "maps_url": "https://maps.google.com/?cid=5592955860861642413",
      "cid": "5592955860861642413",
      "google_id": "/g/11q45gw1xk",
      "maps_place_token": null
    },
    {
      "name": "Starlite",
      "address": "450 Powell St, San Francisco, CA 94102",
      "note": null,
      "is_favorite": false,
      "lat": 37.7889711,
      "lng": -122.40841239999999,
      "maps_url": "https://maps.google.com/?cid=7683813487433324974",
      "cid": "7683813487433324974",
      "google_id": "/g/1tfydt4t",
      "maps_place_token": null
    },
    {
      "name": "Telefèric Barcelona Palo Alto",
      "address": "855 El Camino Real #130, Palo Alto, CA 94301, United States",
      "note": null,
      "is_favorite": false,
      "lat": 37.4383765,
      "lng": -122.1583028,
      "maps_url": "https://maps.google.com/?cid=3717042603262137464",
      "cid": "3717042603262137464",
      "google_id": "/g/11fnp_dlmn",
      "maps_place_token": null
    },
    {
      "name": "Izzy's on the Peninsula",
      "address": "525 Skyway Rd, San Carlos, CA 94070, United States",
      "note": null,
      "is_favorite": false,
      "lat": 37.5142105,
      "lng": -122.2537424,
      "maps_url": "https://maps.google.com/?cid=2981759277007768895",
      "cid": "2981759277007768895",
      "google_id": "/g/1wd3w8s4",
      "maps_place_token": null
    },
    {
      "name": "Boiling Beijing",
      "address": "649 San Mateo Ave, San Bruno, CA 94066",
      "note": null,
      "is_favorite": false,
      "lat": 37.627415,
      "lng": -122.411559,
      "maps_url": "https://maps.google.com/?cid=1369463489904674639",
      "cid": "1369463489904674639",
      "google_id": "/g/11b7rxg3p1",
      "maps_place_token": null
    },
    {
      "name": "Gao Viet Kitchen",
      "address": "313 S San Mateo Dr, San Mateo, CA 94401",
      "note": null,
      "is_favorite": false,
      "lat": 37.5640727,
      "lng": -122.32377199999999,
      "maps_url": "https://maps.google.com/?q=37.5640727,-122.3237720",
      "cid": null,
      "google_id": "/g/11f77243pg",
      "maps_place_token": null
    },
    {
      "name": "Dalida",
      "address": "101 Montgomery St Suite 100, San Francisco, CA 94129, United States",
      "note": null,
      "is_favorite": false,
      "lat": 37.800032699999996,
      "lng": -122.4595791,
      "maps_url": "https://maps.google.com/?cid=5219830582866008268",
      "cid": "5219830582866008268",
      "google_id": "/g/11kpn1nqys",
      "maps_place_token": null
    },
    {
      "name": "Good Good Culture Club",
      "address": "3560 18th St, San Francisco, CA 94110, United States",
      "note": null,
      "is_favorite": false,
      "lat": 37.7618143,
      "lng": -122.42296789999999,
      "maps_url": "https://maps.google.com/?cid=8428301566270344888",
      "cid": "8428301566270344888",
      "google_id": "/g/11ptl7cnpf",
      "maps_place_token": null
    },
    {
      "name": "The Harlequin",
      "address": "68 4th St, San Francisco, CA 94103, United States",
      "note": null,
      "is_favorite": false,
      "lat": 37.784881299999995,
      "lng": -122.40506069999999,
      "maps_url": "https://maps.google.com/?q=37.7848813,-122.4050607",
      "cid": null,
      "google_id": "/g/1tgw57q4",
      "maps_place_token": null
    },
    {
      "name": "Bottle Club Pub",
      "address": "555 Geary St, San Francisco, CA 94102, United States",
      "note": null,
      "is_favorite": false,
      "lat": 37.786730999999996,
      "lng": -122.41242179999999,
      "maps_url": "https://maps.google.com/?cid=8200490028416316397",
      "cid": "8200490028416316397",
      "google_id": "/g/11sq32yr5l",
      "maps_place_token": null
    },
    {
      "name": "Dawn Club",
      "address": "10 Annie St, San Francisco, CA 94103, United States",
      "note": null,
      "is_favorite": false,
      "lat": 37.7877212,
      "lng": -122.4025116,
      "maps_url": "https://maps.google.com/?q=37.7877212,-122.4025116",
      "cid": null,
      "google_id": "/g/11kk1q6bwz",
      "maps_place_token": null
    },
    {
      "name": "R Bar",
      "address": "1176 Sutter St, San Francisco, CA 94109, United States",
      "note": null,
      "is_favorite": false,
      "lat": 37.7879046,
      "lng": -122.41987809999999,
      "maps_url": "https://maps.google.com/?q=37.7879046,-122.4198781",
      "cid": null,
      "google_id": "/g/1thbwx0t",
      "maps_place_token": null
    },
    {
      "name": "Garden Creamery",
      "address": "3566 20th St, San Francisco, CA 94110, United States",
      "note": null,
      "is_favorite": false,
      "lat": 37.7586821,
      "lng": -122.4204424,
      "maps_url": "https://maps.google.com/?q=37.7586821,-122.4204424",
      "cid": null,
      "google_id": null,
      "maps_place_token": null
    },
    {
      "name": "El Techo",
      "address": "2516 Mission St, San Francisco, CA 94110, United States",
      "note": null,
      "is_favorite": false,
      "lat": 37.7566255,
      "lng": -122.4190761,
      "maps_url": "https://maps.google.com/?cid=5288073983709946198",
      "cid": "5288073983709946198",
      "google_id": "/g/12qgp_prl",
      "maps_place_token": null
    },
    {
      "name": "Lolinda",
      "address": "2518 Mission St, San Francisco, CA 94110, United States",
      "note": null,
      "is_favorite": false,
      "lat": 37.7566676,
      "lng": -122.4190802,
      "maps_url": "https://maps.google.com/?cid=1285216296375631840",
      "cid": "1285216296375631840",
      "google_id": "/g/11bwnb_kg7",
      "maps_place_token": null
    },
    {
      "name": "Foreign Cinema",
      "address": "2534 Mission St, San Francisco, CA 94110, United States",
      "note": null,
      "is_favorite": false,
      "lat": 37.7564917,
      "lng": -122.4191194,
      "maps_url": "https://maps.google.com/?cid=3410591911709045721",
      "cid": "3410591911709045721",
      "google_id": "/g/1wrtd2d2",
      "maps_place_token": null
    },
    {
      "name": "Urban Putt",
      "address": "1096 S Van Ness Ave, San Francisco, CA 94110, United States",
      "note": null,
      "is_favorite": false,
      "lat": 37.755727,
      "lng": -122.4167629,
      "maps_url": "https://maps.google.com/?cid=346129598453102493",
      "cid": "346129598453102493",
      "google_id": null,
      "maps_place_token": null
    },
    {
      "name": "The Story of Ramen",
      "address": "3231 24th St, San Francisco, CA 94110, United States",
      "note": null,
      "is_favorite": false,
      "lat": 37.7522126,
      "lng": -122.4170199,
      "maps_url": "https://maps.google.com/?q=37.7522126,-122.4170199",
      "cid": null,
      "google_id": "/g/11g0mdw57b",
      "maps_place_token": null
    },
    {
      "name": "El Rio",
      "address": "3158 Mission St, San Francisco, CA 94110, United States",
      "note": null,
      "is_favorite": false,
      "lat": 37.746755799999995,
      "lng": -122.41932709999999,
      "maps_url": "https://maps.google.com/?cid=2461165019631861555",
      "cid": "2461165019631861555",
      "google_id": null,
      "maps_place_token": null
    },
    {
      "name": "Hamano Sushi",
      "address": "1332 Castro St, San Francisco, CA 94114, United States",
      "note": null,
      "is_favorite": false,
      "lat": 37.7507861,
      "lng": -122.4342472,
      "maps_url": "https://maps.google.com/?cid=6060460649548190963",
      "cid": "6060460649548190963",
      "google_id": "/g/1tj4h8kw",
      "maps_place_token": null
    },
    {
      "name": "ChouChou French Bistro",
      "address": "400 Dewey Blvd, San Francisco, CA 94116, United States",
      "note": null,
      "is_favorite": false,
      "lat": 37.747414,
      "lng": -122.4593245,
      "maps_url": "https://maps.google.com/?cid=5600704453807713644",
      "cid": "5600704453807713644",
      "google_id": null,
      "maps_place_token": null
    },
    {
      "name": "Hook Fish Co",
      "address": "4542 Irving St, San Francisco, CA 94122, United States",
      "note": null,
      "is_favorite": false,
      "lat": 37.762369799999995,
      "lng": -122.5068759,
      "maps_url": "https://maps.google.com/?q=37.7623698,-122.5068759",
      "cid": null,
      "google_id": "/g/11c59w8b36",
      "maps_place_token": null
    },
    {
      "name": "Free Gold Watch",
      "address": "1767 Waller St, San Francisco, CA 94117, United States",
      "note": null,
      "is_favorite": false,
      "lat": 37.7682249,
      "lng": -122.4527148,
      "maps_url": "https://maps.google.com/?q=37.7682249,-122.4527148",
      "cid": null,
      "google_id": "/g/1tf3p3r6",
      "maps_place_token": null
    },
    {
      "name": "Nopa",
      "address": "560 Divisadero St, San Francisco, CA 94117, United States",
      "note": null,
      "is_favorite": false,
      "lat": 37.7749009,
      "lng": -122.43750829999999,
      "maps_url": "https://maps.google.com/?cid=6373257973262962437",
      "cid": "6373257973262962437",
      "google_id": null,
      "maps_place_token": null
    },
    {
      "name": "Ju-Ni",
      "address": "1335 Fulton St STE 101, San Francisco, CA 94117, United States",
      "note": null,
      "is_favorite": false,
      "lat": 37.7765382,
      "lng": -122.43883009999999,
      "maps_url": "https://maps.google.com/?q=37.7765382,-122.4388301",
      "cid": null,
      "google_id": "/g/11clvx78y6",
      "maps_place_token": null
    },
    {
      "name": "4505 Burgers & BBQ",
      "address": "705 Divisadero St, San Francisco, CA 94117, United States",
      "note": null,
      "is_favorite": false,
      "lat": 37.7762013,
      "lng": -122.43825349999999,
      "maps_url": "https://maps.google.com/?q=37.7762013,-122.4382535",
      "cid": null,
      "google_id": null,
      "maps_place_token": null
    },
    {
      "name": "Tsunami Panhandle",
      "address": "1306 Fulton St, San Francisco, CA 94117, United States",
      "note": null,
      "is_favorite": false,
      "lat": 37.7769269,
      "lng": -122.438474,
      "maps_url": "https://maps.google.com/?q=37.7769269,-122.4384740",
      "cid": null,
      "google_id": null,
      "maps_place_token": null
    },
    {
      "name": "Hina Yakitori",
      "address": "808 Divisadero St, San Francisco, CA 94117, United States",
      "note": null,
      "is_favorite": false,
      "lat": 37.777129699999996,
      "lng": -122.4380118,
      "maps_url": "https://maps.google.com/?q=37.7771297,-122.4380118",
      "cid": null,
      "google_id": "/g/11g0m3kfd0",
      "maps_place_token": null
    },
    {
      "name": "Emporium Arcade Bar",
      "address": "616 Divisadero St, San Francisco, CA 94117, United States",
      "note": null,
      "is_favorite": false,
      "lat": 37.775323,
      "lng": -122.4377433,
      "maps_url": "https://maps.google.com/?q=37.7753230,-122.4377433",
      "cid": null,
      "google_id": "/g/11dym6f0r9",
      "maps_place_token": null
    },
    {
      "name": "Fly",
      "address": "762 Divisadero St, San Francisco, CA 94117, United States",
      "note": null,
      "is_favorite": false,
      "lat": 37.776795299999996,
      "lng": -122.4380302,
      "maps_url": "https://maps.google.com/?cid=3126665390567274737",
      "cid": "3126665390567274737",
      "google_id": "/g/1tmk8qt5",
      "maps_place_token": null
    },
    {
      "name": "Sorrel",
      "address": "3228 Sacramento St, San Francisco, CA 94115, United States",
      "note": null,
      "is_favorite": false,
      "lat": 37.7884301,
      "lng": -122.4462054,
      "maps_url": "https://maps.google.com/?q=37.7884301,-122.4462054",
      "cid": null,
      "google_id": "/g/11btx5hs_3",
      "maps_place_token": null
    },
    {
      "name": "Spruce",
      "address": "3640 Sacramento St, San Francisco, CA 94118, United States",
      "note": null,
      "is_favorite": false,
      "lat": 37.787580299999995,
      "lng": -122.45276919999999,
      "maps_url": "https://maps.google.com/?q=37.7875803,-122.4527692",
      "cid": null,
      "google_id": null,
      "maps_place_token": null
    },
    {
      "name": "Mokuku",
      "address": "332 Clement St, San Francisco, CA 94118, United States",
      "note": null,
      "is_favorite": false,
      "lat": 37.7831377,
      "lng": -122.4629284,
      "maps_url": "https://maps.google.com/?q=37.7831377,-122.4629284",
      "cid": null,
      "google_id": "/g/11f99nj_r0",
      "maps_place_token": null
    },
    {
      "name": "Kaiju Eats Ramen & Izakaya",
      "address": "3409 Geary Blvd, San Francisco, CA 94118, United States",
      "note": null,
      "is_favorite": false,
      "lat": 37.7812485,
      "lng": -122.45557009999999,
      "maps_url": "https://maps.google.com/?cid=2730787877529426391",
      "cid": "2730787877529426391",
      "google_id": null,
      "maps_place_token": null
    },
    {
      "name": "Arsicault Bakery",
      "address": "397 Arguello Blvd, San Francisco, CA 94118",
      "note": null,
      "is_favorite": false,
      "lat": 37.7834259,
      "lng": -122.4593062,
      "maps_url": "https://maps.google.com/?cid=3389884366903096466",
      "cid": "3389884366903096466",
      "google_id": "/g/11b7m9hg8p",
      "maps_place_token": null
    },
    {
      "name": "Spices",
      "address": "291 6th Ave, San Francisco, CA 94118, United States",
      "note": null,
      "is_favorite": false,
      "lat": 37.783210499999996,
      "lng": -122.4645985,
      "maps_url": "https://maps.google.com/?cid=6608598390446321978",
      "cid": "6608598390446321978",
      "google_id": null,
      "maps_place_token": null
    },
    {
      "name": "Chili House SF",
      "address": "726 Clement St, San Francisco, CA 94118, United States",
      "note": null,
      "is_favorite": false,
      "lat": 37.7829921,
      "lng": -122.4671175,
      "maps_url": "https://maps.google.com/?cid=7458994870414233274",
      "cid": "7458994870414233274",
      "google_id": "/g/1hhmw796x",
      "maps_place_token": null
    },
    {
      "name": "DNM Hot Pot",
      "address": "1115 Clement St, San Francisco, CA 94118, United States",
      "note": null,
      "is_favorite": false,
      "lat": 37.782532499999995,
      "lng": -122.4712261,
      "maps_url": "https://maps.google.com/?cid=7079755942580515542",
      "cid": "7079755942580515542",
      "google_id": "/g/11hckrd_9c",
      "maps_place_token": null
    },
    {
      "name": "Sweet Mango Dessert Cafe",
      "address": "5217 Geary Blvd, San Francisco, CA 94118, United States",
      "note": null,
      "is_favorite": false,
      "lat": 37.7803391,
      "lng": -122.4754708,
      "maps_url": "https://maps.google.com/?cid=3563028487511152851",
      "cid": "3563028487511152851",
      "google_id": "/g/11gl21k6qx",
      "maps_place_token": null
    },
    {
      "name": "Breadbelly",
      "address": "1408 Clement St, San Francisco, CA 94118, United States",
      "note": null,
      "is_favorite": false,
      "lat": 37.7827006,
      "lng": -122.47438799999999,
      "maps_url": "https://maps.google.com/?cid=8560502750337166765",
      "cid": "8560502750337166765",
      "google_id": "/g/11f7pt63n2",
      "maps_place_token": null
    },
    {
      "name": "PPQ Dungeness Island - San Francisco",
      "address": "5821 Geary Blvd, San Francisco, CA 94121, United States",
      "note": null,
      "is_favorite": false,
      "lat": 37.780052999999995,
      "lng": -122.48193099999999,
      "maps_url": "https://maps.google.com/?q=37.7800530,-122.4819310",
      "cid": null,
      "google_id": "/g/1tdr3jx1",
      "maps_place_token": null
    },
    {
      "name": "Ilana Coffee",
      "address": "2314 Clement St, San Francisco, CA 94121, United States",
      "note": null,
      "is_favorite": false,
      "lat": 37.7821778,
      "lng": -122.4842037,
      "maps_url": "https://maps.google.com/?cid=2388193582286819506",
      "cid": "2388193582286819506",
      "google_id": "/g/1pp2ww_z8",
      "maps_place_token": null
    },
    {
      "name": "Burma Superstar",
      "address": "309 Clement St, San Francisco, CA 94118, United States",
      "note": null,
      "is_favorite": false,
      "lat": 37.782813999999995,
      "lng": -122.4625643,
      "maps_url": "https://maps.google.com/?q=37.7828140,-122.4625643",
      "cid": null,
      "google_id": null,
      "maps_place_token": null
    },
    {
      "name": "Dragon Beaux",
      "address": "5700 Geary Blvd, San Francisco, CA 94121, United States",
      "note": null,
      "is_favorite": false,
      "lat": 37.78046,
      "lng": -122.48061039999999,
      "maps_url": "https://maps.google.com/?cid=6924344292273102319",
      "cid": "6924344292273102319",
      "google_id": "/g/11b77fsgvk",
      "maps_place_token": null
    },
    {
      "name": "HoDaLa",
      "address": "5801 Geary Blvd, San Francisco, CA 94121, United States",
      "note": null,
      "is_favorite": false,
      "lat": 37.7800568,
      "lng": -122.4816944,
      "maps_url": "https://maps.google.com/?cid=5206771361401252308",
      "cid": "5206771361401252308",
      "google_id": "/g/11gfp21wbm",
      "maps_place_token": null
    },
    {
      "name": "um.ma",
      "address": "1220 9th Ave, San Francisco, CA 94122, United States",
      "note": null,
      "is_favorite": false,
      "lat": 37.765506099999996,
      "lng": -122.466241,
      "maps_url": "https://maps.google.com/?q=37.7655061,-122.4662410",
      "cid": null,
      "google_id": "/g/11hz11q6d9",
      "maps_place_token": null
    },
    {
      "name": "California Academy of Sciences",
      "address": "55 Music Concourse Dr, San Francisco, CA 94118, United States",
      "note": null,
      "is_favorite": false,
      "lat": 37.7698646,
      "lng": -122.4660947,
      "maps_url": "https://maps.google.com/?cid=1982859062306917049",
      "cid": "1982859062306917049",
      "google_id": null,
      "maps_place_token": null
    },
    {
      "name": "Terra Cotta Warrior",
      "address": "2555 Judah St, San Francisco, CA 94122, United States",
      "note": null,
      "is_favorite": false,
      "lat": 37.761019,
      "lng": -122.489581,
      "maps_url": "https://maps.google.com/?cid=685315674439444948",
      "cid": "685315674439444948",
      "google_id": "/g/1q5bw2qxk",
      "maps_place_token": null
    }
  ]
}
