{
  "fetched_at": "2026-04-15T23:35:23.270456+00:00",
  "refresh_after": "2026-04-29T23:35:23.270456+00:00",
  "source_signature": "6f903f5781884c98c56427bbe11c14db3a1217172c49baf4daf24ee6fb302bb9",
  "configured_source_type": "google_list_url",
  "configured_source_url": "https://maps.app.goo.gl/g8EKXM1DHy7NKS7aA",
  "configured_source_path": null,
  "source_url": "https://maps.app.goo.gl/g8EKXM1DHy7NKS7aA",
  "list_id": "PhxKOPt01MenxQTVsE8zeZCog_KpRQ",
  "title": "South Island, New Zealand 🇳🇿",
  "description": "Michael's list for South Island, New Zealand 🇳🇿 See https://beacons.ai/demflyers for more.",
  "places": [
    {
      "name": "Tekapo Chinese Stargazing",
      "address": null,
      "note": null,
      "is_favorite": false,
      "lat": -44.011905899999995,
      "lng": 170.45687759999998,
      "maps_url": "https://maps.google.com/?cid=7866556196719299779",
      "cid": "7866556196719299779",
      "google_id": null,
      "maps_place_token": null
    },
    {
      "name": "Lake Pukaki Viewpoint",
      "address": "Hayman Road, Pukaki 7999, New Zealand",
      "note": null,
      "is_favorite": false,
      "lat": -44.1683425,
      "lng": 170.20932,
      "maps_url": "https://maps.google.com/?cid=7866411548240047751",
      "cid": "7866411548240047751",
      "google_id": null,
      "maps_place_token": null
    },
    {
      "name": "Hooker Valley track",
      "address": "Hooker Valley Track, Mt Cook National Park 7999, New Zealand",
      "note": null,
      "is_favorite": false,
      "lat": -43.718125699999995,
      "lng": 170.0939684,
      "maps_url": "https://maps.google.com/?cid=7866182386359850205",
      "cid": "7866182386359850205",
      "google_id": "/g/11cr_t4v2x",
      "maps_place_token": null
    },
    {
      "name": "Tasman Glacier Viewpoint",
      "address": "Canterbury 7999, New Zealand",
      "note": null,
      "is_favorite": false,
      "lat": -43.6960103,
      "lng": 170.16837289999998,
      "maps_url": "https://maps.google.com/?cid=7866581015405390763",
      "cid": "7866581015405390763",
      "google_id": "/g/11crzwjfjm",
      "maps_place_token": null
    },
    {
      "name": "The Second Swing Bridge",
      "address": "Mount Cook National Park, Hooker Valley Track, Mount Cook National Park 7999, New Zealand",
      "note": null,
      "is_favorite": false,
      "lat": -43.7055943,
      "lng": 170.1001249,
      "maps_url": "https://maps.google.com/?cid=7866580002893719961",
      "cid": "7866580002893719961",
      "google_id": "/g/11dxc_9677",
      "maps_place_token": null
    },
    {
      "name": "Kea Point",
      "address": "Mount Cook National Park 7999, New Zealand",
      "note": null,
      "is_favorite": false,
      "lat": -43.7101993,
      "lng": 170.0835514,
      "maps_url": "https://maps.google.com/?cid=7866182318622304089",
      "cid": "7866182318622304089",
      "google_id": "/g/1ptyx9nn7",
      "maps_place_token": null
    },
    {
      "name": "Astro Cafe",
      "address": "Godley Peaks Road, Lake Tekapo 7945, New Zealand",
      "note": null,
      "is_favorite": false,
      "lat": -43.985680599999995,
      "lng": 170.465039,
      "maps_url": "https://maps.google.com/?cid=7866568136176128061",
      "cid": "7866568136176128061",
      "google_id": "/g/1tgf3dbv",
      "maps_place_token": null
    },
    {
      "name": "The Church of the Good Shepherd",
      "address": null,
      "note": null,
      "is_favorite": false,
      "lat": -44.003363799999995,
      "lng": 170.4824622,
      "maps_url": "https://maps.google.com/?cid=7866510237706676605",
      "cid": "7866510237706676605",
      "google_id": null,
      "maps_place_token": null
    },
    {
      "name": "Mt Cook Alpine Salmon Shop",
      "address": null,
      "note": null,
      "is_favorite": false,
      "lat": -44.1902195,
      "lng": 170.1398959,
      "maps_url": "https://maps.google.com/?cid=7866410902806094137",
      "cid": "7866410902806094137",
      "google_id": null,
      "maps_place_token": null
    },
    {
      "name": "The Church Manapouri",
      "address": "23 Waiau Street, Manapouri 9679, New Zealand",
      "note": null,
      "is_favorite": false,
      "lat": -45.5659816,
      "lng": 167.6096009,
      "maps_url": "https://maps.google.com/?q=-45.5659816,167.6096009",
      "cid": null,
      "google_id": "/g/11c0vkwk67",
      "maps_place_token": null
    },
    {
      "name": "The Fat Duck",
      "address": "124 Town Centre, Te Anau 9600, New Zealand",
      "note": null,
      "is_favorite": false,
      "lat": -45.4147399,
      "lng": 167.717471,
      "maps_url": "https://maps.google.com/?q=-45.4147399,167.7174710",
      "cid": null,
      "google_id": "/g/1tmcngst",
      "maps_place_token": null
    },
    {
      "name": "Punanga Manu o Te Anau / Te Anau Bird Sanctuary",
      "address": "RD 162 Manapouri Te Anau Highway, Te Anau 9679, New Zealand",
      "note": null,
      "is_favorite": false,
      "lat": -45.4336397,
      "lng": 167.7142394,
      "maps_url": "https://maps.google.com/?cid=7201260675244853313",
      "cid": "7201260675244853313",
      "google_id": "/g/11bvcvnmq9",
      "maps_place_token": null
    },
    {
      "name": "Five Rivers Cafe",
      "address": "1963 Mossburn-Five Rivers Road, Lumsden 9793, New Zealand",
      "note": null,
      "is_favorite": false,
      "lat": -45.623077699999996,
      "lng": 168.4581871,
      "maps_url": "https://maps.google.com/?cid=2392645003492826573",
      "cid": "2392645003492826573",
      "google_id": "/g/1thtfcqf",
      "maps_place_token": null
    },
    {
      "name": "Athol Art Gallery",
      "address": "1121 Garston-Athol Highway, Athol 9793, New Zealand",
      "note": null,
      "is_favorite": false,
      "lat": -45.511094899999996,
      "lng": 168.5793587,
      "maps_url": "https://maps.google.com/?q=-45.5110949,168.5793587",
      "cid": null,
      "google_id": "/g/11gg6mt4_d",
      "maps_place_token": null
    },
    {
      "name": "Garston Hunny Shop",
      "address": "5 Garston-Athol Highway, Garston 9793, New Zealand",
      "note": null,
      "is_favorite": false,
      "lat": -45.4666667,
      "lng": 168.6838889,
      "maps_url": "https://maps.google.com/?cid=4854607655364560901",
      "cid": "4854607655364560901",
      "google_id": "/g/1hhmfngx0",
      "maps_place_token": null
    },
    {
      "name": "Kingston Corner Shop & Cafe",
      "address": "1 Kent Street, Kingston 9793, New Zealand",
      "note": null,
      "is_favorite": false,
      "lat": -45.3382138,
      "lng": 168.72384409999998,
      "maps_url": "https://maps.google.com/?q=-45.3382138,168.7238441",
      "cid": null,
      "google_id": "/g/1vcl4_d9",
      "maps_place_token": null
    },
    {
      "name": "Kingston Flyer Cafe and Bar",
      "address": "221 Kent Street, Kingston 9373, New Zealand",
      "note": null,
      "is_favorite": false,
      "lat": -45.3301782,
      "lng": 168.7118468,
      "maps_url": "https://maps.google.com/?cid=649667129158643064",
      "cid": "649667129158643064",
      "google_id": null,
      "maps_place_token": null
    },
    {
      "name": "Devil's Staircase Lookout Point",
      "address": "2911 Kingston Road, Kingston 9793, New Zealand",
      "note": null,
      "is_favorite": false,
      "lat": -45.2459741,
      "lng": 168.7429438,
      "maps_url": "https://maps.google.com/?cid=3664674399797760991",
      "cid": "3664674399797760991",
      "google_id": "/g/11c2pqqq5r",
      "maps_place_token": null
    },
    {
      "name": "Hook Wanaka - Lake to Plate",
      "address": "49 Monteith Road, Albert Town 9382, New Zealand",
      "note": null,
      "is_favorite": false,
      "lat": -44.6923611,
      "lng": 169.1794806,
      "maps_url": "https://maps.google.com/?q=-44.6923611,169.1794806",
      "cid": null,
      "google_id": "/g/11h2flyc0v",
      "maps_place_token": null
    },
    {
      "name": "Puzzling World",
      "address": "188 Wanaka-Luggate Highway, Wānaka 9382, New Zealand",
      "note": null,
      "is_favorite": false,
      "lat": -44.6967084,
      "lng": 169.16157669999998,
      "maps_url": "https://maps.google.com/?q=-44.6967084,169.1615767",
      "cid": null,
      "google_id": null,
      "maps_place_token": null
    },
    {
      "name": "Wānaka War Memorial",
      "address": "11 Upton Street, Wānaka 9305, New Zealand",
      "note": null,
      "is_favorite": false,
      "lat": -44.6962921,
      "lng": 169.1391964,
      "maps_url": "https://maps.google.com/?q=-44.6962921,169.1391964",
      "cid": null,
      "google_id": "/g/11ckfhnrr2",
      "maps_place_token": null
    },
    {
      "name": "Wānaka Lakefront",
      "address": "Ardmore Street, Wānaka 9305, New Zealand",
      "note": null,
      "is_favorite": false,
      "lat": -44.6951403,
      "lng": 169.1333645,
      "maps_url": "https://maps.google.com/?cid=1810094790910283991",
      "cid": "1810094790910283991",
      "google_id": "/g/11c2qmyjph",
      "maps_place_token": null
    },
    {
      "name": "Big Fig Wanaka",
      "address": "105 Ardmore Street, Wānaka 9305, New Zealand",
      "note": null,
      "is_favorite": false,
      "lat": -44.694980099999995,
      "lng": 169.135077,
      "maps_url": "https://maps.google.com/?q=-44.6949801,169.1350770",
      "cid": null,
      "google_id": "/g/11bz0qhh40",
      "maps_place_token": null
    },
    {
      "name": "Cardrona Bra Fence",
      "address": "2125 Cardrona Valley Road, Cardrona 9382, New Zealand",
      "note": null,
      "is_favorite": false,
      "lat": -44.8635902,
      "lng": 169.0187828,
      "maps_url": "https://maps.google.com/?q=-44.8635902,169.0187828",
      "cid": null,
      "google_id": null,
      "maps_place_token": null
    },
    {
      "name": "Blue Pools",
      "address": null,
      "note": null,
      "is_favorite": false,
      "lat": -44.1623249,
      "lng": 169.2697203,
      "maps_url": "https://maps.google.com/?cid=7842288170978640935",
      "cid": "7842288170978640935",
      "google_id": null,
      "maps_place_token": null
    },
    {
      "name": "Michael's list for South Island, New Zealand 🇳🇿 See https://beacons.ai/demflyers for more.",
      "address": "Cardrona Hotel",
      "note": null,
      "is_favorite": false,
      "lat": -44.8814847,
      "lng": 169.0036236,
      "maps_url": "https://maps.google.com/?cid=104356373423434804635",
      "cid": "104356373423434804635",
      "google_id": null,
      "maps_place_token": null
    },
    {
      "name": "Cardrona Distillery",
      "address": null,
      "note": null,
      "is_favorite": false,
      "lat": -44.86512,
      "lng": 169.0184581,
      "maps_url": "https://maps.google.com/?cid=5996365808931252806",
      "cid": "5996365808931252806",
      "google_id": null,
      "maps_place_token": null
    },
    {
      "name": "Glow Worm Dell",
      "address": null,
      "note": null,
      "is_favorite": false,
      "lat": -42.7082851,
      "lng": 170.97475219999998,
      "maps_url": "https://maps.google.com/?cid=7867559235334151075",
      "cid": "7867559235334151075",
      "google_id": null,
      "maps_place_token": null
    },
    {
      "name": "Wanaka Lavender Farm",
      "address": null,
      "note": null,
      "is_favorite": false,
      "lat": -44.703827,
      "lng": 169.187222,
      "maps_url": "https://maps.google.com/?cid=9175016671794874486",
      "cid": "9175016671794874486",
      "google_id": null,
      "maps_place_token": null
    },
    {
      "name": "#ThatWanakaTree",
      "address": null,
      "note": null,
      "is_favorite": false,
      "lat": -44.6983476,
      "lng": 169.1175501,
      "maps_url": "https://maps.google.com/?cid=4125306805829927092",
      "cid": "4125306805829927092",
      "google_id": null,
      "maps_place_token": null
    },
    {
      "name": "Poppies Cafe",
      "address": null,
      "note": null,
      "is_favorite": false,
      "lat": -44.264213399999996,
      "lng": 170.10065559999998,
      "maps_url": "https://maps.google.com/?cid=7866332596402293135",
      "cid": "7866332596402293135",
      "google_id": null,
      "maps_place_token": null
    },
    {
      "name": "The Sauna Wānaka",
      "address": null,
      "note": null,
      "is_favorite": false,
      "lat": -44.664366,
      "lng": 169.1484338,
      "maps_url": "https://maps.google.com/?cid=8251743935411493977",
      "cid": "8251743935411493977",
      "google_id": null,
      "maps_place_token": null
    },
    {
      "name": "Hot Tubs Omarama",
      "address": null,
      "note": null,
      "is_favorite": false,
      "lat": -44.484024399999996,
      "lng": 169.9701342,
      "maps_url": "https://maps.google.com/?cid=7866329918038824953",
      "cid": "7866329918038824953",
      "google_id": null,
      "maps_place_token": null
    },
    {
      "name": "Tekapo Springs",
      "address": null,
      "note": null,
      "is_favorite": false,
      "lat": -43.994784599999996,
      "lng": 170.4608946,
      "maps_url": "https://maps.google.com/?cid=7866510227546560231",
      "cid": "7866510227546560231",
      "google_id": null,
      "maps_place_token": null
    },
    {
      "name": "High Country Salmon",
      "address": "2602 Twizel-Omarama Road, Twizel 7999, New Zealand",
      "note": null,
      "is_favorite": false,
      "lat": -44.2910697,
      "lng": 170.084506,
      "maps_url": "https://maps.google.com/?cid=7866345524600114653",
      "cid": "7866345524600114653",
      "google_id": "/g/11r9mpg17",
      "maps_place_token": null
    }
  ]
}
