{
  "fetched_at": "2026-04-15T15:44:14.995115+00:00",
  "refresh_after": "2026-04-29T15:44:14.995115+00:00",
  "source_signature": "9e3cbfe7e0595a16b0c29a3ca3c5f58a2090b3c2bbe407da20b6553ac4096ce4",
  "configured_source_type": "google_list_url",
  "configured_source_url": "https://maps.app.goo.gl/BKhiAsr1hjpoaiPc7",
  "configured_source_path": null,
  "source_url": "https://maps.app.goo.gl/BKhiAsr1hjpoaiPc7",
  "list_id": "Wn5X8qTf6dJZmlG0MKyN7Bd9jSeTMQ",
  "title": "Stuttgart, Germany 🇩🇪",
  "description": "Michael's list for Stuttgart, Germany 🇩🇪 See https://beacons.ai/demflyers for more.",
  "places": [
    {
      "name": "Jigger & Spoon",
      "address": "Gymnasiumstraße 33, 70174 Stuttgart, Germany",
      "note": null,
      "is_favorite": false,
      "lat": 48.7773693,
      "lng": 9.1719705,
      "maps_url": "https://maps.google.com/?cid=5159395881023783541",
      "cid": "5159395881023783541",
      "google_id": "/g/11fyz96r9c",
      "maps_place_token": null
    },
    {
      "name": "Mata Hari",
      "address": "Geißstraße 3, 70173 Stuttgart, Germany",
      "note": null,
      "is_favorite": false,
      "lat": 48.7737817,
      "lng": 9.1777231,
      "maps_url": "https://maps.google.com/?cid=5159395966234852527",
      "cid": "5159395966234852527",
      "google_id": "/g/1v9gtf0y",
      "maps_place_token": null
    },
    {
      "name": "ZEIT FÜR BROT",
      "address": null,
      "note": null,
      "is_favorite": false,
      "lat": 48.7750305,
      "lng": 9.172354,
      "maps_url": "https://maps.google.com/?cid=5159396275051846677",
      "cid": "5159396275051846677",
      "google_id": null,
      "maps_place_token": null
    },
    {
      "name": "MMC Kult",
      "address": null,
      "note": null,
      "is_favorite": false,
      "lat": 48.7746267,
      "lng": 9.1857999,
      "maps_url": "https://maps.google.com/?cid=5159371132537268827",
      "cid": "5159371132537268827",
      "google_id": null,
      "maps_place_token": null
    },
    {
      "name": "ALATURKA - Das Stuttgarter Original",
      "address": null,
      "note": null,
      "is_favorite": false,
      "lat": 48.770679699999995,
      "lng": 9.1820235,
      "maps_url": "https://maps.google.com/?cid=5159395973259489333",
      "cid": "5159395973259489333",
      "google_id": null,
      "maps_place_token": null
    },
    {
      "name": "Weinstube Kachelofen",
      "address": null,
      "note": null,
      "is_favorite": false,
      "lat": 48.7735284,
      "lng": 9.177554599999999,
      "maps_url": "https://maps.google.com/?cid=5159395966111404847",
      "cid": "5159395966111404847",
      "google_id": null,
      "maps_place_token": null
    },
    {
      "name": "Weinstube Zur Kiste",
      "address": null,
      "note": null,
      "is_favorite": false,
      "lat": 48.77512,
      "lng": 9.18304,
      "maps_url": "https://maps.google.com/?cid=5159371130996980559",
      "cid": "5159371130996980559",
      "google_id": null,
      "maps_place_token": null
    },
    {
      "name": "Weinstube Fröhlich",
      "address": null,
      "note": null,
      "is_favorite": false,
      "lat": 48.772201599999995,
      "lng": 9.1798015,
      "maps_url": "https://maps.google.com/?cid=5159395964427488773",
      "cid": "5159395964427488773",
      "google_id": null,
      "maps_place_token": null
    },
    {
      "name": "Gelateria Kaiserbau",
      "address": null,
      "note": null,
      "is_favorite": false,
      "lat": 48.76475,
      "lng": 9.16856,
      "maps_url": "https://maps.google.com/?cid=5159395988947599959",
      "cid": "5159395988947599959",
      "google_id": null,
      "maps_place_token": null
    },
    {
      "name": "Wilhelma",
      "address": null,
      "note": null,
      "is_favorite": false,
      "lat": 48.8040951,
      "lng": 9.2079984,
      "maps_url": "https://maps.google.com/?cid=5159371658689591393",
      "cid": "5159371658689591393",
      "google_id": null,
      "maps_place_token": null
    },
    {
      "name": "Art Museum Stuttgart",
      "address": null,
      "note": null,
      "is_favorite": false,
      "lat": 48.7783294,
      "lng": 9.1775786,
      "maps_url": "https://maps.google.com/?cid=5159395872057752011",
      "cid": "5159395872057752011",
      "google_id": null,
      "maps_place_token": null
    },
    {
      "name": "City Library at the Mailänder Platz",
      "address": null,
      "note": null,
      "is_favorite": false,
      "lat": 48.7899922,
      "lng": 9.183067699999999,
      "maps_url": "https://maps.google.com/?cid=5159371131275392915",
      "cid": "5159371131275392915",
      "google_id": null,
      "maps_place_token": null
    },
    {
      "name": "History Museum Württemberg",
      "address": null,
      "note": null,
      "is_favorite": false,
      "lat": 48.7773476,
      "lng": 9.179635,
      "maps_url": "https://maps.google.com/?cid=5159395870812645445",
      "cid": "5159395870812645445",
      "google_id": null,
      "maps_place_token": null
    },
    {
      "name": "Höhenpark Killesberg",
      "address": null,
      "note": null,
      "is_favorite": false,
      "lat": 48.804117399999996,
      "lng": 9.173753999999999,
      "maps_url": "https://maps.google.com/?cid=5159396384675990071",
      "cid": "5159396384675990071",
      "google_id": null,
      "maps_place_token": null
    },
    {
      "name": "Ludwigsburg Residential Palace",
      "address": "Schlossstraße 30, 71634 Ludwigsburg, Germany",
      "note": null,
      "is_favorite": false,
      "lat": 48.899321699999994,
      "lng": 9.196038999999999,
      "maps_url": "https://maps.google.com/?cid=5159385285660120375",
      "cid": "5159385285660120375",
      "google_id": null,
      "maps_place_token": null
    },
    {
      "name": "Stiftskirche, Stuttgart",
      "address": "Stiftstraße 12, 70173 Stuttgart, Germany",
      "note": null,
      "is_favorite": false,
      "lat": 48.776647,
      "lng": 9.1778987,
      "maps_url": "https://maps.google.com/?cid=5159395960984613845",
      "cid": "5159395960984613845",
      "google_id": null,
      "maps_place_token": null
    },
    {
      "name": "Stuttgart TV Tower",
      "address": "Jahnstraße 120, 70597 Stuttgart, Germany",
      "note": null,
      "is_favorite": false,
      "lat": 48.755860899999995,
      "lng": 9.190105599999999,
      "maps_url": "https://maps.google.com/?cid=5159371072026713765",
      "cid": "5159371072026713765",
      "google_id": null,
      "maps_place_token": null
    },
    {
      "name": "Mercedes-Benz Museum",
      "address": "Mercedesstraße 100, 70372 Stuttgart, Germany",
      "note": null,
      "is_favorite": false,
      "lat": 48.7881453,
      "lng": 9.233982,
      "maps_url": "https://maps.google.com/?cid=5159371446989741969",
      "cid": "5159371446989741969",
      "google_id": null,
      "maps_place_token": null
    },
    {
      "name": "Markthalle Stuttgart",
      "address": "Dorotheenstraße 4, 70173 Stuttgart, Germany",
      "note": null,
      "is_favorite": false,
      "lat": 48.7762502,
      "lng": 9.179409699999999,
      "maps_url": "https://maps.google.com/?cid=5159396263721222211",
      "cid": "5159396263721222211",
      "google_id": "/g/122sgfd9",
      "maps_place_token": null
    },
    {
      "name": "Max-Eyth-See",
      "address": null,
      "note": null,
      "is_favorite": false,
      "lat": 48.835101699999996,
      "lng": 9.216868999999999,
      "maps_url": "https://maps.google.com/?cid=5159382907795098165",
      "cid": "5159382907795098165",
      "google_id": null,
      "maps_place_token": null
    },
    {
      "name": "Schloss Solitude",
      "address": "Solitude 1, 70197 Stuttgart, Germany",
      "note": null,
      "is_favorite": false,
      "lat": 48.7868934,
      "lng": 9.084336799999999,
      "maps_url": "https://maps.google.com/?cid=5159396600942998447",
      "cid": "5159396600942998447",
      "google_id": null,
      "maps_place_token": null
    },
    {
      "name": "Schloßpl.",
      "address": "Schloßpl., 70173 Stuttgart, Germany",
      "note": null,
      "is_favorite": false,
      "lat": 48.778343799999995,
      "lng": 9.1806319,
      "maps_url": "https://maps.google.com/?cid=5159395869073777265",
      "cid": "5159395869073777265",
      "google_id": "/g/1v1vc4h0",
      "maps_place_token": null
    },
    {
      "name": "Feuersee",
      "address": "Feuersee, Stuttgart-West, Germany",
      "note": null,
      "is_favorite": false,
      "lat": 48.7740801,
      "lng": 9.163998699999999,
      "maps_url": "https://maps.google.com/?cid=5159395944128634269",
      "cid": "5159395944128634269",
      "google_id": "/g/1tfslysh",
      "maps_place_token": null
    },
    {
      "name": "Brauhaus Schönbuch",
      "address": "Bolzstraße 10, 70173 Stuttgart, Germany",
      "note": null,
      "is_favorite": false,
      "lat": 48.7803028,
      "lng": 9.177834899999999,
      "maps_url": "https://maps.google.com/?cid=5159395865127566905",
      "cid": "5159395865127566905",
      "google_id": "/g/1tgnw5hy",
      "maps_place_token": null
    },
    {
      "name": "Carls Brauhaus",
      "address": "Stauffenbergstraße 1, 70173 Stuttgart, Germany",
      "note": null,
      "is_favorite": false,
      "lat": 48.779463299999996,
      "lng": 9.1799805,
      "maps_url": "https://maps.google.com/?cid=5159395868799691639",
      "cid": "5159395868799691639",
      "google_id": "/g/11bbrkxbmw",
      "maps_place_token": null
    }
  ]
}
