{
  "fetched_at": "2026-04-14T08:50:28.590800+00:00",
  "refresh_after": "2026-04-28T08:50:28.590800+00:00",
  "source_signature": "4576888f6a193580ec6d91da41f5cd91731589be212bdbf897ce73faec91285f",
  "configured_source_url": "https://maps.app.goo.gl/MG2Vd5pWBkL7hXL18",
  "source_url": "https://maps.app.goo.gl/MG2Vd5pWBkL7hXL18",
  "list_id": "UGEPbA20Qd-OH4uoWjmDgQ",
  "title": "Tokyo, Japan 🇯🇵",
  "description": "Michael’s Tokyo bookmarks. See https://beacons.ai/demflyers for more.\n\nWanderlog: https://wanderlog.com/view/byplqatuyc/dem-flyers-tokyo-recommendations",
  "places": [
    {
      "name": "Yakumo Saryō",
      "address": "3 Chome-4-7 Yakumo, Meguro City, Tokyo 152-0023, Japan",
      "note": null,
      "is_favorite": true,
      "lat": 35.6189739,
      "lng": 139.6675385,
      "maps_url": "https://maps.google.com/?cid=6924553706554696757",
      "cid": "6924553706554696757",
      "google_id": "/g/11b7q55fjw"
    },
    {
      "name": "NÉN TOKYO",
      "address": "〒150-0034 Tokyo, Shibuya, Daikanyamacho, 14−18 4F",
      "note": null,
      "is_favorite": true,
      "lat": 35.6501237,
      "lng": 139.70337809999998,
      "maps_url": "https://maps.google.com/?cid=6924438284137214567",
      "cid": "6924438284137214567",
      "google_id": "/g/11yfn6y1lw"
    },
    {
      "name": "MARU",
      "address": "Japan, 〒153-0051 Tokyo, Meguro City, Kamimeguro, 2 Chome−12−2 W.nakameguro 1F",
      "note": "Foie gras, caviar and truffle oyakodon!",
      "is_favorite": false,
      "lat": 35.6426886,
      "lng": 139.6988208,
      "maps_url": "https://maps.google.com/?cid=6924437575605096209",
      "cid": "6924437575605096209",
      "google_id": "/g/1pty5xgj1"
    },
    {
      "name": "Quaro",
      "address": "4 Chome-25-32 Jingumae, Shibuya, Tokyo 150-0001, Japan",
      "note": null,
      "is_favorite": false,
      "lat": 35.6691804,
      "lng": 139.708272,
      "maps_url": "https://maps.google.com/?cid=6924440279717478581",
      "cid": "6924440279717478581",
      "google_id": "/g/11yvbj97cn"
    },
    {
      "name": "Tsukishima Monja Kuuya Shibuya",
      "address": "〒150-0002 Tokyo, Shibuya, 1 Chome−25−6 パークサイド共同ビル 1F",
      "note": null,
      "is_favorite": false,
      "lat": 35.6595867,
      "lng": 139.7014739,
      "maps_url": "https://maps.google.com/?cid=6924437484155879327",
      "cid": "6924437484155879327",
      "google_id": "/g/11hdprpcqh"
    },
    {
      "name": "GANSO EBIDASHI MONJANO EBISEN SHIBUYA",
      "address": "〒150-0002 Tokyo, Shibuya, 3 Chome−21−3 ストリーム 2F",
      "note": null,
      "is_favorite": false,
      "lat": 35.6570186,
      "lng": 139.7032908,
      "maps_url": "https://maps.google.com/?cid=6924438025798932869",
      "cid": "6924438025798932869",
      "google_id": "/g/11vd43t_dc"
    },
    {
      "name": "Matsue Shibuya Scramble Square Store",
      "address": "〒150-6101 Tokyo, Shibuya, 2 Chome−24−12 スクランブルスクエア 12F",
      "note": null,
      "is_favorite": false,
      "lat": 35.658336399999996,
      "lng": 139.7020523,
      "maps_url": "https://maps.google.com/?cid=6924437778661536599",
      "cid": "6924437778661536599",
      "google_id": "/g/11h7q3pn7p"
    },
    {
      "name": "Moheji Shibuya Scramble Square",
      "address": "〒150-0002 Tokyo, Shibuya, 2 Chome−24−12 １２階",
      "note": null,
      "is_favorite": false,
      "lat": 35.6583189,
      "lng": 139.7022323,
      "maps_url": "https://maps.google.com/?cid=6924438044199040927",
      "cid": "6924438044199040927",
      "google_id": "/g/11j0pvppyw"
    },
    {
      "name": "Oyster Shack Shimbashi",
      "address": "1 Chome-6-1 Uchisaiwaicho, Chiyoda City, Tokyo 100-0011",
      "note": null,
      "is_favorite": false,
      "lat": 35.6690853,
      "lng": 139.7583747,
      "maps_url": "https://maps.google.com/?cid=6924437657044365307",
      "cid": "6924437657044365307",
      "google_id": "/g/11s7wdwyrb"
    },
    {
      "name": "Osoba no Kouga",
      "address": "2 Chome-14-5 Nishiazabu, Minato City, Tokyo 106-0031",
      "note": null,
      "is_favorite": false,
      "lat": 35.660041899999996,
      "lng": 139.72276879999998,
      "maps_url": "https://maps.google.com/?cid=6924437786327444989",
      "cid": "6924437786327444989",
      "google_id": "/g/1tg2dgzq"
    },
    {
      "name": "Kushikatsu Bon Ginza",
      "address": "GINZA TAKAMOTO BLD., 3f, 8 Chome-2-8 Ginza, Chuo City, Tokyo 104-0061",
      "note": null,
      "is_favorite": false,
      "lat": 35.6697078,
      "lng": 139.7596012,
      "maps_url": "https://maps.google.com/?cid=6924438284938732457",
      "cid": "6924438284938732457",
      "google_id": "/g/11bbxkwb2_"
    },
    {
      "name": "Yakumo",
      "address": "〒153-0043 Tokyo, Meguro City, Higashiyama, 3 Chome−6−15 エビヤビル １Ｆ",
      "note": "Delicious wonton ramen. You can ask for a mix of white and dark broth.",
      "is_favorite": false,
      "lat": 35.6501307,
      "lng": 139.68684589999998,
      "maps_url": "https://maps.google.com/?cid=6924553449319447065",
      "cid": "6924553449319447065",
      "google_id": "/g/1z44b5xkd"
    },
    {
      "name": "RistoPizza by Napoli sta ca",
      "address": null,
      "note": "Won Top Pizza in Asia-Pacific 2026",
      "is_favorite": false,
      "lat": 35.660893099999996,
      "lng": 139.7403807,
      "maps_url": "https://maps.google.com/?cid=6924437475692541043",
      "cid": "6924437475692541043",
      "google_id": null
    },
    {
      "name": "Trattoria L'insieme",
      "address": null,
      "note": null,
      "is_favorite": false,
      "lat": 35.691577599999995,
      "lng": 139.78361089999999,
      "maps_url": "https://maps.google.com/?cid=6924435392596317521",
      "cid": "6924435392596317521",
      "google_id": null
    },
    {
      "name": "Sushi Muto",
      "address": null,
      "note": null,
      "is_favorite": false,
      "lat": 35.6809812,
      "lng": 139.7746068,
      "maps_url": "https://maps.google.com/?cid=6924435399802894503",
      "cid": "6924435399802894503",
      "google_id": null
    },
    {
      "name": "Sushi Azabujuban Hatano Yoshiki",
      "address": null,
      "note": null,
      "is_favorite": false,
      "lat": 35.655638599999996,
      "lng": 139.7347168,
      "maps_url": "https://maps.google.com/?cid=6924438063171275821",
      "cid": "6924438063171275821",
      "google_id": null
    },
    {
      "name": "Tomidokoro",
      "address": null,
      "note": null,
      "is_favorite": false,
      "lat": 35.6619041,
      "lng": 139.7540636,
      "maps_url": "https://maps.google.com/?cid=6924437271696398267",
      "cid": "6924437271696398267",
      "google_id": null
    },
    {
      "name": "Sushisho Masa",
      "address": null,
      "note": null,
      "is_favorite": false,
      "lat": 35.6595096,
      "lng": 139.723112,
      "maps_url": "https://maps.google.com/?cid=6924437740415815817",
      "cid": "6924437740415815817",
      "google_id": null
    },
    {
      "name": "Sushi Ya",
      "address": null,
      "note": null,
      "is_favorite": false,
      "lat": 35.6713494,
      "lng": 139.7614256,
      "maps_url": "https://maps.google.com/?cid=6924438285695582209",
      "cid": "6924438285695582209",
      "google_id": null
    },
    {
      "name": "Sushi Taira",
      "address": null,
      "note": null,
      "is_favorite": false,
      "lat": 35.6446184,
      "lng": 139.7247061,
      "maps_url": "https://maps.google.com/?cid=6924437329036792287",
      "cid": "6924437329036792287",
      "google_id": null
    },
    {
      "name": "Aoyama sushi Umi",
      "address": null,
      "note": null,
      "is_favorite": false,
      "lat": 35.667656199999996,
      "lng": 139.7179121,
      "maps_url": "https://maps.google.com/?cid=6924439036965005939",
      "cid": "6924439036965005939",
      "google_id": null
    },
    {
      "name": "Sushi Hōseki, Bvlgari Hotel Tokyo",
      "address": null,
      "note": null,
      "is_favorite": false,
      "lat": 35.6794084,
      "lng": 139.7689311,
      "maps_url": "https://maps.google.com/?cid=6924438199655968139",
      "cid": "6924438199655968139",
      "google_id": null
    },
    {
      "name": "BEMO Café",
      "address": "105, Taipei City, Songshan District, Alley 3, Lane 346, Section 2, Bade Rd, 4號1F",
      "note": null,
      "is_favorite": false,
      "lat": 25.0474672,
      "lng": 121.5452914,
      "maps_url": "https://maps.google.com/?cid=3765761341221826207",
      "cid": "3765761341221826207",
      "google_id": "/g/11wvc3tr7s"
    },
    {
      "name": "HIGASHIYA GINZA",
      "address": "Japan, 〒104-0061 Tokyo, Chuo City, Ginza, 1 Chome−7−7 ポーラ銀座ビル 2階",
      "note": null,
      "is_favorite": false,
      "lat": 35.6742784,
      "lng": 139.76794999999998,
      "maps_url": "https://maps.google.com/?cid=6924438236502276659",
      "cid": "6924438236502276659",
      "google_id": "/g/120_rv25"
    },
    {
      "name": "Kojimachi Nihee",
      "address": "3 Chome-5-19 Kojimachi, Chiyoda City, Tokyo 102-0083, Japan",
      "note": null,
      "is_favorite": false,
      "lat": 35.6831495,
      "lng": 139.7391559,
      "maps_url": "https://maps.google.com/?cid=6924439459368339141",
      "cid": "6924439459368339141",
      "google_id": "/g/11m5vh_l_f"
    },
    {
      "name": "Yakinikuya Tecchan",
      "address": "〒153-0043 Tokyo, Meguro City, Higashiyama, 3 Chome−4−10 1F",
      "note": null,
      "is_favorite": false,
      "lat": 35.650182799999996,
      "lng": 139.6858292,
      "maps_url": "https://maps.google.com/?cid=6924554245568067605",
      "cid": "6924554245568067605",
      "google_id": "/g/11jz1rvzkn"
    },
    {
      "name": "fileja",
      "address": "Japan, 〒101-0041 Tokyo, Chiyoda City, Kanda Sudacho, 2 Chome−13−1 ノルン秋葉原ビル 1階",
      "note": null,
      "is_favorite": false,
      "lat": 35.6961976,
      "lng": 139.7743502,
      "maps_url": "https://maps.google.com/?cid=6924442060206694923",
      "cid": "6924442060206694923",
      "google_id": "/g/11s179w0cv"
    },
    {
      "name": "Sushi Keita",
      "address": "6 Chome-6-4 Tsukiji, Chuo City, Tokyo 104-0045, Japan",
      "note": null,
      "is_favorite": false,
      "lat": 35.6654054,
      "lng": 139.77366179999999,
      "maps_url": "https://maps.google.com/?cid=6924435481357576535",
      "cid": "6924435481357576535",
      "google_id": "/g/11f11fzvhl"
    },
    {
      "name": "Vowz Bar",
      "address": "Japan, 〒160-0007 Tokyo, Shinjuku City, Arakicho, 6−42 AGビル ２Ｆ",
      "note": null,
      "is_favorite": false,
      "lat": 35.689368,
      "lng": 139.7225642,
      "maps_url": "https://maps.google.com/?cid=6924439399763544265",
      "cid": "6924439399763544265",
      "google_id": "/g/1thq58ss"
    },
    {
      "name": "Takumi Sushi Owana",
      "address": "Japan, 〒150-0022 Tokyo, Shibuya, Ebisuminami, 1 Chome−17−17 タイムゾーンテラスビル 4F",
      "note": null,
      "is_favorite": false,
      "lat": 35.6447657,
      "lng": 139.7104181,
      "maps_url": "https://maps.google.com/?cid=6924437533850424661",
      "cid": "6924437533850424661",
      "google_id": "/g/11g9jn9l6y"
    },
    {
      "name": "Kien",
      "address": "Japan, 〒107-0052 Tokyo, Minato City, Akasaka, 2 Chome−18−8 長野コーポ",
      "note": null,
      "is_favorite": false,
      "lat": 35.6688848,
      "lng": 139.7398426,
      "maps_url": "https://maps.google.com/?cid=6924437833321154069",
      "cid": "6924437833321154069",
      "google_id": "/g/1tqnlm8b"
    },
    {
      "name": "Kankoku Shokudo Iru Zaka Agaru",
      "address": "Japan, 〒150-0022 Tokyo, Shibuya, Ebisuminami, 1 Chome−17−2 Rホール 3F",
      "note": null,
      "is_favorite": false,
      "lat": 35.6446806,
      "lng": 139.7104905,
      "maps_url": "https://maps.google.com/?cid=6924437259659653635",
      "cid": "6924437259659653635",
      "google_id": "/g/11h37wsysl"
    },
    {
      "name": "Tokimeki",
      "address": "〒166-0002 Tokyo, Suginami City, Koenjikita, 2 Chome−21−1 リリーベル高円寺スクエアビル B1F",
      "note": null,
      "is_favorite": false,
      "lat": 35.7068611,
      "lng": 139.649984,
      "maps_url": "https://maps.google.com/?cid=6924551646633040173",
      "cid": "6924551646633040173",
      "google_id": "/g/11v3tn82_8"
    },
    {
      "name": "New Korean HASUO",
      "address": null,
      "note": null,
      "is_favorite": false,
      "lat": 35.649541299999996,
      "lng": 139.721027,
      "maps_url": "https://maps.google.com/?cid=6924437721643136945",
      "cid": "6924437721643136945",
      "google_id": null
    },
    {
      "name": "Chungsol",
      "address": "102 2 Chome-13-8 Akasaka, Minato City, Tokyo 107-0052",
      "note": null,
      "is_favorite": false,
      "lat": 35.6721338,
      "lng": 139.7384373,
      "maps_url": "https://maps.google.com/?cid=6924437838586952545",
      "cid": "6924437838586952545",
      "google_id": "/g/1tn016m8"
    },
    {
      "name": "Jinkoge",
      "address": "〒169-0072 Tokyo, Shinjuku City, Okubo, 2 Chome−19−10 東和ビル",
      "note": null,
      "is_favorite": false,
      "lat": 35.7020951,
      "lng": 139.7046928,
      "maps_url": "https://maps.google.com/?cid=6924439658610789903",
      "cid": "6924439658610789903",
      "google_id": "/g/11p_17d_q0"
    },
    {
      "name": "solfa",
      "address": "〒153-0042 Tokyo, Meguro City, Aobadai, 1 Chome−20−5 oak build.",
      "note": null,
      "is_favorite": false,
      "lat": 35.6469722,
      "lng": 139.6981379,
      "maps_url": "https://maps.google.com/?cid=6924437598351221319",
      "cid": "6924437598351221319",
      "google_id": "/g/11b6_hbs8x"
    },
    {
      "name": "Hone",
      "address": "17-2 Maruyamacho, Shibuya, Tokyo 150-0044",
      "note": null,
      "is_favorite": false,
      "lat": 35.6572803,
      "lng": 139.6942459,
      "maps_url": "https://maps.google.com/?cid=6924440061049404677",
      "cid": "6924440061049404677",
      "google_id": "/g/11s1qq_s8p"
    },
    {
      "name": "Thai Gohan Senshu Yatai",
      "address": "2 Chome-2-10 Shibakoen, Minato City, Tokyo 105-0011",
      "note": null,
      "is_favorite": false,
      "lat": 35.6564817,
      "lng": 139.7514253,
      "maps_url": "https://maps.google.com/?cid=6924438232766979607",
      "cid": "6924438232766979607",
      "google_id": "/g/11f0_g8bl1"
    },
    {
      "name": "Tachigui Sushi Tonari",
      "address": "〒106-0045 Tokyo, Minato City, Azabujuban, 2 Chome−8−7 M2K HoldingBLD 2階",
      "note": null,
      "is_favorite": false,
      "lat": 35.6555301,
      "lng": 139.7347368,
      "maps_url": "https://maps.google.com/?cid=6924437390387306805",
      "cid": "6924437390387306805",
      "google_id": "/g/11smk5nkk9"
    },
    {
      "name": "Sushi Meino",
      "address": "〒106-0045 Tokyo, Minato City, Azabujuban, 1 Chome−6−1 THE V-CITY 麻布十番 PLACE 6F",
      "note": null,
      "is_favorite": false,
      "lat": 35.6567016,
      "lng": 139.7343922,
      "maps_url": "https://maps.google.com/?cid=6924437260767358215",
      "cid": "6924437260767358215",
      "google_id": "/g/11y2dxh6m7"
    },
    {
      "name": "Sushi Take",
      "address": "〒104-0061 Tokyo, Chuo City, Ginza, 7 Chome−6−5 石井紀州屋ビル 4F",
      "note": null,
      "is_favorite": false,
      "lat": 35.6697761,
      "lng": 139.7619463,
      "maps_url": "https://maps.google.com/?cid=6924438258772251241",
      "cid": "6924438258772251241",
      "google_id": "/g/11bbw_y93b"
    },
    {
      "name": "Sushidan",
      "address": "〒150-0012 Tokyo, Shibuya, Hiroo, 5 Chome−4−16 1F Eat Play Works",
      "note": null,
      "is_favorite": false,
      "lat": 35.6507682,
      "lng": 139.72190469999998,
      "maps_url": "https://maps.google.com/?cid=6924437429805350437",
      "cid": "6924437429805350437",
      "google_id": "/g/11ny1m7gxj"
    },
    {
      "name": "Bánh Mi Sandwich Tokyo",
      "address": "1 Chome-4-9 Misakicho, Chiyoda City, Tokyo 101-0061",
      "note": null,
      "is_favorite": false,
      "lat": 35.7013156,
      "lng": 139.7556301,
      "maps_url": "https://maps.google.com/?cid=6924439731824836803",
      "cid": "6924439731824836803",
      "google_id": "/g/11g4jh7wrn"
    },
    {
      "name": "Banh Mi Sandwich",
      "address": "〒101-0051 Tokyo, Chiyoda City, Kanda Jinbocho, 2 Chome−4−29 松本ビル １階",
      "note": null,
      "is_favorite": false,
      "lat": 35.6960762,
      "lng": 139.7562785,
      "maps_url": "https://maps.google.com/?cid=6924440460347132745",
      "cid": "6924440460347132745",
      "google_id": "/g/11txvnzkxt"
    },
    {
      "name": "Craft Burger & Grill JIRO",
      "address": "〒111-0036 Tokyo, Taito City, Matsugaya, 2 Chome−31−7 ユーハイム久米 1F",
      "note": null,
      "is_favorite": false,
      "lat": 35.715074,
      "lng": 139.78560769999999,
      "maps_url": "https://maps.google.com/?cid=6924442103746244083",
      "cid": "6924442103746244083",
      "google_id": "/g/11hdvv6wqn"
    },
    {
      "name": "Yakitori Toriyoshi Nakameguro",
      "address": "〒153-0051 Tokyo, Meguro City, Kamimeguro, 2 Chome−8−6 Yajima Bldg., 1F",
      "note": null,
      "is_favorite": false,
      "lat": 35.642373299999996,
      "lng": 139.6990932,
      "maps_url": "https://maps.google.com/?cid=6924437569752984353",
      "cid": "6924437569752984353",
      "google_id": "/g/1thx8l_j"
    },
    {
      "name": "Yakitori Toriyoshi Nishiazabu",
      "address": "〒106-0031 Tokyo, Minato City, Nishiazabu, 4 Chome−2−6 Ryowa Palace 西麻布 B1F",
      "note": null,
      "is_favorite": false,
      "lat": 35.6583128,
      "lng": 139.7233779,
      "maps_url": "https://maps.google.com/?cid=6924437741373055243",
      "cid": "6924437741373055243",
      "google_id": "/g/1vr1wmbh"
    },
    {
      "name": "Hinotori",
      "address": "〒160-0023 Tokyo, Shinjuku City, Nishishinjuku, 7 Chome−22−48 キャッスルマンション西新宿 101",
      "note": null,
      "is_favorite": false,
      "lat": 35.6949872,
      "lng": 139.6955837,
      "maps_url": "https://maps.google.com/?cid=6924439638906931277",
      "cid": "6924439638906931277",
      "google_id": "/g/11c0rny309"
    },
    {
      "name": "TOLO PAN TOKYO",
      "address": "3 Chome-14-3 Higashiyama, Meguro City, Tokyo 153-0043",
      "note": null,
      "is_favorite": false,
      "lat": 35.6501137,
      "lng": 139.6855138,
      "maps_url": "https://maps.google.com/?cid=6924553435328612483",
      "cid": "6924553435328612483",
      "google_id": "/g/1td4k4lk"
    },
    {
      "name": "Joto Curry",
      "address": "〒150-0002 Tokyo, Shibuya, 3 Chome−18−7 東一号館ビル １Ｆ",
      "note": null,
      "is_favorite": false,
      "lat": 35.6571334,
      "lng": 139.70380079999998,
      "maps_url": "https://maps.google.com/?cid=6924437644095436227",
      "cid": "6924437644095436227",
      "google_id": "/g/1yg5789sl"
    },
    {
      "name": "Philly Tokyo",
      "address": "〒103-0027 Tokyo, Chuo City, Nihonbashi, 3 Chome−2−13 中條ビル 13 Chuoku Tokyo Japan",
      "note": null,
      "is_favorite": false,
      "lat": 35.6803684,
      "lng": 139.7715378,
      "maps_url": "https://maps.google.com/?cid=6924438346173325907",
      "cid": "6924438346173325907",
      "google_id": "/g/1tdbwrcv"
    },
    {
      "name": "Hot Sauce Bar Tokyo",
      "address": "〒150-0001 Tokyo, Shibuya, Jingumae, 4 Chome−28−4 アレスガーデン表参道 1階",
      "note": null,
      "is_favorite": false,
      "lat": 35.6694257,
      "lng": 139.7073225,
      "maps_url": "https://maps.google.com/?cid=6924439858657200133",
      "cid": "6924439858657200133",
      "google_id": "/g/11wppfg7qb"
    },
    {
      "name": "Mizunara: In Tokyo",
      "address": "103, 3 Chome-1-11 Kagurazaka, Shinjuku City, Tokyo 162-0825",
      "note": null,
      "is_favorite": false,
      "lat": 35.7020297,
      "lng": 139.74084349999998,
      "maps_url": "https://maps.google.com/?cid=6924440101817120157",
      "cid": "6924440101817120157",
      "google_id": "/g/11vzdjt1qk"
    },
    {
      "name": "金陵一絶 王氏湯包",
      "address": "〒171-0021 Tokyo, Toshima City, Nishiikebukuro, 1 Chome−35−1 カドビル 2階",
      "note": null,
      "is_favorite": false,
      "lat": 35.7321892,
      "lng": 139.7100605,
      "maps_url": "https://maps.google.com/?cid=6924545101123869109",
      "cid": "6924545101123869109",
      "google_id": "/g/11j38477md"
    },
    {
      "name": "Miyashita Cafe",
      "address": "〒20200 Tokyo, Shibuya, Jingumae, 6 Chome−20−10 2F MIYASHITA PARK South JP 1500001",
      "note": null,
      "is_favorite": false,
      "lat": 35.6608798,
      "lng": 139.70172,
      "maps_url": "https://maps.google.com/?cid=6924360950884350273",
      "cid": "6924360950884350273",
      "google_id": "/g/11hf8qp_fn"
    },
    {
      "name": "ASAKUSA BAR SMOKED KOTOBUKI",
      "address": "〒111-0042 Tokyo, Taito City, Kotobuki, 4 Chome−6−1 １Ｆ TOKYO-W-INN",
      "note": null,
      "is_favorite": false,
      "lat": 35.7082796,
      "lng": 139.7923203,
      "maps_url": "https://maps.google.com/?cid=6924442365236510981",
      "cid": "6924442365236510981",
      "google_id": "/g/11fjz_wlcn"
    },
    {
      "name": "Pizzeria Parentesi",
      "address": "〒153-0043 Tokyo, Meguro City, Higashiyama, 3 Chome−6−8 エクセル東山 2F",
      "note": null,
      "is_favorite": false,
      "lat": 35.6497332,
      "lng": 139.687245,
      "maps_url": "https://maps.google.com/?cid=6924553446832663393",
      "cid": "6924553446832663393",
      "google_id": "/g/1tgfwnzw"
    },
    {
      "name": "PST Higashi Azabu (Pizza Studio Tamaki Higashi Azabu)",
      "address": "1 Chome-24-6 Higashiazabu, Minato City, Tokyo 106-0044",
      "note": null,
      "is_favorite": false,
      "lat": 35.6556448,
      "lng": 139.7443631,
      "maps_url": "https://maps.google.com/?cid=6924438070696235229",
      "cid": "6924438070696235229",
      "google_id": "/g/11c2y937d0"
    },
    {
      "name": "Cignale Enoteca, 1 Chome-5-11 Komaba, Meguro City, Tokyo 153-0041",
      "address": "1 Chome-5-11 Komaba, Meguro City, Tokyo 153-0041",
      "note": null,
      "is_favorite": true,
      "lat": 35.655665299999995,
      "lng": 139.6891824,
      "maps_url": "https://maps.google.com/?cid=6924552482495954607",
      "cid": "6924552482495954607",
      "google_id": "/g/11bx8kqpt8"
    },
    {
      "name": "Sushi Gotoku",
      "address": null,
      "note": null,
      "is_favorite": false,
      "lat": 35.663041199999995,
      "lng": 139.6940862,
      "maps_url": "https://maps.google.com/?cid=6924439104579039345",
      "cid": "6924439104579039345",
      "google_id": null
    },
    {
      "name": "AOYAMA ASADA",
      "address": null,
      "note": null,
      "is_favorite": false,
      "lat": 35.6707603,
      "lng": 139.7179424,
      "maps_url": "https://maps.google.com/?cid=6924439028913778527",
      "cid": "6924439028913778527",
      "google_id": null
    },
    {
      "name": "Mama",
      "address": null,
      "note": null,
      "is_favorite": false,
      "lat": 35.6579726,
      "lng": 139.71514109999998,
      "maps_url": "https://maps.google.com/?cid=6924437698409223509",
      "cid": "6924437698409223509",
      "google_id": null
    },
    {
      "name": "Imakoko",
      "address": null,
      "note": null,
      "is_favorite": false,
      "lat": 35.6558448,
      "lng": 139.6934755,
      "maps_url": "https://maps.google.com/?cid=6924437626257392907",
      "cid": "6924437626257392907",
      "google_id": null
    },
    {
      "name": "No Code",
      "address": "〒106-0031 Tokyo, Minato City, Nishiazabu, 2 Chome−25−31 クオーレ西麻布",
      "note": null,
      "is_favorite": false,
      "lat": 35.6599326,
      "lng": 139.7205043,
      "maps_url": "https://maps.google.com/?cid=6924437453624729267",
      "cid": "6924437453624729267",
      "google_id": "/g/11t49_3mbn"
    },
    {
      "name": "Marcy Land Omotesando〜😃表参道初上陸・マーシーのラーメン屋台〜",
      "address": "〒107-0061 Tokyo, Minato City, Kita-Aoyama, 3 Chome−5−44 H・T青山ビル 1F 屋台",
      "note": null,
      "is_favorite": false,
      "lat": 35.6669154,
      "lng": 139.7120353,
      "maps_url": "https://maps.google.com/?cid=6924439676310613723",
      "cid": "6924439676310613723",
      "google_id": "/g/11q21hjdkh"
    },
    {
      "name": "ピッツェリア トラットリア ダ オカピート",
      "address": "Japan, 〒167-0032 Tokyo, Suginami City, Amanuma, 3 Chome−6−2 カノン武蔵ビル 1Ｆ",
      "note": null,
      "is_favorite": false,
      "lat": 35.7061612,
      "lng": 139.6187306,
      "maps_url": "https://maps.google.com/?cid=6924545410373580981",
      "cid": "6924545410373580981",
      "google_id": "/g/11r0wq_nwz"
    },
    {
      "name": "Pizzeria Ciro",
      "address": "Japan, 〒164-0003 Tokyo, Nakano City, Higashinakano, 3 Chome−8−3 フェニックスビル 1F",
      "note": null,
      "is_favorite": false,
      "lat": 35.707004399999995,
      "lng": 139.6826437,
      "maps_url": "https://maps.google.com/?cid=6924551368876615395",
      "cid": "6924551368876615395",
      "google_id": "/g/1v6wpc6b"
    },
    {
      "name": "Massimotavio",
      "address": "Japan, 〒168-0064 Tokyo, Suginami City, Eifuku, 4 Chome−4−4 六本木ファイブビル",
      "note": null,
      "is_favorite": false,
      "lat": 35.676929799999996,
      "lng": 139.6427919,
      "maps_url": "https://maps.google.com/?cid=6924550868816489487",
      "cid": "6924550868816489487",
      "google_id": "/g/1w04k42n"
    },
    {
      "name": "400℃ Pizza Tokyo",
      "address": "Kif Annex, 102 13-1 Wakamiyacho, Shinjuku City, Tokyo 162-0827",
      "note": null,
      "is_favorite": false,
      "lat": 35.7002259,
      "lng": 139.7393865,
      "maps_url": "https://maps.google.com/?cid=6924439458827835439",
      "cid": "6924439458827835439",
      "google_id": "/g/11vt52fy76"
    },
    {
      "name": "Okajoki",
      "address": "5 Chome-59-3 Nakano, Nakano City, Tokyo 164-0001, Japan",
      "note": null,
      "is_favorite": false,
      "lat": 35.707592999999996,
      "lng": 139.6660992,
      "maps_url": "https://maps.google.com/?cid=6924551156748094883",
      "cid": "6924551156748094883",
      "google_id": "/g/1v83144c"
    },
    {
      "name": "Ramen Oyster And Shell",
      "address": "〒104-0045 Tokyo, Chuo City, Tsukiji, 3 Chome−16−9 アーバンメイツビル １F",
      "note": null,
      "is_favorite": false,
      "lat": 35.6662798,
      "lng": 139.77119159999998,
      "maps_url": "https://maps.google.com/?cid=6924437833688832783",
      "cid": "6924437833688832783",
      "google_id": "/g/11v67tvz4h"
    },
    {
      "name": "Ukiyo",
      "address": null,
      "note": null,
      "is_favorite": false,
      "lat": 35.6689272,
      "lng": 139.6803813,
      "maps_url": "https://maps.google.com/?cid=6924552447345323421",
      "cid": "6924552447345323421",
      "google_id": null
    },
    {
      "name": "Hitsumabushi Bincho",
      "address": null,
      "note": null,
      "is_favorite": false,
      "lat": 35.6743653,
      "lng": 139.7653544,
      "maps_url": "https://maps.google.com/?cid=6924438242737147845",
      "cid": "6924438242737147845",
      "google_id": null
    },
    {
      "name": "Qwang",
      "address": "Japan, 〒106-0031 Tokyo, Minato City, Nishiazabu, 3 Chome−1−18 Rd西麻布 B1",
      "note": null,
      "is_favorite": false,
      "lat": 35.6604166,
      "lng": 139.72644409999998,
      "maps_url": "https://maps.google.com/?cid=6924437743158945629",
      "cid": "6924437743158945629",
      "google_id": "/g/1tnbl3j3"
    },
    {
      "name": "〒166-0004 Tokyo, Suginami City, Asagayaminami, 2 Chome−18−1 サンフラワー １ 階 １０１ 台湾小菜スタンド《珍珠しんじゅbyジェニー》",
      "address": "〒166-0004 Tokyo, Suginami City, Asagayaminami, 2 Chome−18−1 サンフラワー １ 階 １０１",
      "note": null,
      "is_favorite": true,
      "lat": 35.70448,
      "lng": 139.6378384,
      "maps_url": "https://maps.google.com/?cid=6924551886149977023",
      "cid": "6924551886149977023",
      "google_id": "/g/11tn8jpxp7"
    },
    {
      "name": "GOOD MUSIC BAR",
      "address": "〒107-0061 Tokyo, Minato City, Kita-Aoyama, 3 Chome−10−14 B1",
      "note": null,
      "is_favorite": false,
      "lat": 35.6641456,
      "lng": 139.71051409999998,
      "maps_url": "https://maps.google.com/?cid=6924439753936156477",
      "cid": "6924439753936156477",
      "google_id": "/g/11vljm6cg0"
    },
    {
      "name": "Stage",
      "address": null,
      "note": null,
      "is_favorite": false,
      "lat": 35.704680499999995,
      "lng": 139.7906449,
      "maps_url": "https://maps.google.com/?cid=6924442302797671961",
      "cid": "6924442302797671961",
      "google_id": null
    },
    {
      "name": "INC cocktails",
      "address": "〒150-0002 Tokyo, Shibuya City, Shibuya, 1 Chome−5−6 B1F",
      "note": null,
      "is_favorite": false,
      "lat": 35.6610219,
      "lng": 139.7060282,
      "maps_url": "https://maps.google.com/?cid=6924437561844857981",
      "cid": "6924437561844857981",
      "google_id": "/g/11gwj945t1"
    },
    {
      "name": "Tofu Cuisine Sorano Shibuya",
      "address": "〒150-0031 Tokyo, Shibuya City, Sakuragaokacho, 4−17 チェリーガーデン １階",
      "note": null,
      "is_favorite": false,
      "lat": 35.6547999,
      "lng": 139.7038608,
      "maps_url": "https://maps.google.com/?cid=6924437653039264913",
      "cid": "6924437653039264913",
      "google_id": "/g/11b76lwjfv"
    },
    {
      "name": "Ten",
      "address": "〒150-0002 Tokyo, Shibuya City, Shibuya, 3 Chome−21−3 ストリーム",
      "note": null,
      "is_favorite": false,
      "lat": 35.6570527,
      "lng": 139.7032573,
      "maps_url": "https://maps.google.com/?cid=6924438186569777033",
      "cid": "6924438186569777033",
      "google_id": "/g/11gmsk1q30"
    },
    {
      "name": "Sumibi Kappō Shirosaka",
      "address": "6 Chome-3-9 Akasaka, Minato City, Tokyo 107-0052",
      "note": null,
      "is_favorite": false,
      "lat": 35.670803899999996,
      "lng": 139.73557169999998,
      "maps_url": "https://maps.google.com/?cid=6924437813637026895",
      "cid": "6924437813637026895",
      "google_id": "/g/11b6ml3msl"
    },
    {
      "name": "Bar Starman",
      "address": "〒106-0032 Tokyo, Minato City, Roppongi, 3 Chome−13−3 六本木プチビル 3F",
      "note": null,
      "is_favorite": false,
      "lat": 35.662979899999996,
      "lng": 139.7343419,
      "maps_url": "https://maps.google.com/?cid=6924438076647566505",
      "cid": "6924438076647566505",
      "google_id": "/g/11gxs5kpwp"
    },
    {
      "name": "ST LOUIS BAR by KEI",
      "address": "〒104-0061 Tokyo, Chuo City, Ginza, 7 Chome−8−17 虎屋銀座ビル 12階",
      "note": null,
      "is_favorite": false,
      "lat": 35.669250399999996,
      "lng": 139.76237989999998,
      "maps_url": "https://maps.google.com/?cid=6924437410395335991",
      "cid": "6924437410395335991",
      "google_id": "/g/11vwl550dn"
    },
    {
      "name": "Punch Room Tokyo",
      "address": "〒104-0061 Tokyo, Chuo City, Ginza, 2 Chome−8−13 東京エディション銀座 2階",
      "note": null,
      "is_favorite": false,
      "lat": 35.6726448,
      "lng": 139.7675633,
      "maps_url": "https://maps.google.com/?cid=6924437259450877643",
      "cid": "6924437259450877643",
      "google_id": "/g/11y3bvzpq2"
    },
    {
      "name": "Kiwamiya",
      "address": "〒150-0042 Tokyo, Shibuya City, Udagawacho, 15−1 渋谷パルコ地下 1階",
      "note": null,
      "is_favorite": false,
      "lat": 35.6619429,
      "lng": 139.6988646,
      "maps_url": "https://maps.google.com/?cid=6924440411091144559",
      "cid": "6924440411091144559",
      "google_id": "/g/11h89h50k8"
    },
    {
      "name": "Sake Fun Zokkon",
      "address": "〒150-0042 Tokyo, Shibuya City, Udagawacho, 42−9 D1 UDAGAWA 1F",
      "note": null,
      "is_favorite": false,
      "lat": 35.6625689,
      "lng": 139.6958027,
      "maps_url": "https://maps.google.com/?cid=6924439097780603695",
      "cid": "6924439097780603695",
      "google_id": "/g/11b7hqvtgy"
    },
    {
      "name": "LIQUID FACTORY",
      "address": "〒150-0042 Tokyo, Shibuya City, Udagawacho, 42−12 SALON渋谷 1F",
      "note": null,
      "is_favorite": false,
      "lat": 35.6628498,
      "lng": 139.695448,
      "maps_url": "https://maps.google.com/?cid=6924439856017309565",
      "cid": "6924439856017309565",
      "google_id": "/g/11h_4jn1tn"
    },
    {
      "name": "山形蕎麦茶寮 月の山",
      "address": null,
      "note": null,
      "is_favorite": false,
      "lat": 35.6815431,
      "lng": 139.7004182,
      "maps_url": "https://maps.google.com/?cid=6924439220219742313",
      "cid": "6924439220219742313",
      "google_id": null
    },
    {
      "name": "Bli Made",
      "address": null,
      "note": null,
      "is_favorite": false,
      "lat": 35.6696767,
      "lng": 139.7153688,
      "maps_url": "https://maps.google.com/?cid=6924439040399855105",
      "cid": "6924439040399855105",
      "google_id": null
    },
    {
      "name": "WALL Aoyama",
      "address": null,
      "note": null,
      "is_favorite": false,
      "lat": 35.662115299999996,
      "lng": 139.71401799999998,
      "maps_url": "https://maps.google.com/?cid=6924437675313281647",
      "cid": "6924437675313281647",
      "google_id": null
    },
    {
      "name": "niko and ... TOKYO",
      "address": null,
      "note": null,
      "is_favorite": false,
      "lat": 35.6665838,
      "lng": 139.7044202,
      "maps_url": "https://maps.google.com/?cid=6924439074319564801",
      "cid": "6924439074319564801",
      "google_id": null
    },
    {
      "name": "PST Roppongi (Pizza Studio Tamaki Roppongi)",
      "address": null,
      "note": null,
      "is_favorite": false,
      "lat": 35.6647092,
      "lng": 139.72833989999998,
      "maps_url": "https://maps.google.com/?cid=6924437624705726571",
      "cid": "6924437624705726571",
      "google_id": null
    },
    {
      "name": "natuRe tokyo, 5-1 Kasumigaokamachi, Shinjuku City, Tokyo 160-0013",
      "address": "5-1 Kasumigaokamachi, Shinjuku City, Tokyo 160-0013",
      "note": null,
      "is_favorite": true,
      "lat": 35.675269199999995,
      "lng": 139.7144346,
      "maps_url": "https://maps.google.com/?cid=6924439458894554499",
      "cid": "6924439458894554499",
      "google_id": "/g/11vs97d0hk"
    },
    {
      "name": "Pizza Strada",
      "address": null,
      "note": null,
      "is_favorite": false,
      "lat": 35.6533286,
      "lng": 139.7345713,
      "maps_url": "https://maps.google.com/?cid=6924437953599216243",
      "cid": "6924437953599216243",
      "google_id": null
    },
    {
      "name": "Pizzeria e Braceria L'INSIEME",
      "address": null,
      "note": null,
      "is_favorite": false,
      "lat": 35.694708999999996,
      "lng": 139.82567799999998,
      "maps_url": "https://maps.google.com/?cid=6924434798516414991",
      "cid": "6924434798516414991",
      "google_id": null
    },
    {
      "name": "Trattoria Niwa, 表参道LAB 1F 3 Chome-5-43 Kita-Aoyama, Minato City, Tokyo 107-0061",
      "address": "〒107-0061 Tokyo, Minato City, Kita-Aoyama, 3 Chome−5−43 表参道LAB 1F",
      "note": null,
      "is_favorite": true,
      "lat": 35.667049399999996,
      "lng": 139.7118686,
      "maps_url": "https://maps.google.com/?cid=6924439896456533599",
      "cid": "6924439896456533599",
      "google_id": "/g/11ny4b6bys"
    },
    {
      "name": "THE CARNE tokyo, 3 Chome-1-34 Minamiaoyama, Minato City, Tokyo 107-0062",
      "address": "3 Chome-1-34 Minamiaoyama, Minato City, Tokyo 107-0062",
      "note": null,
      "is_favorite": true,
      "lat": 35.668459999999996,
      "lng": 139.71598799999998,
      "maps_url": "https://maps.google.com/?cid=6924439502703434203",
      "cid": "6924439502703434203",
      "google_id": "/g/11l68w7d8j"
    },
    {
      "name": "Gantetsu Ramen, 1 Chome-10-4 Nishiwaseda, Shinjuku City, Tokyo 169-0051",
      "address": "1 Chome-10-4 Nishiwaseda, Shinjuku City, Tokyo 169-0051",
      "note": null,
      "is_favorite": true,
      "lat": 35.7111393,
      "lng": 139.7218638,
      "maps_url": "https://maps.google.com/?cid=6924439478847764493",
      "cid": "6924439478847764493",
      "google_id": "/g/11b7f2vzrn"
    },
    {
      "name": "Pho Trung Ikebukuro Vietnamese Dining",
      "address": null,
      "note": null,
      "is_favorite": false,
      "lat": 35.730367799999996,
      "lng": 139.7071392,
      "maps_url": "https://maps.google.com/?cid=6924439853658705285",
      "cid": "6924439853658705285",
      "google_id": null
    },
    {
      "name": "Viet Nhat",
      "address": null,
      "note": null,
      "is_favorite": false,
      "lat": 35.6900589,
      "lng": 139.712109,
      "maps_url": "https://maps.google.com/?cid=6924440464239380329",
      "cid": "6924440464239380329",
      "google_id": null
    },
    {
      "name": "Stand Banh Mi",
      "address": null,
      "note": null,
      "is_favorite": false,
      "lat": 35.628886,
      "lng": 139.68776409999998,
      "maps_url": "https://maps.google.com/?cid=6924554827820222897",
      "cid": "6924554827820222897",
      "google_id": null
    },
    {
      "name": "Banh Xeo Saigon Ebisu",
      "address": null,
      "note": null,
      "is_favorite": false,
      "lat": 35.7034034,
      "lng": 139.752049,
      "maps_url": "https://maps.google.com/?cid=6924437584028532987",
      "cid": "6924437584028532987",
      "google_id": null
    },
    {
      "name": "Bánh mì Bà Ba Nakameguro",
      "address": null,
      "note": null,
      "is_favorite": false,
      "lat": 35.6429091,
      "lng": 139.69877119999998,
      "maps_url": "https://maps.google.com/?cid=6924437753117816723",
      "cid": "6924437753117816723",
      "google_id": null
    },
    {
      "name": "Bánh mì Bà Ba Shimokitazawa",
      "address": null,
      "note": null,
      "is_favorite": false,
      "lat": 35.662881399999996,
      "lng": 139.66573169999998,
      "maps_url": "https://maps.google.com/?cid=6924552069565231169",
      "cid": "6924552069565231169",
      "google_id": null
    },
    {
      "name": "333 Vietnamese Restaurant",
      "address": null,
      "note": null,
      "is_favorite": false,
      "lat": 35.689074999999995,
      "lng": 139.7776886,
      "maps_url": "https://maps.google.com/?cid=6924435135869723097",
      "cid": "6924435135869723097",
      "google_id": null
    },
    {
      "name": "Bia Hoi Chop",
      "address": null,
      "note": null,
      "is_favorite": false,
      "lat": 35.709058,
      "lng": 139.66667379999998,
      "maps_url": "https://maps.google.com/?cid=6924551158493079903",
      "cid": "6924551158493079903",
      "google_id": null
    },
    {
      "name": "PHC' DRAGON",
      "address": null,
      "note": null,
      "is_favorite": false,
      "lat": 35.6607263,
      "lng": 139.72417819999998,
      "maps_url": "https://maps.google.com/?cid=6924437785483595527",
      "cid": "6924437785483595527",
      "google_id": null
    },
    {
      "name": "Pho Thin Tokyo",
      "address": null,
      "note": null,
      "is_favorite": false,
      "lat": 35.6949608,
      "lng": 139.6984266,
      "maps_url": "https://maps.google.com/?cid=6924439848932872253",
      "cid": "6924439848932872253",
      "google_id": null
    },
    {
      "name": "Maru Cafe",
      "address": null,
      "note": null,
      "is_favorite": false,
      "lat": 35.679426,
      "lng": 139.6863712,
      "maps_url": "https://maps.google.com/?cid=6924551823902498089",
      "cid": "6924551823902498089",
      "google_id": null
    },
    {
      "name": "Thi-Thi",
      "address": null,
      "note": null,
      "is_favorite": false,
      "lat": 35.562449099999995,
      "lng": 139.720136,
      "maps_url": "https://maps.google.com/?cid=6924390367338672303",
      "cid": "6924390367338672303",
      "google_id": null
    },
    {
      "name": "Spring Valley Brewery Tokyo, ログロード代官山 内 13-1 Daikanyamacho, Shibuya City, Tokyo 150-0034",
      "address": "〒150-0034 Tokyo, Shibuya City, Daikanyamacho, 13−1 ログロード代官山 内",
      "note": null,
      "is_favorite": true,
      "lat": 35.6498747,
      "lng": 139.7047505,
      "maps_url": "https://maps.google.com/?cid=6924437555384450067",
      "cid": "6924437555384450067",
      "google_id": "/g/11bv3mqcys"
    },
    {
      "name": "〒150-0013 Tokyo, Shibuya City, Ebisu, 1 Chome−6−6 JAPANESE ICE OUCA ジャパニーズアイス櫻花",
      "address": "1 Chome-6-6 Ebisu, Shibuya City, Tokyo 150-0013",
      "note": null,
      "is_favorite": true,
      "lat": 35.647701999999995,
      "lng": 139.710861,
      "maps_url": "https://maps.google.com/?cid=6924437534838005829",
      "cid": "6924437534838005829",
      "google_id": "/g/1th23swk"
    },
    {
      "name": "〒106-0031 Tokyo, Minato City, Nishiazabu, 4 Chome−11−14 地階A フレッグ西麻布ヴェルジュ Usukifugu Yamadaya",
      "address": "〒106-0031 Tokyo, Minato City, Nishiazabu, 4 Chome−11−14 地階A フレッグ西麻布ヴェルジュ",
      "note": null,
      "is_favorite": true,
      "lat": 35.6583544,
      "lng": 139.72267779999999,
      "maps_url": "https://maps.google.com/?cid=6924437740610772949",
      "cid": "6924437740610772949",
      "google_id": "/g/1tfshd0q"
    },
    {
      "name": "〒150-0001 Tokyo, Shibuya City, Jingumae, 3 Chome−41−2 岡本ビル ２階 嘉麟香",
      "address": "〒150-0001 Tokyo, Shibuya City, Jingumae, 3 Chome−41−2 岡本ビル ２階",
      "note": null,
      "is_favorite": true,
      "lat": 35.671048899999995,
      "lng": 139.71362929999998,
      "maps_url": "https://maps.google.com/?cid=6924439015373741503",
      "cid": "6924439015373741503",
      "google_id": "/g/11h3kcx70g"
    },
    {
      "name": "LATURE",
      "address": "Japan, 〒150-0002 Tokyo, Shibuya City, Shibuya, 2 Chome−2−2, Luke Building, 地下１階",
      "note": null,
      "is_favorite": false,
      "lat": 35.660762,
      "lng": 139.708599,
      "maps_url": "https://maps.google.com/?cid=6924437667281645285",
      "cid": "6924437667281645285",
      "google_id": "/g/1tf8t2jz"
    },
    {
      "name": "Hashiguchi, 1 Chome-5-20 Motoakasaka, Minato City, Tokyo 107-0051",
      "address": "1 Chome-5-20 Motoakasaka, Minato City, Tokyo 107-0051",
      "note": null,
      "is_favorite": true,
      "lat": 35.677616199999996,
      "lng": 139.73230519999998,
      "maps_url": "https://maps.google.com/?cid=6924438894868429603",
      "cid": "6924438894868429603",
      "google_id": "/g/1tfl9n8x"
    },
    {
      "name": "〒150-0011 Tokyo, Shibuya City, Higashi, 3 Chome−25−3, Lions Plaza Ebisu, unknown",
      "address": "Lions Plaza Ebisu, 3 Chome-25-3 Higashi, Shibuya City, Tokyo 150-0011",
      "note": null,
      "is_favorite": true,
      "lat": 35.6485517,
      "lng": 139.7098028,
      "maps_url": "https://maps.google.com/?cid=6924437957584997665",
      "cid": "6924437957584997665",
      "google_id": "/g/11kpvpb57b"
    },
    {
      "name": "Singapore Holic Laksa, 2階 37-15 Udagawacho, Shibuya City, Tokyo 150-0042",
      "address": "〒150-0042 Tokyo, Shibuya City, Udagawacho, 37−15 2階",
      "note": null,
      "is_favorite": true,
      "lat": 35.6625483,
      "lng": 139.6951092,
      "maps_url": "https://maps.google.com/?cid=6924439068068987229",
      "cid": "6924439068068987229",
      "google_id": "/g/11bx2lk9f_"
    },
    {
      "name": "Handmade buckwheat Matsunaga, 2 Chome-19-12 Jingumae, Shibuya City, Tokyo 150-0001",
      "address": "2 Chome-19-12 Jingumae, Shibuya City, Tokyo 150-0001",
      "note": null,
      "is_favorite": true,
      "lat": 35.6734647,
      "lng": 139.71011959999998,
      "maps_url": "https://maps.google.com/?cid=6924439171407900503",
      "cid": "6924439171407900503",
      "google_id": "/g/1xtf1kjf"
    },
    {
      "name": "Sushi Kuriyagawa, ヒルサイドレジデンス 地下１階 4 Chome-23-10 Ebisu, Shibuya City, Tokyo 150-0013",
      "address": "〒150-0013 Tokyo, Shibuya City, Ebisu, 4 Chome−23−10 ヒルサイドレジデンス 地下１階",
      "note": null,
      "is_favorite": true,
      "lat": 35.644444,
      "lng": 139.7155481,
      "maps_url": "https://maps.google.com/?cid=6924437346841034845",
      "cid": "6924437346841034845",
      "google_id": "/g/1hc7w633w"
    },
    {
      "name": "翠月 / Mitsuki, 長島第一ビル B1 1 Chome-22-12 Dogenzaka, Shibuya City, Tokyo 150-0043",
      "address": "〒150-0043 Tokyo, Shibuya City, Dogenzaka, 1 Chome−22−12 長島第一ビル B1",
      "note": null,
      "is_favorite": true,
      "lat": 35.6565897,
      "lng": 139.69574649999998,
      "maps_url": "https://maps.google.com/?cid=6924437466634316197",
      "cid": "6924437466634316197",
      "google_id": "/g/11hzhvm1xf"
    },
    {
      "name": "Bistro Tonerico, 2 Chome-7-9 Daizawa, Setagaya City, Tokyo 155-0032",
      "address": "2 Chome-7-9 Daizawa, Setagaya City, Tokyo 155-0032",
      "note": null,
      "is_favorite": true,
      "lat": 35.6585487,
      "lng": 139.67279159999998,
      "maps_url": "https://maps.google.com/?cid=6924551895577356135",
      "cid": "6924551895577356135",
      "google_id": "/g/11g6qzs69r"
    },
    {
      "name": "bacon, Tonchang Building, 2F, 1 Chome-17-5 Okubo, Tokyo 169-0072",
      "address": "Tonchang Building, 2F, 1 Chome-17-5 Okubo, Tokyo 169-0072",
      "note": null,
      "is_favorite": true,
      "lat": 35.6985405,
      "lng": 139.7025852,
      "maps_url": "https://maps.google.com/?cid=6924439571763394775",
      "cid": "6924439571763394775",
      "google_id": "/g/11s7fwd_wk"
    },
    {
      "name": "Yakiniku Futago Shinjuku Kabukicho (bbq japanese), 京屋ビル 1 Chome-26-2 Kabukicho, Shinjuku City, Tokyo 160-0021",
      "address": "〒160-0021 Tokyo, Shinjuku City, Kabukicho, 1 Chome−26−2 京屋ビル",
      "note": null,
      "is_favorite": true,
      "lat": 35.6948593,
      "lng": 139.7004665,
      "maps_url": "https://maps.google.com/?cid=6924439811774894905",
      "cid": "6924439811774894905",
      "google_id": "/g/11rmrzbx7c"
    },
    {
      "name": "Chiisha, 3 Chome-9-9 Aobadai, Meguro City, Tokyo 153-0042",
      "address": "3 Chome-9-9 Aobadai, Meguro City, Tokyo 153-0042",
      "note": null,
      "is_favorite": true,
      "lat": 35.6512446,
      "lng": 139.6903879,
      "maps_url": "https://maps.google.com/?cid=6924554661846533331",
      "cid": "6924554661846533331",
      "google_id": "/g/1tmqltyn"
    },
    {
      "name": "Sushi Isshin, 2 Chome-5-6 Akasaka, Minato City, Tokyo 107-0052",
      "address": "2 Chome-5-6 Akasaka, Minato City, Tokyo 107-0052",
      "note": null,
      "is_favorite": true,
      "lat": 35.6727874,
      "lng": 139.7397296,
      "maps_url": "https://maps.google.com/?cid=6924437838897513719",
      "cid": "6924437838897513719",
      "google_id": "/g/1tld04t_"
    },
    {
      "name": "Kuma Cantina Mexican Food & Cocktails",
      "address": "FAITH 1F, 3 Chome-2-7 Higashinakano, Nakano City, Tokyo 164-0003, Japan",
      "note": null,
      "is_favorite": false,
      "lat": 35.706371499999996,
      "lng": 139.6804927,
      "maps_url": "https://maps.google.com/?cid=6924552042670612515",
      "cid": "6924552042670612515",
      "google_id": "/g/11vz922zy_"
    },
    {
      "name": "CENSU TOKYO",
      "address": "2 Chome-12-9 Jingumae, Shibuya City, Tokyo 150-0001, Japan",
      "note": null,
      "is_favorite": false,
      "lat": 35.6743583,
      "lng": 139.7123974,
      "maps_url": "https://maps.google.com/?cid=6924440118467315661",
      "cid": "6924440118467315661",
      "google_id": "/g/11v05m3nhf"
    },
    {
      "name": "Tokyo Confidential",
      "address": "9F, THE V-CITY AZABU-JUBAN PLACE 1-chome, 6-1 Azabujuban, Minato City, Tokyo 106-0045, Japan",
      "note": null,
      "is_favorite": false,
      "lat": 35.6567238,
      "lng": 139.7344004,
      "maps_url": "https://maps.google.com/?cid=6924438047413351935",
      "cid": "6924438047413351935",
      "google_id": "/g/11l2xzpr0k"
    },
    {
      "name": "igu＆peace",
      "address": "Japan, 〒150-0002 Tokyo, Shibuya City, Dogenzaka, 1 Chome−5−2 渋谷ＳＥＤＥ 4F ビル",
      "note": null,
      "is_favorite": false,
      "lat": 35.6580228,
      "lng": 139.6995074,
      "maps_url": "https://maps.google.com/?cid=6924437635951318357",
      "cid": "6924437635951318357",
      "google_id": "/g/11bbw_w4wt"
    },
    {
      "name": "Tokyu Kabukicho Tower, 1 Chome-29-1 Kabukicho, Shinjuku City, Tokyo 160-0021",
      "address": "1 Chome-29-1 Kabukicho, Shinjuku City, Tokyo 160-0021",
      "note": null,
      "is_favorite": true,
      "lat": 35.6957513,
      "lng": 139.70058939999998,
      "maps_url": "https://maps.google.com/?cid=6924440547032214079",
      "cid": "6924440547032214079",
      "google_id": "/g/11s18b39qm"
    },
    {
      "name": "Miyaba, 2 Chome-11-8 Hamamatsucho, Minato City, Tokyo 105-0013",
      "address": "2 Chome-11-8 Hamamatsucho, Minato City, Tokyo 105-0013",
      "note": null,
      "is_favorite": true,
      "lat": 35.6536263,
      "lng": 139.7558956,
      "maps_url": "https://maps.google.com/?cid=6924438120617650251",
      "cid": "6924438120617650251",
      "google_id": "/g/1v1sl6dz"
    },
    {
      "name": "Jazz Bar Samurai, 守ビル 5F 3 Chome-35-5 Shinjuku, Shinjuku City, Tokyo 160-0022",
      "address": "〒160-0022 Tokyo, Shinjuku City, Shinjuku, 3 Chome−35−5 守ビル 5F",
      "note": null,
      "is_favorite": true,
      "lat": 35.689755399999996,
      "lng": 139.7023757,
      "maps_url": "https://maps.google.com/?cid=6924439297391030247",
      "cid": "6924439297391030247",
      "google_id": "/g/1tg9spfv"
    },
    {
      "name": "Some Time, B1F 1 Chome-11-31 Kichijoji Honcho, Musashino, Tokyo 180-0004",
      "address": "〒180-0004 Tokyo, Musashino, Kichijoji Honcho, 1 Chome−11−31 B1F",
      "note": null,
      "is_favorite": true,
      "lat": 35.7047399,
      "lng": 139.5801205,
      "maps_url": "https://maps.google.com/?cid=6924546419149711675",
      "cid": "6924546419149711675",
      "google_id": "/g/1tdbl092"
    },
    {
      "name": "Yakiniku Futago, Hulic &New Shinbashi, 2F 2 Chome-11-10 Shinbashi, Minato City, Tokyo 105-0004",
      "address": "〒105-0004 Tokyo, Minato City, Shinbashi, 2 Chome−11−10, Hulic &New Shinbashi, 2F",
      "note": null,
      "is_favorite": true,
      "lat": 35.6673178,
      "lng": 139.7553589,
      "maps_url": "https://maps.google.com/?cid=6924437997901162221",
      "cid": "6924437997901162221",
      "google_id": "/g/11w8y9x36m"
    },
    {
      "name": "Ippei Hanten, 3 Chome-12-41 Motoazabu, Minato City, Tokyo 106-0046",
      "address": "3 Chome-12-41 Motoazabu, Minato City, Tokyo 106-0046",
      "note": null,
      "is_favorite": true,
      "lat": 35.6564163,
      "lng": 139.7317761,
      "maps_url": "https://maps.google.com/?cid=6924438013716101665",
      "cid": "6924438013716101665",
      "google_id": "/g/11pz1ty0p4"
    },
    {
      "name": "Yakinikuen, My Square Bldg, 地下１階, 2 Chome-10-3 Azabujuban, Minato City, Tokyo 106-0045",
      "address": "My Square Bldg, 地下１階, 2 Chome-10-3 Azabujuban, Minato City, Tokyo 106-0045",
      "note": null,
      "is_favorite": true,
      "lat": 35.6546003,
      "lng": 139.7347164,
      "maps_url": "https://maps.google.com/?cid=6924437954235066273",
      "cid": "6924437954235066273",
      "google_id": "/g/1tgqjdr6"
    },
    {
      "name": "〒106-0045 Tokyo, Minato City, Azabujuban, 2 Chome−8−10 Ｐａｔｉｏ６F Soul Food House",
      "address": "〒106-0045 Tokyo, Minato City, Azabujuban, 2 Chome−8−10 Ｐａｔｉｏ６F",
      "note": null,
      "is_favorite": true,
      "lat": 35.655364,
      "lng": 139.73457299999998,
      "maps_url": "https://maps.google.com/?cid=6924437944120115199",
      "cid": "6924437944120115199",
      "google_id": "/g/1234cz67j"
    },
    {
      "name": "Gen Yamamoto, アニバーサリービル 1F 1 Chome-6-4 Azabujuban, Minato City, Tokyo 106-0045",
      "address": "〒106-0045 Tokyo, Minato City, Azabujuban, 1 Chome−6−4 アニバーサリービル 1F",
      "note": null,
      "is_favorite": true,
      "lat": 35.6564771,
      "lng": 139.7343098,
      "maps_url": "https://maps.google.com/?cid=6924437944889850379",
      "cid": "6924437944889850379",
      "google_id": "/g/1hm4f02ym"
    },
    {
      "name": "Hinomarushokudo Shinbashi Sohonten, 十合ビル １階Ａ号室 4 Chome-18-4 Shinbashi, Minato City, Tokyo 105-0004",
      "address": "〒105-0004 Tokyo, Minato City, Shinbashi, 4 Chome−18−4 十合ビル １階Ａ号室",
      "note": null,
      "is_favorite": true,
      "lat": 35.664297399999995,
      "lng": 139.7571519,
      "maps_url": "https://maps.google.com/?cid=6924438264332387415",
      "cid": "6924438264332387415",
      "google_id": "/g/1w0j45f7"
    },
    {
      "name": "LUONTO ルオント",
      "address": null,
      "note": null,
      "is_favorite": false,
      "lat": 35.670043199999995,
      "lng": 139.7727736,
      "maps_url": "https://maps.google.com/?cid=6924437798826507425",
      "cid": "6924437798826507425",
      "google_id": null
    },
    {
      "name": "TORA, 2 Chome-19-10 Dogenzaka, Shibuya City, Tokyo 150-0043",
      "address": "2 Chome-19-10 Dogenzaka, Shibuya City, Tokyo 150-0043",
      "note": null,
      "is_favorite": true,
      "lat": 35.6593763,
      "lng": 139.6959669,
      "maps_url": "https://maps.google.com/?cid=6924439794532738559",
      "cid": "6924439794532738559",
      "google_id": "/g/11rcgdywll"
    },
    {
      "name": "〒106-0031 Tokyo, Minato City, Nishiazabu, 2 Chome−15−12 カルテットビル 1F Ｂ１ THESE",
      "address": "〒106-0031 Tokyo, Minato City, Nishiazabu, 2 Chome−15−12 カルテットビル 1F Ｂ１",
      "note": null,
      "is_favorite": true,
      "lat": 35.6610012,
      "lng": 139.7222658,
      "maps_url": "https://maps.google.com/?cid=6924437786704605133",
      "cid": "6924437786704605133",
      "google_id": "/g/1tj96dn0"
    },
    {
      "name": "Zakuro Ginza",
      "address": null,
      "note": null,
      "is_favorite": false,
      "lat": 35.671656,
      "lng": 139.766189,
      "maps_url": "https://maps.google.com/?cid=6924438249579547585",
      "cid": "6924438249579547585",
      "google_id": null
    },
    {
      "name": "mixology heritage",
      "address": null,
      "note": null,
      "is_favorite": false,
      "lat": 35.6701972,
      "lng": 139.7591266,
      "maps_url": "https://maps.google.com/?cid=6924437858195469861",
      "cid": "6924437858195469861",
      "google_id": null
    },
    {
      "name": "Sushi Ginza Onodera - Souhonten",
      "address": null,
      "note": null,
      "is_favorite": false,
      "lat": 35.6685747,
      "lng": 139.7669052,
      "maps_url": "https://maps.google.com/?cid=6924438252491591071",
      "cid": "6924438252491591071",
      "google_id": null
    },
    {
      "name": "Umasakababoburi, 暖香園ビル 3 Chome-2-4 Shinbashi, Minato City, Tokyo 105-0004",
      "address": "〒105-0004 Tokyo, Minato City, Shinbashi, 3 Chome−2−4 暖香園ビル",
      "note": null,
      "is_favorite": true,
      "lat": 35.6663172,
      "lng": 139.7545848,
      "maps_url": "https://maps.google.com/?cid=6924438268726745755",
      "cid": "6924438268726745755",
      "google_id": "/g/11bbxjvyt6"
    },
    {
      "name": "Tonkatsu Aoki Daimon, 1 Chome-11-12 Hamamatsucho, Minato City, Tokyo 105-0013",
      "address": "1 Chome-11-12 Hamamatsucho, Minato City, Tokyo 105-0013",
      "note": null,
      "is_favorite": true,
      "lat": 35.658798499999996,
      "lng": 139.7557589,
      "maps_url": "https://maps.google.com/?cid=6924438113042912597",
      "cid": "6924438113042912597",
      "google_id": "/g/11bxg5_ybj"
    },
    {
      "name": "Land Bar Artisan (New), New Shimbashi, Bldg 412, Japan, 〒105-0004, 2 Chome-16-1 Shinbashi, Minato City, Tokyo 4F",
      "address": "New Shimbashi, Bldg 412, Japan, 〒105-0004, 2 Chome-16-1 Shinbashi, Minato City, Tokyo 4F",
      "note": null,
      "is_favorite": true,
      "lat": 35.666423099999996,
      "lng": 139.7573577,
      "maps_url": "https://maps.google.com/?cid=6924437661135199837",
      "cid": "6924437661135199837",
      "google_id": "/g/11t2b3fsp4"
    },
    {
      "name": "Ginza Steak Ginza Honten, グランベル銀座Ⅱ 8F・9F 1 Chome-5-5 Shinbashi, Minato City, Tokyo 105-0004",
      "address": "〒105-0004 Tokyo, Minato City, Shinbashi, 1 Chome−5−5 グランベル銀座Ⅱ 8F・9F",
      "note": null,
      "is_favorite": true,
      "lat": 35.6675965,
      "lng": 139.76007339999998,
      "maps_url": "https://maps.google.com/?cid=6924438259918722695",
      "cid": "6924438259918722695",
      "google_id": "/g/11b77w6fb5"
    },
    {
      "name": "SHU, 5階 5 Chome-10-10 Ginza, Chuo City, Tokyo 104-0061",
      "address": "〒104-0061 Tokyo, Chuo City, Ginza, 5 Chome−10−10 5階",
      "note": null,
      "is_favorite": true,
      "lat": 35.6697577,
      "lng": 139.76536199999998,
      "maps_url": "https://maps.google.com/?cid=6924438251318652805",
      "cid": "6924438251318652805",
      "google_id": "/g/11bwq922d8"
    },
    {
      "name": "Cafe Paulista, 長崎センタービル 1F 8 Chome-9-16 Ginza, Chuo City, Tokyo 104-0061",
      "address": "〒104-0061 Tokyo, Chuo City, Ginza, 8 Chome−9−16 長崎センタービル 1F",
      "note": null,
      "is_favorite": true,
      "lat": 35.6680858,
      "lng": 139.7620312,
      "maps_url": "https://maps.google.com/?cid=6924438257736833401",
      "cid": "6924438257736833401",
      "google_id": "/g/1tdx8ps9"
    },
    {
      "name": "Oniku Karyu, LOUIS 7F 1 Chome-14-6 Ginza, Chuo City, Tokyo 104-0061",
      "address": "〒104-0061 Tokyo, Chuo City, Ginza, 1 Chome−14−6 7F LOUIS",
      "note": null,
      "is_favorite": true,
      "lat": 35.673043799999995,
      "lng": 139.76985109999998,
      "maps_url": "https://maps.google.com/?cid=6924435420716023137",
      "cid": "6924435420716023137",
      "google_id": "/g/1tx4pbl_"
    },
    {
      "name": "Ichiyanagi, 銀座コスミオンビル 1F 1 Chome-5-14 Ginza, Chuo City, Tokyo 104-0061",
      "address": "〒104-0061 Tokyo, Chuo City, Ginza, 1 Chome−5−14 銀座コスミオンビル 1F",
      "note": null,
      "is_favorite": true,
      "lat": 35.6749416,
      "lng": 139.7670896,
      "maps_url": "https://maps.google.com/?cid=6924438240105442883",
      "cid": "6924438240105442883",
      "google_id": "/g/12qgdm8d7"
    },
    {
      "name": "rece Nihonbashi, ブリリアンビル 1F 2 Chome-16-3 Nihonbashi, Chuo City, Tokyo 103-0027",
      "address": "〒103-0027 Tokyo, Chuo City, Nihonbashi, 2 Chome−16−3 ブリリアンビル 1F",
      "note": null,
      "is_favorite": true,
      "lat": 35.679745,
      "lng": 139.7755813,
      "maps_url": "https://maps.google.com/?cid=6924435653281978463",
      "cid": "6924435653281978463",
      "google_id": "/g/11fjbnmn9h"
    },
    {
      "name": "Sembikiya-Sohonten Nihonbashi Flagship Store, 2 Chome-1-2 Nihonbashimuromachi, Chuo City, Tokyo 103-0022",
      "address": "2 Chome-1-2 Nihonbashimuromachi, Chuo City, Tokyo 103-0022",
      "note": null,
      "is_favorite": true,
      "lat": 35.687263099999996,
      "lng": 139.7732302,
      "maps_url": "https://maps.google.com/?cid=6924435426933983275",
      "cid": "6924435426933983275",
      "google_id": "/g/12ltx1vd9"
    },
    {
      "name": "〒103-0002 Tokyo, Chuo City, Nihonbashimuromachi, 2 Chome−1−1 三井二号館 1F aca",
      "address": "〒103-0002 Tokyo, Chuo City, Nihonbashimuromachi, 2 Chome−1−1 三井二号館 1F",
      "note": null,
      "is_favorite": true,
      "lat": 35.686865,
      "lng": 139.7723438,
      "maps_url": "https://maps.google.com/?cid=6924438134979571583",
      "cid": "6924438134979571583",
      "google_id": "/g/11bbx01t9w"
    },
    {
      "name": "DevilCraft Kanda, 石川ビル 4 Chome-2-3 Nihonbashimuromachi, Chuo City, Tokyo 103-0022",
      "address": "〒103-0022 Tokyo, Chuo City, Nihonbashimuromachi, 4 Chome−2−3 石川ビル",
      "note": null,
      "is_favorite": true,
      "lat": 35.689592999999995,
      "lng": 139.77115129999999,
      "maps_url": "https://maps.google.com/?cid=6924438359856250985",
      "cid": "6924438359856250985",
      "google_id": "/g/1vxz9m3s"
    },
    {
      "name": "GLITCH COFFEE & ROASTERS, 香村ビル １階 3 Chome-16 Kanda Nishikicho, Chiyoda City, Tokyo 101-0054",
      "address": "〒101-0054 Tokyo, Chiyoda City, Kanda Nishikicho, 3 Chome−16 香村ビル １階",
      "note": null,
      "is_favorite": true,
      "lat": 35.6938005,
      "lng": 139.7613086,
      "maps_url": "https://maps.google.com/?cid=6924438428000589327",
      "cid": "6924438428000589327",
      "google_id": "/g/11b7k1xvjl"
    },
    {
      "name": "Bondy, 翔和内神田ビル B1 1 Chome-12-3 Uchikanda, Chiyoda City, Tokyo 101-0047",
      "address": "〒101-0047 Tokyo, Chiyoda City, Uchikanda, 1 Chome−12−3 翔和内神田ビル B1",
      "note": null,
      "is_favorite": true,
      "lat": 35.690881,
      "lng": 139.7653943,
      "maps_url": "https://maps.google.com/?cid=6924438376730188049",
      "cid": "6924438376730188049",
      "google_id": "/g/1ptxgly60"
    },
    {
      "name": "Kanda Ponchiken, Ougi Building, 1階 2 Chome-8 Kanda Ogawamachi, Chiyoda City, Tokyo 101-0052",
      "address": "〒101-0052 Tokyo, Chiyoda City, Kanda Ogawamachi, 2 Chome−8, Ougi Building, 1階",
      "note": null,
      "is_favorite": true,
      "lat": 35.6949128,
      "lng": 139.76396689999999,
      "maps_url": "https://maps.google.com/?cid=6924438473588982057",
      "cid": "6924438473588982057",
      "google_id": "/g/11cffk4y8"
    },
    {
      "name": "〒101-0046 Tokyo, Chiyoda City, Kanda Tacho, 2 Chome−3−1 第1ニサワビル キングラムリカー 神田店",
      "address": "〒101-0046 Tokyo, Chiyoda City, Kanda Tacho, 2 Chome−3−1 第1ニサワビル",
      "note": null,
      "is_favorite": true,
      "lat": 35.692747499999996,
      "lng": 139.7692214,
      "maps_url": "https://maps.google.com/?cid=6924439957822710071",
      "cid": "6924439957822710071",
      "google_id": "/g/11hlwk0_pb"
    },
    {
      "name": "VIRTÙ, 1 Chome-2-1 Ōtemachi, Chiyoda City, Tokyo 100-0004",
      "address": "1 Chome-2-1 Ōtemachi, Chiyoda City, Tokyo 100-0004",
      "note": null,
      "is_favorite": true,
      "lat": 35.6879978,
      "lng": 139.7632237,
      "maps_url": "https://maps.google.com/?cid=6924439652957010581",
      "cid": "6924439652957010581",
      "google_id": "/g/11kxk1ch88"
    },
    {
      "name": "THE UPPER, 丸の内テラス 10F 1 Chome-3-4 Marunouchi, Chiyoda City, Tokyo 100-0005",
      "address": "〒100-0005 Tokyo, Chiyoda City, Marunouchi, 1 Chome−3−4 丸の内テラス 10F",
      "note": null,
      "is_favorite": true,
      "lat": 35.684410299999996,
      "lng": 139.7640883,
      "maps_url": "https://maps.google.com/?cid=6924437746582573057",
      "cid": "6924437746582573057",
      "google_id": "/g/11ljj8q5sq"
    },
    {
      "name": "La Pesquera MARISQUERIA, 1 Chome-5-5 Ōtemachi, Chiyoda City, Tokyo 100-0004",
      "address": "1 Chome-5-5 Ōtemachi, Chiyoda City, Tokyo 100-0004",
      "note": null,
      "is_favorite": true,
      "lat": 35.6854775,
      "lng": 139.7656705,
      "maps_url": "https://maps.google.com/?cid=6924438326517343429",
      "cid": "6924438326517343429",
      "google_id": "/g/1yfjn5pdw"
    },
    {
      "name": "Esterre, 1 Chome-1-1 Marunouchi, Chiyoda City, Tokyo 100-0005",
      "address": "1 Chome-1-1 Marunouchi, Chiyoda City, Tokyo 100-0005",
      "note": null,
      "is_favorite": true,
      "lat": 35.6845001,
      "lng": 139.7612211,
      "maps_url": "https://maps.google.com/?cid=6924439837143847101",
      "cid": "6924439837143847101",
      "google_id": "/g/11h7g2nx9x"
    },
    {
      "name": "Usukifugu Yamadaya Marunouchi, Marunouchi Building, 35階 2 Chome-4-1 Marunouchi, Chiyoda City, Tokyo 100-0005",
      "address": "〒100-0005 Tokyo, Chiyoda City, Marunouchi, 2 Chome−4−1, Marunouchi Building, 35階",
      "note": null,
      "is_favorite": true,
      "lat": 35.681197499999996,
      "lng": 139.7637454,
      "maps_url": "https://maps.google.com/?cid=6924438331107526691",
      "cid": "6924438331107526691",
      "google_id": "/g/11f25jg6ky"
    },
    {
      "name": "〒100-0005 Tokyo, Chiyoda City, Marunouchi, 1 Chome−9−1 JR東日本東京駅構内1F グランスタ東京（丸の内北口側 MAISON CACAO Gransta Tokyo Store",
      "address": "〒100-0005 Tokyo, Chiyoda City, Marunouchi, 1 Chome−9−1 JR東日本東京駅構内1F グランスタ東京（丸の内北口側",
      "note": null,
      "is_favorite": true,
      "lat": 35.682027399999996,
      "lng": 139.76682839999998,
      "maps_url": "https://maps.google.com/?cid=6924438137821735385",
      "cid": "6924438137821735385",
      "google_id": "/g/11jkssyzh0"
    },
    {
      "name": "Kaitenzushi Nemuro Hanamaru KITTE Marunouchi, JPタワ 7番2号 5F 2 Chome Marunouchi, Chiyoda City, Tokyo 100-7005",
      "address": "〒100-7005 Tokyo, Chiyoda City, Marunouchi, 2 Chome, 7番2号 5F JPタワ",
      "note": null,
      "is_favorite": true,
      "lat": 35.6795237,
      "lng": 139.7649491,
      "maps_url": "https://maps.google.com/?cid=6924438334192041147",
      "cid": "6924438334192041147",
      "google_id": "/g/12hp18yfh"
    },
    {
      "name": "Manten Sushi Marunouchi, ブリックスクエア B1 2 Chome-6-1 Marunouchi, Chiyoda City, Tokyo 100-6990",
      "address": "〒100-6990 Tokyo, Chiyoda City, Marunouchi, 2 Chome−6−1 ブリックスクエア B1",
      "note": null,
      "is_favorite": true,
      "lat": 35.6787845,
      "lng": 139.7627699,
      "maps_url": "https://maps.google.com/?cid=6924438333155246715",
      "cid": "6924438333155246715",
      "google_id": "/g/1vk6z6gy"
    },
    {
      "name": "YAUMAY, 二重橋スクエアビル 2F 3 Chome-2-3 Marunouchi, Chiyoda City, Tokyo 100-0005",
      "address": "〒100-0005 Tokyo, Chiyoda City, Marunouchi, 3 Chome−2−3 二重橋スクエアビル 2F",
      "note": null,
      "is_favorite": true,
      "lat": 35.6776993,
      "lng": 139.7617349,
      "maps_url": "https://maps.google.com/?cid=6924438121773761581",
      "cid": "6924438121773761581",
      "google_id": "/g/11gsly2jww"
    },
    {
      "name": "Dhaba India, 相模ビル １F 2 Chome-7-9 Yaesu, Chuo City, Tokyo 103-0028",
      "address": "〒103-0028 Tokyo, Chuo City, Yaesu, 2 Chome−7−9 相模ビル １F",
      "note": null,
      "is_favorite": true,
      "lat": 35.6771162,
      "lng": 139.7686373,
      "maps_url": "https://maps.google.com/?cid=6924438235320914815",
      "cid": "6924438235320914815",
      "google_id": "/g/1td7n9b_"
    },
    {
      "name": "The Cave De Oyster by Gumbo & Oyster Bar, 八重洲地下南1号 2 Chome-1 Yaesu, Chuo City, Tokyo 104-0028",
      "address": "〒104-0028 Tokyo, Chuo City, Yaesu, 2 Chome−1 八重洲地下南1号",
      "note": null,
      "is_favorite": true,
      "lat": 35.6792355,
      "lng": 139.7678334,
      "maps_url": "https://maps.google.com/?cid=6924438345555306481",
      "cid": "6924438345555306481",
      "google_id": "/g/1v9tzx5m"
    },
    {
      "name": "〒104-0061 Tokyo, Chuo City, Ginza, 2 Chome−6−5 GINZA TRECIOUS 12F Aroma Fresca",
      "address": "〒104-0061 Tokyo, Chuo City, Ginza, 2 Chome−6−5 GINZA TRECIOUS 12F",
      "note": null,
      "is_favorite": true,
      "lat": 35.6736888,
      "lng": 139.767161,
      "maps_url": "https://maps.google.com/?cid=6924438238668940633",
      "cid": "6924438238668940633",
      "google_id": "/g/1tdn421z"
    },
    {
      "name": "Sushi Ishiyama, 森田ビル 4F 3 Chome-3-6 Ginza, Chuo City, Tokyo 104-0061",
      "address": "〒104-0061 Tokyo, Chuo City, Ginza, 3 Chome−3−6 森田ビル 4F",
      "note": null,
      "is_favorite": true,
      "lat": 35.6731203,
      "lng": 139.7655234,
      "maps_url": "https://maps.google.com/?cid=6924437395577302925",
      "cid": "6924437395577302925",
      "google_id": "/g/11g1p1tr__"
    },
    {
      "name": "Jojoen, ロイヤルクリスタル銀座 6F 5 Chome-4-6 Ginza, Chuo City, Tokyo 104-0061",
      "address": "〒104-0061 Tokyo, Chuo City, Ginza, 5 Chome−4−6 ロイヤルクリスタル銀座 6F",
      "note": null,
      "is_favorite": true,
      "lat": 35.6716749,
      "lng": 139.7633836,
      "maps_url": "https://maps.google.com/?cid=6924438246774371243",
      "cid": "6924438246774371243",
      "google_id": "/g/1vv2s714"
    },
    {
      "name": "〒104-0061 Tokyo, Chuo City, Ginza, 4 Chome−2−15 塚本総業ビルB1階 Sukiyabashi Jiro",
      "address": "〒104-0061 Tokyo, Chuo City, Ginza, 4 Chome−2−15 塚本総業ビルB1階",
      "note": null,
      "is_favorite": true,
      "lat": 35.672740399999995,
      "lng": 139.7639378,
      "maps_url": "https://maps.google.com/?cid=6924438245962792021",
      "cid": "6924438245962792021",
      "google_id": null
    },
    {
      "name": "〒104-0061 Tokyo, Chuo City, Ginza, 5 Chome−4−15 Efflore Ginza5 Bldg, B1F High Five",
      "address": "〒104-0061 Tokyo, Chuo City, Ginza, 5 Chome−4−15 Efflore Ginza5 Bldg, B1F",
      "note": null,
      "is_favorite": true,
      "lat": 35.671641,
      "lng": 139.762943,
      "maps_url": "https://maps.google.com/?cid=6924438285050819773",
      "cid": "6924438285050819773",
      "google_id": "/g/119wjwkcp"
    },
    {
      "name": "〒104-0061 Tokyo, Chuo City, Ginza, 5 Chome−7−10 EXIT MELSA 8階 Air",
      "address": "〒104-0061 Tokyo, Chuo City, Ginza, 5 Chome−7−10 EXIT MELSA 8階",
      "note": null,
      "is_favorite": true,
      "lat": 35.670671999999996,
      "lng": 139.763948,
      "maps_url": "https://maps.google.com/?cid=6924437716844929553",
      "cid": "6924437716844929553",
      "google_id": "/g/1v5frx68"
    },
    {
      "name": "Tír na nÓg",
      "address": "〒104-0061 Tokyo, Chuo City, Ginza, 5 Chome−9−5 チアーズ銀座 B１",
      "note": null,
      "is_favorite": false,
      "lat": 35.670218,
      "lng": 139.76568319999998,
      "maps_url": "https://maps.google.com/?cid=6924438251242788269",
      "cid": "6924438251242788269",
      "google_id": null
    },
    {
      "name": "Seamon Ginza, 5 Chome-5-13 Ginza, Chuo City, Tokyo 104-0061",
      "address": "5 Chome-5-13 Ginza, Chuo City, Tokyo 104-0061",
      "note": null,
      "is_favorite": true,
      "lat": 35.6711228,
      "lng": 139.7630816,
      "maps_url": "https://maps.google.com/?cid=6924438246992339807",
      "cid": "6924438246992339807",
      "google_id": "/g/1tvrzqby"
    },
    {
      "name": "Sawada, 銀座ＭＣビル 5 Chome-9-19 Ginza, Chuo City, Tokyo 104-0061",
      "address": "〒104-0061 Tokyo, Chuo City, Ginza, 5 Chome−9−19 銀座ＭＣビル",
      "note": null,
      "is_favorite": true,
      "lat": 35.6704625,
      "lng": 139.7652439,
      "maps_url": "https://maps.google.com/?cid=6924438251165436981",
      "cid": "6924438251165436981",
      "google_id": "/g/1vd3vsqc"
    },
    {
      "name": "Ginza Komon, GINZA7BLDG 9階 7 Chome-6-4 Ginza, Chuo City, Tokyo 104-0061",
      "address": "〒104-0061 Tokyo, Chuo City, Ginza, 7 Chome−6−4 GINZA7BLDG 9階",
      "note": null,
      "is_favorite": true,
      "lat": 35.6697996,
      "lng": 139.7620059,
      "maps_url": "https://maps.google.com/?cid=6924437943754925931",
      "cid": "6924437943754925931",
      "google_id": "/g/11j5bpj7ny"
    },
    {
      "name": "MIXOLOGY SALON",
      "address": "〒104-0061 Tokyo, Chuo City, Ginza, 6 Chome−10−1 GINZA SIX 13F",
      "note": null,
      "is_favorite": false,
      "lat": 35.669249,
      "lng": 139.76376539999998,
      "maps_url": "https://maps.google.com/?cid=6924438247916223737",
      "cid": "6924438247916223737",
      "google_id": null
    },
    {
      "name": "USHIGORO S. GINZA, Ginza 777 Adc Building, 6階 7 Chome-7-7 Ginza, Chuo City, Tokyo 104-0061",
      "address": "〒104-0061 Tokyo, Chuo City, Ginza, 7 Chome−7−7, Ginza 777 Adc Building, 6階",
      "note": null,
      "is_favorite": true,
      "lat": 35.6693111,
      "lng": 139.76202229999998,
      "maps_url": "https://maps.google.com/?cid=6924437584057050949",
      "cid": "6924437584057050949",
      "google_id": "/g/11g0trygys"
    },
    {
      "name": "Hamasaku, 7 Chome-7-4 Ginza, Chuo City, Tokyo 104-0061",
      "address": "7 Chome-7-4 Ginza, Chuo City, Tokyo 104-0061",
      "note": null,
      "is_favorite": true,
      "lat": 35.6695493,
      "lng": 139.7623971,
      "maps_url": "https://maps.google.com/?cid=6924438258304326933",
      "cid": "6924438258304326933",
      "google_id": "/g/1tjz7yfb"
    },
    {
      "name": "Ginza Katsukami, ミヤコビル ５階 5 Chome-6-10 Ginza, Chuo City, Tokyo 104-0061",
      "address": "〒104-0061 Tokyo, Chuo City, Ginza, 5 Chome−6−10 ミヤコビル ５階",
      "note": null,
      "is_favorite": true,
      "lat": 35.6707126,
      "lng": 139.76362559999998,
      "maps_url": "https://maps.google.com/?cid=6924438344294716305",
      "cid": "6924438344294716305",
      "google_id": "/g/11f8msh46r"
    },
    {
      "name": "〒104-0061 Tokyo, Chuo City, Ginza, 6 Chome−8−7 交詢ビル 4階 CALI STYLE YUZAN by KEIICHIRO KUROBE",
      "address": "〒104-0061 Tokyo, Chuo City, Ginza, 6 Chome−8−7 交詢ビル 4階",
      "note": null,
      "is_favorite": true,
      "lat": 35.6703471,
      "lng": 139.76286629999998,
      "maps_url": "https://maps.google.com/?cid=6924438247551557605",
      "cid": "6924438247551557605",
      "google_id": "/g/11h9vqg5yc"
    },
    {
      "name": "Bifteck Kawamura Ginza, Brioni Ginza Bldg., ８階 6 Chome-5-1 Ginza, Chuo City, Tokyo 104-0061",
      "address": "〒104-0061 Tokyo, Chuo City, Ginza, 6 Chome−5−1, Brioni Ginza Bldg., ８階",
      "note": null,
      "is_favorite": true,
      "lat": 35.6709989,
      "lng": 139.7618419,
      "maps_url": "https://maps.google.com/?cid=6924438287207587445",
      "cid": "6924438287207587445",
      "google_id": "/g/1tdft3qp"
    },
    {
      "name": "Ginza Kojyu, 銀座カリオカビル 4F 5 Chome-4-8 Ginza, Chuo City, Tokyo 104-0061",
      "address": "〒104-0061 Tokyo, Chuo City, Ginza, 5 Chome−4−8 銀座カリオカビル 4F",
      "note": null,
      "is_favorite": true,
      "lat": 35.671386999999996,
      "lng": 139.7630787,
      "maps_url": "https://maps.google.com/?cid=6924438259318218837",
      "cid": "6924438259318218837",
      "google_id": null
    },
    {
      "name": "〒104-0061 Tokyo, Chuo City, Ginza, 6 Chome−6−5 HULIC&New GINZA NAMIKI６ ７F まとい 銀座",
      "address": "〒104-0061 Tokyo, Chuo City, Ginza, 6 Chome−6−5 HULIC&New GINZA NAMIKI６ ７F",
      "note": null,
      "is_favorite": true,
      "lat": 35.6708962,
      "lng": 139.7625741,
      "maps_url": "https://maps.google.com/?cid=6924437304318964849",
      "cid": "6924437304318964849",
      "google_id": "/g/11jzfmbvdv"
    },
    {
      "name": "Bar Rooster, 6 Chome-4-18 Ginza, Chuo City, Tokyo 104-0061",
      "address": "6 Chome-4-18 Ginza, Chuo City, Tokyo 104-0061",
      "note": null,
      "is_favorite": true,
      "lat": 35.671597299999995,
      "lng": 139.76163979999998,
      "maps_url": "https://maps.google.com/?cid=6924438287474935491",
      "cid": "6924438287474935491",
      "google_id": "/g/11b5wl4xj8"
    },
    {
      "name": "Les Copains de Dominique Bouchet, 5 Chome-1-8 Ginza, Chuo City, Tokyo 104-0061",
      "address": "5 Chome-1-8 Ginza, Chuo City, Tokyo 104-0061",
      "note": null,
      "is_favorite": true,
      "lat": 35.6720028,
      "lng": 139.7617613,
      "maps_url": "https://maps.google.com/?cid=6924438287556367701",
      "cid": "6924438287556367701",
      "google_id": "/g/11bzy6hrlx"
    },
    {
      "name": "SPICE LAB TOKYO, Gicros Ginza Gems, 10F 6 Chome-4-3 Ginza, Chuo City, Tokyo 104-0061",
      "address": "〒104-0061 Tokyo, Chuo City, Ginza, 6 Chome−4−3, Gicros Ginza Gems, 10F",
      "note": null,
      "is_favorite": true,
      "lat": 35.671510399999995,
      "lng": 139.76184569999998,
      "maps_url": "https://maps.google.com/?cid=6924437500906166647",
      "cid": "6924437500906166647",
      "google_id": "/g/11fp7srgj1"
    },
    {
      "name": "Ginza Yamashina, Gicros Ginza Gems, 7/8F 6 Chome-4-3 Ginza, Chuo City, Tokyo 104-0061",
      "address": "〒104-0061 Tokyo, Chuo City, Ginza, 6 Chome−4−3, Gicros Ginza Gems, 7/8F",
      "note": null,
      "is_favorite": true,
      "lat": 35.671602299999996,
      "lng": 139.7619734,
      "maps_url": "https://maps.google.com/?cid=6924437550391235555",
      "cid": "6924437550391235555",
      "google_id": "/g/11j3w6n3rl"
    },
    {
      "name": "Marugin, コリドー街 105 7 Chome-2番先 Ginza, Chuo City, Tokyo 104-0061",
      "address": "〒104-0061 Tokyo, Chuo City, Ginza, 7 Chome−2番先 コリドー街 105",
      "note": null,
      "is_favorite": true,
      "lat": 35.6712001,
      "lng": 139.7600962,
      "maps_url": "https://maps.google.com/?cid=6924438285798677707",
      "cid": "6924438285798677707",
      "google_id": "/g/1th7yb99"
    },
    {
      "name": "〒104-0061 Tokyo, Chuo City, Ginza, 6 Chome−4−12 KNビル B2F LITTLE SMITH",
      "address": "〒104-0061 Tokyo, Chuo City, Ginza, 6 Chome−4−12 KNビル B2F",
      "note": null,
      "is_favorite": true,
      "lat": 35.6709743,
      "lng": 139.7610861,
      "maps_url": "https://maps.google.com/?cid=6924438286747663971",
      "cid": "6924438286747663971",
      "google_id": "/g/11gsmvwpwp"
    },
    {
      "name": "Motenashi Kuroki, 1 Chome-28-9 Asakusabashi, Taito City, Tokyo 111-0053",
      "address": "1 Chome-28-9 Asakusabashi, Taito City, Tokyo 111-0053",
      "note": null,
      "is_favorite": true,
      "lat": 35.6979944,
      "lng": 139.7854666,
      "maps_url": "https://maps.google.com/?cid=1524111636131988299",
      "cid": "1524111636131988299",
      "google_id": "/g/1v_nchw6"
    },
    {
      "name": "Sushi Tokami",
      "address": null,
      "note": null,
      "is_favorite": false,
      "lat": 35.6693413,
      "lng": 139.7596685,
      "maps_url": "https://maps.google.com/?cid=6924438260690188301",
      "cid": "6924438260690188301",
      "google_id": null
    },
    {
      "name": "Tsuru Ton Tan, 六本木三丁目ビル 3 Chome-14-12 Roppongi, Minato City, Tokyo 106-0032",
      "address": "〒106-0032 Tokyo, Minato City, Roppongi, 3 Chome−14−12 六本木三丁目ビル",
      "note": null,
      "is_favorite": true,
      "lat": 35.6650086,
      "lng": 139.7298423,
      "maps_url": "https://maps.google.com/?cid=6924437924943927665",
      "cid": "6924437924943927665",
      "google_id": "/g/1tcw84wy"
    },
    {
      "name": "〒171-0014 Tokyo, Toshima City, Ikebukuro, 2 Chome−2−6 Palace池袋 4F Music Cafe Bar \"ONE's\"",
      "address": "〒171-0014 Tokyo, Toshima City, Ikebukuro, 2 Chome−2−6 Palace池袋 4F",
      "note": null,
      "is_favorite": true,
      "lat": 35.732101,
      "lng": 139.70801319999998,
      "maps_url": "https://maps.google.com/?cid=6924439864530348733",
      "cid": "6924439864530348733",
      "google_id": "/g/11gf8f5dbv"
    },
    {
      "name": "Chūka Soba Ginza Hachigo, 第一はなぶさビル 1階 3 Chome-14-2 Ginza, Chuo City, Tokyo 104-0061",
      "address": "〒104-0061 Tokyo, Chuo City, Ginza, 3 Chome−14−2 第一はなぶさビル 1階",
      "note": null,
      "is_favorite": true,
      "lat": 35.6705477,
      "lng": 139.77015,
      "maps_url": "https://maps.google.com/?cid=6924438248725106271",
      "cid": "6924438248725106271",
      "google_id": "/g/11f9x3zj8t"
    },
    {
      "name": "Hotel's, ２F 3 Chome-4-3 Kita-Aoyama, Minato City, Tokyo 107-0061",
      "address": "〒107-0061 Tokyo, Minato City, Kita-Aoyama, 3 Chome−4−3 ２F",
      "note": null,
      "is_favorite": true,
      "lat": 35.667591,
      "lng": 139.71335689999998,
      "maps_url": "https://maps.google.com/?cid=6924440109694699165",
      "cid": "6924440109694699165",
      "google_id": "/g/11rcd7528z"
    },
    {
      "name": "〒142-0062 Tokyo, Shinagawa City, Koyama, 4 Chome−10−1, Be-Re Musashikoyama, 1F 鮨 季らく",
      "address": "〒142-0062 Tokyo, Shinagawa City, Koyama, 4 Chome−10−1, Be-Re Musashikoyama, 1F",
      "note": null,
      "is_favorite": true,
      "lat": 35.619137099999996,
      "lng": 139.7023918,
      "maps_url": "https://maps.google.com/?cid=6924437395488928277",
      "cid": "6924437395488928277",
      "google_id": "/g/11twhtr141"
    },
    {
      "name": "Sakurai Japanese Tea Experience, スパイラルビル 5F, 5 Chome-6-23 Minamiaoyama, Minato City, Tokyo 107-0062",
      "address": "スパイラルビル 5F, 5 Chome-6-23 Minamiaoyama, Minato City, Tokyo 107-0062",
      "note": null,
      "is_favorite": true,
      "lat": 35.663573,
      "lng": 139.71176,
      "maps_url": "https://maps.google.com/?cid=6924437743991632461",
      "cid": "6924437743991632461",
      "google_id": "/g/11bzt0rqy9"
    },
    {
      "name": "Tadenoha, ダイアンクレストビル 2F, 3 Chome-2-3 Minamiaoyama, Minato City, Tokyo 107-0062",
      "address": "ダイアンクレストビル 2F, 3 Chome-2-3 Minamiaoyama, Minato City, Tokyo 107-0062",
      "note": null,
      "is_favorite": true,
      "lat": 35.667988699999995,
      "lng": 139.7172424,
      "maps_url": "https://maps.google.com/?cid=6924439036692077407",
      "cid": "6924439036692077407",
      "google_id": "/g/11g9jmjr61"
    },
    {
      "name": "〒107-0062 Tokyo, Minato City, Minamiaoyama, 2 Chome−27−18 AOYAMA M’s TOWER（青山エムズタワ パサージュ青山2F Ristorante ACQUA PAZZA",
      "address": "〒107-0062 Tokyo, Minato City, Minamiaoyama, 2 Chome−27−18 AOYAMA M’s TOWER（青山エムズタワ パサージュ青山2F",
      "note": null,
      "is_favorite": true,
      "lat": 35.6691013,
      "lng": 139.7166933,
      "maps_url": "https://maps.google.com/?cid=6924440247350835599",
      "cid": "6924440247350835599",
      "google_id": "/g/1tg9hj_7"
    },
    {
      "name": "ALDO アルド, 3 Chome-3-23 Minamiaoyama, Minato City, Tokyo 107-0062",
      "address": "3 Chome-3-23 Minamiaoyama, Minato City, Tokyo 107-0062",
      "note": null,
      "is_favorite": true,
      "lat": 35.6676766,
      "lng": 139.7164496,
      "maps_url": "https://maps.google.com/?cid=6924439045958714563",
      "cid": "6924439045958714563",
      "google_id": "/g/11cmtryj2w"
    },
    {
      "name": "LATTEST, 3 Chome-5-2 Jingumae, Shibuya City, Tokyo 150-0001",
      "address": "3 Chome-5-2 Jingumae, Shibuya City, Tokyo 150-0001",
      "note": null,
      "is_favorite": true,
      "lat": 35.6689308,
      "lng": 139.7123818,
      "maps_url": "https://maps.google.com/?cid=6924439042901299119",
      "cid": "6924439042901299119",
      "google_id": "/g/11b6x7c_4v"
    },
    {
      "name": "Tokyo Metropolitan Government Building",
      "address": null,
      "note": null,
      "is_favorite": false,
      "lat": 35.6894807,
      "lng": 139.6916863,
      "maps_url": "https://maps.google.com/?cid=6924439272315041697",
      "cid": "6924439272315041697",
      "google_id": null
    },
    {
      "name": "Soba House Konjiki-Hototogisu",
      "address": null,
      "note": null,
      "is_favorite": false,
      "lat": 35.688813499999995,
      "lng": 139.7083092,
      "maps_url": "https://maps.google.com/?cid=6924551766975255865",
      "cid": "6924551766975255865",
      "google_id": null
    },
    {
      "name": "Obicà Mozzarella Bar Nishi Shinjuku, Nishi-Shinjuku Mitsui Bldg., 1F 6 Chome-24-1 Nishishinjuku, Shinjuku City, Tokyo 160-0023",
      "address": "〒160-0023 Tokyo, Shinjuku City, Nishishinjuku, 6 Chome−24−1, Nishi-Shinjuku Mitsui Bldg., 1F",
      "note": null,
      "is_favorite": true,
      "lat": 35.6946198,
      "lng": 139.6889158,
      "maps_url": "https://maps.google.com/?cid=6924551675927926199",
      "cid": "6924551675927926199",
      "google_id": "/g/11frns8ny_"
    },
    {
      "name": "Soba Osame, 3 Chome-21-5 Shimoochiai, Shinjuku City, Tokyo 161-0033",
      "address": "3 Chome-21-5 Shimoochiai, Shinjuku City, Tokyo 161-0033",
      "note": null,
      "is_favorite": true,
      "lat": 35.722621499999995,
      "lng": 139.7009995,
      "maps_url": "https://maps.google.com/?cid=6924437466611677657",
      "cid": "6924437466611677657",
      "google_id": "/g/11g__57nb3"
    },
    {
      "name": "Morutoya, ＤＫＹ１２ビル 1F 1 Chome-8-6 Higashiikebukuro, Toshima City, Tokyo 170-0013",
      "address": "〒170-0013 Tokyo, Toshima City, Higashiikebukuro, 1 Chome−8−6 ＤＫＹ１２ビル 1F",
      "note": null,
      "is_favorite": true,
      "lat": 35.7318144,
      "lng": 139.7145339,
      "maps_url": "https://maps.google.com/?cid=6924439900590380121",
      "cid": "6924439900590380121",
      "google_id": "/g/1tfl063n"
    },
    {
      "name": "Mala Youhuo, ＦＩＮＯビル 1F、2F 2 Chome-43-2 Ikebukuro, Toshima City, Tokyo 171-0014",
      "address": "〒171-0014 Tokyo, Toshima City, Ikebukuro, 2 Chome−43−2 ＦＩＮＯビル 1F、2F",
      "note": null,
      "is_favorite": true,
      "lat": 35.7331966,
      "lng": 139.7101404,
      "maps_url": "https://maps.google.com/?cid=6924439863770882077",
      "cid": "6924439863770882077",
      "google_id": "/g/1tffzhk9"
    },
    {
      "name": "〒171-0022 Tokyo, Toshima City, Minamiikebukuro, 1 Chome−17−1 崎本ビル1F Mutekiya",
      "address": "〒171-0022 Tokyo, Toshima City, Minamiikebukuro, 1 Chome−17−1 崎本ビル1F",
      "note": null,
      "is_favorite": true,
      "lat": 35.7269046,
      "lng": 139.7116557,
      "maps_url": "https://maps.google.com/?cid=6924439905553152375",
      "cid": "6924439905553152375",
      "google_id": "/g/11b72mlbrk"
    },
    {
      "name": "〒162-0825 Tokyo, Shinjuku City, Kagurazaka, 3 Chome−2−4 クレール神楽坂 1階 Lantern burger",
      "address": "〒162-0825 Tokyo, Shinjuku City, Kagurazaka, 3 Chome−2−4 クレール神楽坂 1階",
      "note": null,
      "is_favorite": true,
      "lat": 35.7012043,
      "lng": 139.7409533,
      "maps_url": "https://maps.google.com/?cid=6924438747802576643",
      "cid": "6924438747802576643",
      "google_id": "/g/1tdjw_ks"
    },
    {
      "name": "Shabuya, 4 Chome-４ Kagurazaka, Shinjuku City, Tokyo 162-0825",
      "address": "〒162-0825 Tokyo, Shinjuku City, Kagurazaka, 4 Chome−４",
      "note": null,
      "is_favorite": true,
      "lat": 35.7022117,
      "lng": 139.7399354,
      "maps_url": "https://maps.google.com/?cid=6924438747648072655",
      "cid": "6924438747648072655",
      "google_id": "/g/1v4k6hrd"
    },
    {
      "name": "Le Bretagne Creperie, 4 Chome-2 Kagurazaka, Shinjuku City, Tokyo 162-0825",
      "address": "4 Chome-2 Kagurazaka, Shinjuku City, Tokyo 162-0825",
      "note": null,
      "is_favorite": true,
      "lat": 35.7018811,
      "lng": 139.73970409999998,
      "maps_url": "https://maps.google.com/?cid=6924438747581386527",
      "cid": "6924438747581386527",
      "google_id": "/g/11bysjpx01"
    },
    {
      "name": "Kamikura, 3 Chome-１ Kagurazaka, Shinjuku City, Tokyo 162-0825",
      "address": "〒162-0825 Tokyo, Shinjuku City, Kagurazaka, 3 Chome−１",
      "note": null,
      "is_favorite": true,
      "lat": 35.701960299999996,
      "lng": 139.7409123,
      "maps_url": "https://maps.google.com/?cid=6924438748528235661",
      "cid": "6924438748528235661",
      "google_id": "/g/1tdr396d"
    },
    {
      "name": "Rakuzan Kagurazaka, 4 Chome-3 Kagurazaka, Shinjuku City, Tokyo 162-0825",
      "address": "4 Chome-3 Kagurazaka, Shinjuku City, Tokyo 162-0825",
      "note": null,
      "is_favorite": true,
      "lat": 35.7016451,
      "lng": 139.73993249999998,
      "maps_url": "https://maps.google.com/?cid=6924438749352190823",
      "cid": "6924438749352190823",
      "google_id": "/g/1tdmdwkv"
    },
    {
      "name": "Cafe Luigi, 4 Chome-31-1 Jingumae, Shibuya City, Tokyo 150-0001",
      "address": "4 Chome-31-1 Jingumae, Shibuya City, Tokyo 150-0001",
      "note": null,
      "is_favorite": true,
      "lat": 35.6690312,
      "lng": 139.7066653,
      "maps_url": "https://maps.google.com/?cid=6924439060939987671",
      "cid": "6924439060939987671",
      "google_id": "/g/1xgrmy6x"
    },
    {
      "name": "Kamiya Bar, 1 Chome-1-1 Asakusa, Taito City, Tokyo 111-0032",
      "address": "1 Chome-1-1 Asakusa, Taito City, Tokyo 111-0032",
      "note": null,
      "is_favorite": true,
      "lat": 35.7108814,
      "lng": 139.7974925,
      "maps_url": "https://maps.google.com/?cid=6924441379038500533",
      "cid": "6924441379038500533",
      "google_id": "/g/121s4gqt"
    },
    {
      "name": "〒103-0013 Tokyo, Chuo City, Nihonbashiningyocho, 2 Chome−10−11 7階 KYOE PLAZA 柳燕",
      "address": "〒103-0013 Tokyo, Chuo City, Nihonbashiningyocho, 2 Chome−10−11 7階 KYOE PLAZA",
      "note": null,
      "is_favorite": true,
      "lat": 35.685561899999996,
      "lng": 139.7839933,
      "maps_url": "https://maps.google.com/?cid=6924435956366086005",
      "cid": "6924435956366086005",
      "google_id": "/g/11n88k56kw"
    },
    {
      "name": "Virtus wine, １１−１９ 1F 2 Chome-11-19 Jingumae, Shibuya City, Tokyo 150-0001",
      "address": "〒150-0001 Tokyo, Shibuya City, Jingumae, 2 Chome−11−19 １１−１９ 1F",
      "note": null,
      "is_favorite": true,
      "lat": 35.6743824,
      "lng": 139.7122384,
      "maps_url": "https://maps.google.com/?cid=6924439011101415671",
      "cid": "6924439011101415671",
      "google_id": "/g/11cn69tk56"
    },
    {
      "name": "Sushi Yuu, 寿司勇 1 Chome-4-15 Nishiazabu, Minato City, Tokyo 106-0031",
      "address": "〒106-0031 Tokyo, Minato City, Nishiazabu, 1 Chome−4−15 寿司勇",
      "note": null,
      "is_favorite": true,
      "lat": 35.6618298,
      "lng": 139.7251878,
      "maps_url": "https://maps.google.com/?cid=6924437784326732759",
      "cid": "6924437784326732759",
      "google_id": "/g/1tglyzgy"
    },
    {
      "name": "Sougo 宗胡, Roppongi Green Building, 3F 6 Chome-1-8 Roppongi, Minato City, Tokyo 106-0032",
      "address": "〒106-0032 Tokyo, Minato City, Roppongi, 6 Chome−1−8, Roppongi Green Building, 3F",
      "note": null,
      "is_favorite": true,
      "lat": 35.662515899999995,
      "lng": 139.7322145,
      "maps_url": "https://maps.google.com/?cid=6924437935013099361",
      "cid": "6924437935013099361",
      "google_id": "/g/11b77zz79p"
    },
    {
      "name": "TASUICHI, 33-14 Udagawacho, Shibuya City, Tokyo 150-0042",
      "address": "33-14 Udagawacho, Shibuya City, Tokyo 150-0042",
      "note": null,
      "is_favorite": true,
      "lat": 35.6610051,
      "lng": 139.6970442,
      "maps_url": "https://maps.google.com/?cid=6924439086453654627",
      "cid": "6924439086453654627",
      "google_id": "/g/11bwyxf913"
    },
    {
      "name": "〒150-0001 Tokyo, Shibuya City, Jingumae, 3 Chome−41−2 岡本ビル 1階 gnudi",
      "address": "〒150-0001 Tokyo, Shibuya City, Jingumae, 3 Chome−41−2 岡本ビル 1階",
      "note": null,
      "is_favorite": true,
      "lat": 35.671048899999995,
      "lng": 139.71362929999998,
      "maps_url": "https://maps.google.com/?cid=6924440441527530477",
      "cid": "6924440441527530477",
      "google_id": "/g/11t4b6tql0"
    },
    {
      "name": "Ryuzu, Vort六本木Dual's B1F 4 Chome-2-35 Roppongi, Minato City, Tokyo 106-0032",
      "address": "〒106-0032 Tokyo, Minato City, Roppongi, 4 Chome−2−35 Vort六本木Dual's B1F",
      "note": null,
      "is_favorite": true,
      "lat": 35.6647551,
      "lng": 139.7334715,
      "maps_url": "https://maps.google.com/?cid=6924437820782657561",
      "cid": "6924437820782657561",
      "google_id": "/g/1tcxjrw7"
    },
    {
      "name": "Warayakiya Roppongi, 六本木ゴーディビル 1F 6 Chome-8-8 Roppongi, Minato City, Tokyo 106-0032",
      "address": "〒106-0032 Tokyo, Minato City, Roppongi, 6 Chome−8−8 六本木ゴーディビル 1F",
      "note": null,
      "is_favorite": true,
      "lat": 35.6615032,
      "lng": 139.7327091,
      "maps_url": "https://maps.google.com/?cid=6924437935402841973",
      "cid": "6924437935402841973",
      "google_id": "/g/1vj5_5q6"
    },
    {
      "name": "Le Sputnik",
      "address": null,
      "note": null,
      "is_favorite": false,
      "lat": 35.6644262,
      "lng": 139.7298765,
      "maps_url": "https://maps.google.com/?cid=6924437776054794911",
      "cid": "6924437776054794911",
      "google_id": null
    },
    {
      "name": "Ristorante L'OSTERIA",
      "address": null,
      "note": null,
      "is_favorite": false,
      "lat": 35.661738899999996,
      "lng": 139.73125389999998,
      "maps_url": "https://maps.google.com/?cid=6924437774200201981",
      "cid": "6924437774200201981",
      "google_id": null
    },
    {
      "name": "FREY's Famous Pizzeria",
      "address": null,
      "note": null,
      "is_favorite": false,
      "lat": 35.6651532,
      "lng": 139.732619,
      "maps_url": "https://maps.google.com/?cid=6924437819780169315",
      "cid": "6924437819780169315",
      "google_id": null
    },
    {
      "name": "Hyoutan ya 6choume ten",
      "address": null,
      "note": null,
      "is_favorite": false,
      "lat": 35.6692424,
      "lng": 139.7646328,
      "maps_url": "https://maps.google.com/?cid=6924438254240310731",
      "cid": "6924438254240310731",
      "google_id": null
    },
    {
      "name": "Nodaiwa Azabu Iikura Honten",
      "address": null,
      "note": null,
      "is_favorite": false,
      "lat": 35.658147,
      "lng": 139.7433584,
      "maps_url": "https://maps.google.com/?cid=6924438071719879597",
      "cid": "6924438071719879597",
      "google_id": null
    },
    {
      "name": "Ginza Shinohara",
      "address": "2 Chome-8-17 Ginza, 中央区 Chuo City, Tokyo 104-0061, Japan",
      "note": null,
      "is_favorite": false,
      "lat": 35.6730209,
      "lng": 139.7678429,
      "maps_url": "https://maps.google.com/?cid=6924438238444125255",
      "cid": "6924438238444125255",
      "google_id": "/g/11cs5pgcby"
    },
    {
      "name": "Hatou, 5 Chome-7 Kagurazaka, Shinjuku City, Tokyo 162-0825",
      "address": "5 Chome-7 Kagurazaka, Shinjuku City, Tokyo 162-0825",
      "note": null,
      "is_favorite": true,
      "lat": 35.7032909,
      "lng": 139.7369952,
      "maps_url": "https://maps.google.com/?cid=6924440102696312783",
      "cid": "6924440102696312783",
      "google_id": "/g/11j1_xtlj5"
    },
    {
      "name": "Wasa, ベルザ恵比寿ビル 1F 3 Chome-16-1 Higashi, Shibuya City, Tokyo 150-0011",
      "address": "〒150-0011 Tokyo, Shibuya City, Higashi, 3 Chome−16−1 ベルザ恵比寿ビル 1F",
      "note": null,
      "is_favorite": true,
      "lat": 35.649799699999996,
      "lng": 139.7100875,
      "maps_url": "https://maps.google.com/?cid=6924438097092144711",
      "cid": "6924438097092144711",
      "google_id": "/g/11mmjl41p6"
    },
    {
      "name": "Saffron Ikebukuro, タクト ＴＯビル 201 1 Chome-28-1 Higashiikebukuro, Toshima City, Tokyo 170-0013",
      "address": "〒170-0013 Tokyo, Toshima City, Higashiikebukuro, 1 Chome−28−1 ＴＯビル 201 タクト",
      "note": null,
      "is_favorite": true,
      "lat": 35.7294293,
      "lng": 139.7165137,
      "maps_url": "https://maps.google.com/?cid=6924439907925943325",
      "cid": "6924439907925943325",
      "google_id": "/g/1tnqg_16"
    },
    {
      "name": "〒150-0012 Tokyo, Shibuya City, Hiroo, 5 Chome−2−25 本国 ビル 3F Priya The Indian Restaurant",
      "address": "〒150-0012 Tokyo, Shibuya City, Hiroo, 5 Chome−2−25 本国 ビル 3F",
      "note": null,
      "is_favorite": true,
      "lat": 35.6502686,
      "lng": 139.7202833,
      "maps_url": "https://maps.google.com/?cid=6924437728396354689",
      "cid": "6924437728396354689",
      "google_id": "/g/1tdjw_fy"
    },
    {
      "name": "Mandala, 集英社共同ビル 地下１階 2 Chome-17 Kanda Jinbocho, Chiyoda City, Tokyo 101-0051",
      "address": "〒101-0051 Tokyo, Chiyoda City, Kanda Jinbocho, 2 Chome−17 集英社共同ビル 地下１階",
      "note": null,
      "is_favorite": true,
      "lat": 35.695223999999996,
      "lng": 139.7576918,
      "maps_url": "https://maps.google.com/?cid=6924438433363578117",
      "cid": "6924438433363578117",
      "google_id": "/g/1tl_lq8q"
    },
    {
      "name": "Ajanta, Vort二番町 3-11 Nibancho, Chiyoda City, Tokyo 102-0084",
      "address": "〒102-0084 Tokyo, Chiyoda City, Nibancho, 3−11 Vort二番町",
      "note": null,
      "is_favorite": true,
      "lat": 35.6861406,
      "lng": 139.7369243,
      "maps_url": "https://maps.google.com/?cid=6924438786175692825",
      "cid": "6924438786175692825",
      "google_id": "/g/121g7pdl"
    },
    {
      "name": "〒106-0032 Tokyo, Minato City, Roppongi, 7 Chome−6−20 1階 長谷川栄雅 六本木 -日本酒体験-",
      "address": "〒106-0032 Tokyo, Minato City, Roppongi, 7 Chome−6−20 1階",
      "note": null,
      "is_favorite": true,
      "lat": 35.6647414,
      "lng": 139.72814309999998,
      "maps_url": "https://maps.google.com/?cid=6924437966635305591",
      "cid": "6924437966635305591",
      "google_id": "/g/11gzmj75mb"
    },
    {
      "name": "SUIGIAN, 福徳の森 地下, 1階, 2 Chome-5-10 Nihonbashimuromachi, Chuo City, Tokyo 103-0022",
      "address": "福徳の森 地下, 1階, 2 Chome-5-10 Nihonbashimuromachi, Chuo City, Tokyo 103-0022",
      "note": null,
      "is_favorite": true,
      "lat": 35.6873319,
      "lng": 139.7747314,
      "maps_url": "https://maps.google.com/?cid=6924435118397936703",
      "cid": "6924435118397936703",
      "google_id": "/g/11g0gb50tc"
    },
    {
      "name": "Celaravird, TWIZA上原 １階 2 Chome-8-11 Uehara, Shibuya City, Tokyo 151-0064",
      "address": "〒151-0064 Tokyo, Shibuya City, Uehara, 2 Chome−8−11 TWIZA上原 １階",
      "note": null,
      "is_favorite": true,
      "lat": 35.6657578,
      "lng": 139.6842665,
      "maps_url": "https://maps.google.com/?cid=6924551946900521811",
      "cid": "6924551946900521811",
      "google_id": "/g/11b76tvnr4"
    },
    {
      "name": "Soba Yamato, ideerooms上原 101 3 Chome-1-17 Uehara, Shibuya City, Tokyo 151-0064",
      "address": "〒151-0064 Tokyo, Shibuya City, Uehara, 3 Chome−1−17 ideerooms上原 101",
      "note": null,
      "is_favorite": true,
      "lat": 35.667974,
      "lng": 139.6817321,
      "maps_url": "https://maps.google.com/?cid=6924551919895911015",
      "cid": "6924551919895911015",
      "google_id": "/g/1tglmyhl"
    },
    {
      "name": "Hakuryu, 2 Chome-48-10 Uehara, Shibuya City, Tokyo 151-0064",
      "address": "2 Chome-48-10 Uehara, Shibuya City, Tokyo 151-0064",
      "note": null,
      "is_favorite": true,
      "lat": 35.667698,
      "lng": 139.68179999999998,
      "maps_url": "https://maps.google.com/?cid=6924551920031749739",
      "cid": "6924551920031749739",
      "google_id": "/g/1tjg_dfc"
    },
    {
      "name": "Bon, 1 Chome-2-11 Ryusen, Taito City, Tokyo 110-0012",
      "address": "1 Chome-2-11 Ryusen, Taito City, Tokyo 110-0012",
      "note": null,
      "is_favorite": true,
      "lat": 35.7229178,
      "lng": 139.7903969,
      "maps_url": "https://maps.google.com/?cid=6924441186877562283",
      "cid": "6924441186877562283",
      "google_id": "/g/1tmxfk9l"
    },
    {
      "name": "Bassanova, 1 Chome-4-18 Hanegi, Setagaya City, Tokyo 156-0042",
      "address": "1 Chome-4-18 Hanegi, Setagaya City, Tokyo 156-0042",
      "note": null,
      "is_favorite": true,
      "lat": 35.6635996,
      "lng": 139.6603379,
      "maps_url": "https://maps.google.com/?cid=6924551666336249461",
      "cid": "6924551666336249461",
      "google_id": "/g/1tvyltc4"
    },
    {
      "name": "Bear Pond Espresso, ベアーポンド 2 Chome-36-12 Kitazawa, Setagaya City, Tokyo 155-0031",
      "address": "〒155-0031 Tokyo, Setagaya City, Kitazawa, 2 Chome−36−12 ベアーポンド",
      "note": null,
      "is_favorite": true,
      "lat": 35.6639737,
      "lng": 139.6678886,
      "maps_url": "https://maps.google.com/?cid=6924552068566003711",
      "cid": "6924552068566003711",
      "google_id": "/g/1tfh4psn"
    },
    {
      "name": "Salmon & Trout, 4 Chome-42-7 Daizawa, Setagaya City, Tokyo 155-0032",
      "address": "4 Chome-42-7 Daizawa, Setagaya City, Tokyo 155-0032",
      "note": null,
      "is_favorite": true,
      "lat": 35.6543962,
      "lng": 139.6672999,
      "maps_url": "https://maps.google.com/?cid=6924552047698217675",
      "cid": "6924552047698217675",
      "google_id": "/g/11b7hhwmh2"
    },
    {
      "name": "Coaster Craft Beer & Burgers, Kosei Haimu, １F 5 Chome-19-13 Daizawa, Setagaya City, Tokyo 155-0032",
      "address": "〒155-0032 Tokyo, Setagaya City, Daizawa, 5 Chome−19−13, Kosei Haimu, １F",
      "note": null,
      "is_favorite": true,
      "lat": 35.6573701,
      "lng": 139.6676226,
      "maps_url": "https://maps.google.com/?cid=6924552630185780203",
      "cid": "6924552630185780203",
      "google_id": "/g/11fjsyv957"
    },
    {
      "name": "Good Heavens, 5 Chome-32-5 Daizawa, Setagaya City, Tokyo 155-0032",
      "address": "5 Chome-32-5 Daizawa, Setagaya City, Tokyo 155-0032",
      "note": null,
      "is_favorite": true,
      "lat": 35.6589118,
      "lng": 139.6676161,
      "maps_url": "https://maps.google.com/?cid=6924552059607966785",
      "cid": "6924552059607966785",
      "google_id": "/g/11b7xwd33_"
    },