{
  "fetched_at": "2026-04-15T15:26:02.497779+00:00",
  "refresh_after": "2026-04-29T15:26:02.497779+00:00",
  "source_signature": "5d190bfd375e0d2eb23753247bf335bc15251e1069270133dc1311c3418257b1",
  "configured_source_type": "google_list_url",
  "configured_source_url": "https://maps.app.goo.gl/R8XJpoWKeWakhhRa6",
  "configured_source_path": null,
  "source_url": "https://maps.app.goo.gl/R8XJpoWKeWakhhRa6",
  "list_id": "zZ70DHoCp-a1jS0qC3ToK6HY5mkdRg",
  "title": "Toyama, Japan 🇯🇵",
  "description": "Michael’s Toyama, Japan 🇯🇵 bookmarks. See https://beacons.ai/demflyers for more.",
  "places": [
    {
      "name": "Cuisine régionale L'évo",
      "address": "〒939-2518 Toyama, Nanto, Togamura Taikanba, 田島100番地",
      "note": null,
      "is_favorite": false,
      "lat": 36.401409799999996,
      "lng": 136.9943813,
      "maps_url": "https://maps.google.com/?cid=6915303050571316659",
      "cid": "6915303050571316659",
      "google_id": "/g/11mv52pv2s",
      "maps_place_token": null
    },
    {
      "name": "Tsubomi",
      "address": "〒930-0997 Toyama, Shinjo Kitamachi, 18−24 １Ｆ",
      "note": null,
      "is_favorite": false,
      "lat": 36.7157449,
      "lng": 137.2642243,
      "maps_url": "https://maps.google.com/?cid=6915155826358706841",
      "cid": "6915155826358706841",
      "google_id": "/g/11f670qqst",
      "maps_place_token": null
    },
    {
      "name": "伊真沁",
      "address": "1 Chome-1-4 Shintomicho, Toyama, 930-0002",
      "note": null,
      "is_favorite": false,
      "lat": 36.7002518,
      "lng": 137.2120064,
      "maps_url": "https://maps.google.com/?cid=6915155909795465643",
      "cid": "6915155909795465643",
      "google_id": "/g/11h5s2j6kd",
      "maps_place_token": null
    },
    {
      "name": "Boteyan Tanaka Toyama Ekimae",
      "address": "〒930-0002 Toyama, Shintomicho, 1 Chome−2−3 CiC B1F",
      "note": null,
      "is_favorite": false,
      "lat": 36.6996093,
      "lng": 137.2126264,
      "maps_url": "https://maps.google.com/?cid=6915154749997521331",
      "cid": "6915154749997521331",
      "google_id": "/g/11ckr5mgyg",
      "maps_place_token": null
    },
    {
      "name": "ジェリコの戦い",
      "address": "2 Chome-3-24 Sakuramachi, Toyama, 930-0003",
      "note": null,
      "is_favorite": false,
      "lat": 36.6978544,
      "lng": 137.211718,
      "maps_url": "https://maps.google.com/?cid=6915154653460624715",
      "cid": "6915154653460624715",
      "google_id": "/g/1tznm68l",
      "maps_place_token": null
    },
    {
      "name": "真酒亭",
      "address": "〒930-0003 Toyama, Sakuramachi, 2 Chome−6−20 福沢ビル２F",
      "note": null,
      "is_favorite": false,
      "lat": 36.6976246,
      "lng": 137.2116074,
      "maps_url": "https://maps.google.com/?cid=6915154653656558027",
      "cid": "6915154653656558027",
      "google_id": "/g/1tc_k_7r",
      "maps_place_token": null
    },
    {
      "name": "2KADO",
      "address": "2 Chome-2-7 Sakuramachi, Toyama, 930-0003",
      "note": null,
      "is_favorite": false,
      "lat": 36.6987209,
      "lng": 137.212829,
      "maps_url": "https://maps.google.com/?cid=6915154652850640777",
      "cid": "6915154652850640777",
      "google_id": "/g/11g6b0qq13",
      "maps_place_token": null
    },
    {
      "name": "艶次郎",
      "address": "2 Chome-1-14 Sakuramachi, Toyama, 930-0003",
      "note": null,
      "is_favorite": false,
      "lat": 36.698871,
      "lng": 137.21255499999998,
      "maps_url": "https://maps.google.com/?cid=6915154652487850227",
      "cid": "6915154652487850227",
      "google_id": "/g/11b61ryfst",
      "maps_place_token": null
    },
    {
      "name": "Sushi-Ei Sogawa shop",
      "address": "2 Chome-8-22 Sogawa, Toyama, 930-0083",
      "note": null,
      "is_favorite": false,
      "lat": 36.6901108,
      "lng": 137.2137306,
      "maps_url": "https://maps.google.com/?cid=6915154675588088707",
      "cid": "6915154675588088707",
      "google_id": "/g/1tfwdbmg",
      "maps_place_token": null
    },
    {
      "name": "Aoyagi Shokudo",
      "address": "〒930-0028 Toyama, Aramachi, 5−4 寺島ビルⅡ １階",
      "note": null,
      "is_favorite": false,
      "lat": 36.691182999999995,
      "lng": 137.2155985,
      "maps_url": "https://maps.google.com/?cid=6915154682855277499",
      "cid": "6915154682855277499",
      "google_id": "/g/11b76kdqn0",
      "maps_place_token": null
    },
    {
      "name": "Shogun Burger Toyama",
      "address": "3 Chome-3-21 Sogawa, Toyama, 930-0083",
      "note": null,
      "is_favorite": false,
      "lat": 36.6897145,
      "lng": 137.2138948,
      "maps_url": "https://maps.google.com/?cid=6915154677095240173",
      "cid": "6915154677095240173",
      "google_id": "/g/11dxl5x1g3",
      "maps_place_token": null
    },
    {
      "name": "Izakaya Dai",
      "address": "6-7 Otemachi, Toyama, 930-0084",
      "note": null,
      "is_favorite": false,
      "lat": 36.691168,
      "lng": 137.2111809,
      "maps_url": "https://maps.google.com/?cid=6915154653587267009",
      "cid": "6915154653587267009",
      "google_id": "/g/1tfzgm5g",
      "maps_place_token": null
    },
    {
      "name": "LA Yuuki",
      "address": "3 Chome-2-22 Sogawa, Toyama, 930-0083",
      "note": null,
      "is_favorite": false,
      "lat": 36.6899498,
      "lng": 137.2129851,
      "maps_url": "https://maps.google.com/?cid=6915154682653880863",
      "cid": "6915154682653880863",
      "google_id": "/g/1tg8jl63",
      "maps_place_token": null
    },
    {
      "name": "かめ英",
      "address": "1 Chome-1-17 Sogawa, Toyama, 930-0083",
      "note": null,
      "is_favorite": false,
      "lat": 36.6929333,
      "lng": 137.2132652,
      "maps_url": "https://maps.google.com/?cid=6915154671512278569",
      "cid": "6915154671512278569",
      "google_id": "/g/1td4zq13",
      "maps_place_token": null
    },
    {
      "name": "スパイスルートバル",
      "address": "3 Chome-2-16 Sogawa, Toyama, 930-0083",
      "note": null,
      "is_favorite": false,
      "lat": 36.6899766,
      "lng": 137.2137819,
      "maps_url": "https://maps.google.com/?cid=6915155342411069453",
      "cid": "6915155342411069453",
      "google_id": "/g/11fd41wtt9",
      "maps_place_token": null
    },
    {
      "name": "KAWAZ",
      "address": "4 Chome-5-13 Sogawa, Toyama, 930-0083",
      "note": null,
      "is_favorite": false,
      "lat": 36.6899284,
      "lng": 137.211063,
      "maps_url": "https://maps.google.com/?cid=6915155741331134381",
      "cid": "6915155741331134381",
      "google_id": "/g/11fgm5k8vk",
      "maps_place_token": null
    },
    {
      "name": "Sushi Masa",
      "address": "4-29 Ichibanmachi, Toyama, 930-0061",
      "note": null,
      "is_favorite": false,
      "lat": 36.6883817,
      "lng": 137.2114744,
      "maps_url": "https://maps.google.com/?cid=6915154502103974629",
      "cid": "6915154502103974629",
      "google_id": "/g/1tmg6dn0",
      "maps_place_token": null
    },
    {
      "name": "Sushi Jin",
      "address": "3 Chome-5-7 Shinnezukamachi, Toyama, 939-8205",
      "note": null,
      "is_favorite": false,
      "lat": 36.6771914,
      "lng": 137.20724669999998,
      "maps_url": "https://maps.google.com/?cid=6915154385492467913",
      "cid": "6915154385492467913",
      "google_id": "/g/1tfk8w7c",
      "maps_place_token": null
    },
    {
      "name": "wine bar alpes",
      "address": "〒930-0083 Toyama, Sogawa, 4 Chome−7−18 注)カフェメニューのご用意はありません １階",
      "note": null,
      "is_favorite": false,
      "lat": 36.6898258,
      "lng": 137.2106143,
      "maps_url": "https://maps.google.com/?cid=6915154503264939609",
      "cid": "6915154503264939609",
      "google_id": "/g/11c1v1swl5",
      "maps_place_token": null
    },
    {
      "name": "割烹 本田",
      "address": "5-1 Shiroganecho, Toyama, 930-0048",
      "note": null,
      "is_favorite": false,
      "lat": 36.6915422,
      "lng": 137.2186063,
      "maps_url": "https://maps.google.com/?cid=6915154685893797727",
      "cid": "6915154685893797727",
      "google_id": "/g/1tczkb0f",
      "maps_place_token": null
    },
    {
      "name": "海老亭別館",
      "address": "2 Chome-4-10 Yasunoyacho, Toyama, 930-0087",
      "note": null,
      "is_favorite": false,
      "lat": 36.6928731,
      "lng": 137.2037286,
      "maps_url": "https://maps.google.com/?cid=6915155852873283449",
      "cid": "6915155852873283449",
      "google_id": "/g/11thpbjbtn",
      "maps_place_token": null
    },
    {
      "name": "Katsutama",
      "address": "1 Chome-9-1 Futakuchimachi, Toyama, 939-8211",
      "note": null,
      "is_favorite": false,
      "lat": 36.6719086,
      "lng": 137.2019665,
      "maps_url": "https://maps.google.com/?cid=6915154320086657635",
      "cid": "6915154320086657635",
      "google_id": "/g/11bbx0xxw2",
      "maps_place_token": null
    }
  ]
}
