{
  "fetched_at": "2026-04-15T15:28:41.121226+00:00",
  "refresh_after": "2026-04-29T15:28:41.121226+00:00",
  "source_signature": "a03122343b8656b4f6452ef30c21b8502df36fed6f201b54b9aca9702d2fd588",
  "configured_source_type": "google_list_url",
  "configured_source_url": "https://maps.app.goo.gl/Bd441Xw8WoAhXSfH9",
  "configured_source_path": null,
  "source_url": "https://maps.app.goo.gl/Bd441Xw8WoAhXSfH9",
  "list_id": "Q9ZIot4c2dSmxlEEnqzcsHf47hAynQ",
  "title": "Xiaoliuqiu / Lambai Island, Taiwan 🇹🇼",
  "description": "Michael's list for Xiaoliuqiu / Lambai Island, Taiwan 🇹🇼 See https://beacons.ai/demflyers for more, or follow on Instagram / Threads / BlueSky @demflyers",
  "places": [
    {
      "name": "After Journey #玩玩之後 (1.2月出島玩玩，228連假見)｜小琉球餐酒館｜小琉球酒吧 \nBAR｜老屋改建｜小琉球美食｜小琉球行程｜小琉球旅遊｜小琉球宵夜",
      "address": "929, Pingtung County, Liuqiu Township, 和平路一巷21號",
      "note": null,
      "is_favorite": false,
      "lat": 22.3328833,
      "lng": 120.37165499999999,
      "maps_url": "https://maps.google.com/?cid=3779064861164980859",
      "cid": "3779064861164980859",
      "google_id": "/g/11t5zvszqb",
      "maps_place_token": null
    },
    {
      "name": "Sea Daze Liuqiu",
      "address": "929, Pingtung County, Liuqiu Township, 肚仔坪路13號",
      "note": null,
      "is_favorite": false,
      "lat": 22.3427003,
      "lng": 120.3636229,
      "maps_url": "https://maps.google.com/?cid=3779053538501530983",
      "cid": "3779053538501530983",
      "google_id": "/g/11st7gvr2p",
      "maps_place_token": null
    },
    {
      "name": "杉吉商行（休息日以IG.FB公告為主）",
      "address": "No. 182號, Shangshan Rd, Liuqiu Township, Pingtung County, 929",
      "note": null,
      "is_favorite": false,
      "lat": 22.345668699999997,
      "lng": 120.3658421,
      "maps_url": "https://maps.google.com/?cid=3779064764246889099",
      "cid": "3779064764246889099",
      "google_id": "/g/11hzvy3n6m",
      "maps_place_token": null
    },
    {
      "name": "粥太太養生蔬食廣東粥（不提供塑膠袋）",
      "address": "No. 74, Zhongshan Rd, Liuqiu Township, Pingtung County, 929",
      "note": null,
      "is_favorite": false,
      "lat": 22.3506568,
      "lng": 120.3803329,
      "maps_url": "https://maps.google.com/?cid=3779053878697513569",
      "cid": "3779053878697513569",
      "google_id": "/g/11c67vxswh",
      "maps_place_token": null
    },
    {
      "name": "小島漢堡 | Island Burger",
      "address": "No. 92之2, Benyu Rd, Liuqiu Township, Pingtung County, 929",
      "note": null,
      "is_favorite": false,
      "lat": 22.3497158,
      "lng": 120.38334329999999,
      "maps_url": "https://maps.google.com/?cid=3779053383073977535",
      "cid": "3779053383073977535",
      "google_id": "/g/11pgslc8vs",
      "maps_place_token": null
    },
    {
      "name": "蔡媽媽老街美食",
      "address": "929, Pingtung County, Liuqiu Township, 中山路1巷58-1號",
      "note": null,
      "is_favorite": false,
      "lat": 22.3509751,
      "lng": 120.38054059999999,
      "maps_url": "https://maps.google.com/?cid=3779053777133179017",
      "cid": "3779053777133179017",
      "google_id": "/g/11yr75nx6",
      "maps_place_token": null
    },
    {
      "name": "楊記川麵",
      "address": "No. 92之2號, Xiangbu Rd, Liuqiu Township, Pingtung County, 929",
      "note": null,
      "is_favorite": false,
      "lat": 22.347137999999998,
      "lng": 120.37139769999999,
      "maps_url": "https://maps.google.com/?cid=3779053788632969343",
      "cid": "3779053788632969343",
      "google_id": "/g/11pc0q7_xr",
      "maps_place_token": null
    },
    {
      "name": "小琉球巷子底Simple Eats",
      "address": "No. 8號, Lane 31, Shangshan Rd, Liuqiu Township, Pingtung County, 929",
      "note": null,
      "is_favorite": false,
      "lat": 22.3420442,
      "lng": 120.36842159999999,
      "maps_url": "https://maps.google.com/?cid=3779064787934023073",
      "cid": "3779064787934023073",
      "google_id": "/g/11hhs3thf1",
      "maps_place_token": null
    },
    {
      "name": "亀亀焼烤",
      "address": "929, Pingtung County, Liuqiu Township, Fuxing Rd, 全德國小校門口對面",
      "note": null,
      "is_favorite": false,
      "lat": 22.3463875,
      "lng": 120.3700662,
      "maps_url": "https://maps.google.com/?cid=3779053885119976553",
      "cid": "3779053885119976553",
      "google_id": "/g/11mv4zdfdb",
      "maps_place_token": null
    },
    {
      "name": "好香香碳烤",
      "address": "No. 101號, Fuxing Rd, Liuqiu Township, Pingtung County, 929",
      "note": null,
      "is_favorite": false,
      "lat": 22.347641199999998,
      "lng": 120.36900589999999,
      "maps_url": "https://maps.google.com/?cid=3779053767025057525",
      "cid": "3779053767025057525",
      "google_id": "/g/11dzt36rmt",
      "maps_place_token": null
    },
    {
      "name": "極香碳烤",
      "address": "No. 63號, Benyu Rd, Liuqiu Township, Pingtung County, 929",
      "note": null,
      "is_favorite": false,
      "lat": 22.3423381,
      "lng": 120.3848058,
      "maps_url": "https://maps.google.com/?cid=3779053895233963989",
      "cid": "3779053895233963989",
      "google_id": "/g/11csq5p378",
      "maps_place_token": null
    },
    {
      "name": "Black out日式串焼居酒屋小琉球",
      "address": "929, Pingtung County, Liuqiu Township, 肚仔坪路60-1號",
      "note": null,
      "is_favorite": false,
      "lat": 22.348749299999998,
      "lng": 120.3662451,
      "maps_url": "https://maps.google.com/?cid=3779053574866658715",
      "cid": "3779053574866658715",
      "google_id": "/g/11nnrqq00k",
      "maps_place_token": null
    },
    {
      "name": "梨小篭",
      "address": "No. 5之20號, Zhongshan Rd, Liuqiu Township, Pingtung County, 929",
      "note": null,
      "is_favorite": false,
      "lat": 22.3422667,
      "lng": 120.3726533,
      "maps_url": "https://maps.google.com/?cid=3779065323926574913",
      "cid": "3779065323926574913",
      "google_id": "/g/11pvg8m37b",
      "maps_place_token": null
    },
    {
      "name": "e-moving",
      "address": "No. 303之1號, Zhongzheng Rd, Liuqiu Township, Pingtung County, 929",
      "note": null,
      "is_favorite": false,
      "lat": 22.338691,
      "lng": 120.36989,
      "maps_url": "https://maps.google.com/?cid=3779064948948152483",
      "cid": "3779064948948152483",
      "google_id": "/g/11gj45m9hh",
      "maps_place_token": null
    },
    {
      "name": "小琉球喔吼Bar",
      "address": "No. 75號, Minzu Rd, Liuqiu Township, Pingtung County, 929",
      "note": null,
      "is_favorite": false,
      "lat": 22.3512424,
      "lng": 120.3777624,
      "maps_url": "https://maps.google.com/?cid=3779053746335420557",
      "cid": "3779053746335420557",
      "google_id": "/g/11j94l9x_b",
      "maps_place_token": null
    },
    {
      "name": "留銶足体養身館",
      "address": "No. 318號, Sanmin Rd, Liuqiu Township, Pingtung County, 92943",
      "note": null,
      "is_favorite": false,
      "lat": 22.353018799999997,
      "lng": 120.3827362,
      "maps_url": "https://maps.google.com/?cid=3779053819977922715",
      "cid": "3779053819977922715",
      "google_id": "/g/11t1jz8bf7",
      "maps_place_token": null
    },
    {
      "name": "植蜜BAR(planta In Mi)",
      "address": "No. 65-1號, Minsheng Rd, Liuqiu Township, Pingtung County, 929",
      "note": null,
      "is_favorite": false,
      "lat": 22.353057099999997,
      "lng": 120.38210199999999,
      "maps_url": "https://maps.google.com/?cid=3779054311958557765",
      "cid": "3779054311958557765",
      "google_id": "/g/11rqx2hnr_",
      "maps_place_token": null
    },
    {
      "name": "小琉球Wave Bar 氷郎酒吧",
      "address": "No. 308號, Sanmin Rd, Liuqiu Township, Pingtung County, 929",
      "note": null,
      "is_favorite": false,
      "lat": 22.3526655,
      "lng": 120.3825658,
      "maps_url": "https://maps.google.com/?cid=3779053834338651329",
      "cid": "3779053834338651329",
      "google_id": "/g/11cmygv9c8",
      "maps_place_token": null
    },
    {
      "name": "小企鵝炸鶏",
      "address": "No. 64號, Minsheng Rd, Liuqiu Township, Pingtung County, 929",
      "note": null,
      "is_favorite": false,
      "lat": 22.353086599999997,
      "lng": 120.38153009999999,
      "maps_url": "https://maps.google.com/?cid=3779053876751963395",
      "cid": "3779053876751963395",
      "google_id": "/g/1tlk93vx",
      "maps_place_token": null
    },
    {
      "name": "宏泰牛肉面",
      "address": "No. 30-1號, Zhongshan Rd, Liuqiu Township, Pingtung County, 929",
      "note": null,
      "is_favorite": false,
      "lat": 22.3489208,
      "lng": 120.3791797,
      "maps_url": "https://maps.google.com/?cid=3779053942506469319",
      "cid": "3779053942506469319",
      "google_id": "/g/11j37x8kvl",
      "maps_place_token": null
    },
    {
      "name": "carpe diem咬不停",
      "address": "No. 215號, Zhongshan Rd, Liuqiu Township, Pingtung County, 929001",
      "note": null,
      "is_favorite": false,
      "lat": 22.3527251,
      "lng": 120.3822211,
      "maps_url": "https://maps.google.com/?cid=3779054067168842241",
      "cid": "3779054067168842241",
      "google_id": "/g/11r9p870mv",
      "maps_place_token": null
    },
    {
      "name": "好緣日式拉麵",
      "address": "Zhongshan Rd, Liuqiu Township, Pingtung County, 929",
      "note": null,
      "is_favorite": false,
      "lat": 22.3441349,
      "lng": 120.37475789999999,
      "maps_url": "https://maps.google.com/?cid=3779053777110881297",
      "cid": "3779053777110881297",
      "google_id": "/g/11b69fbbhv",
      "maps_place_token": null
    },
    {
      "name": "Ros羅室 （宵夜/点心/炸物/蛋餅/軽食/必吃美食）",
      "address": "No. 81之4號, Zhongshan Rd, Liuqiu Township, Pingtung County, 929",
      "note": null,
      "is_favorite": false,
      "lat": 22.3502796,
      "lng": 120.3796926,
      "maps_url": "https://maps.google.com/?cid=3779054139791769431",
      "cid": "3779054139791769431",
      "google_id": "/g/11p5lvtfk8",
      "maps_place_token": null
    },
    {
      "name": "小琉球美食｜蓋岡夫/功夫海鮮粥舗 Gai Kung Fu ｜小琉球海鮮｜小琉球餐庁",
      "address": "No. 59-2號, Zhongshan Rd, Liuqiu Township, Pingtung County, 929",
      "note": null,
      "is_favorite": false,
      "lat": 22.348856599999998,
      "lng": 120.378864,
      "maps_url": "https://maps.google.com/?cid=3779053879958376225",
      "cid": "3779053879958376225",
      "google_id": "/g/11smqkcmk2",
      "maps_place_token": null
    },
    {
      "name": "夏味鮮海鮮",
      "address": "No. 35號, Minsheng Rd, Liuqiu Township, Pingtung County, 929",
      "note": null,
      "is_favorite": false,
      "lat": 22.3504789,
      "lng": 120.3815461,
      "maps_url": "https://maps.google.com/?cid=3779053833687771277",
      "cid": "3779053833687771277",
      "google_id": "/g/11ddzqjpdv",
      "maps_place_token": null
    },
    {
      "name": "玖四鴨覇/小琉球美食/小琉球餐庁/小琉球熱炒/小琉球小吃/小琉球晩餐/小琉球午餐",
      "address": "No. 22-6號, Zhongshan Rd, Liuqiu Township, Pingtung County, 929",
      "note": null,
      "is_favorite": false,
      "lat": 22.3479468,
      "lng": 120.378339,
      "maps_url": "https://maps.google.com/?cid=3779053869483293459",
      "cid": "3779053869483293459",
      "google_id": "/g/11pzy8pdj2",
      "maps_place_token": null
    },
    {
      "name": "小琉球海洋甜心",
      "address": "No. 99號, Zhongshan Rd, Liuqiu Township, Pingtung County, 929",
      "note": null,
      "is_favorite": false,
      "lat": 22.350863399999998,
      "lng": 120.38032659999999,
      "maps_url": "https://maps.google.com/?cid=3779053805545628675",
      "cid": "3779053805545628675",
      "google_id": "/g/11f6nkzhsh",
      "maps_place_token": null
    },
    {
      "name": "非吃不可-創意滷味",
      "address": "No. 60號 58, Minsheng Rd, Liuqiu Township, Pingtung County, 929",
      "note": null,
      "is_favorite": false,
      "lat": 22.3530603,
      "lng": 120.38141279999999,
      "maps_url": "https://maps.google.com/?cid=3779053833785077207",
      "cid": "3779053833785077207",
      "google_id": "/g/11cnctfj1v",
      "maps_place_token": null
    },
    {
      "name": "旺来在地食堂",
      "address": "No. 191號, Sanmin Rd, Liuqiu Township, Pingtung County, 929",
      "note": null,
      "is_favorite": false,
      "lat": 22.3505926,
      "lng": 120.3848592,
      "maps_url": "https://maps.google.com/?cid=3779053869444268757",
      "cid": "3779053869444268757",
      "google_id": "/g/11ddwhvrvf",
      "maps_place_token": null
    },
    {
      "name": "柔意泰泰餐庁 Zoy Thai Thai",
      "address": "No. 17之6號, Minsheng Rd, Liuqiu Township, Pingtung County, 929",
      "note": null,
      "is_favorite": false,
      "lat": 22.3519176,
      "lng": 120.38018299999999,
      "maps_url": "https://maps.google.com/?cid=3779053527497947543",
      "cid": "3779053527497947543",
      "google_id": "/g/11s542x0xl",
      "maps_place_token": null
    },
    {
      "name": "品軒在地風味小館",
      "address": "929, Pingtung County, Liuqiu Township, 中山路一巷七號",
      "note": null,
      "is_favorite": false,
      "lat": 22.3517179,
      "lng": 120.3808303,
      "maps_url": "https://maps.google.com/?cid=3779053876796086371",
      "cid": "3779053876796086371",
      "google_id": "/g/11hbmvm71v",
      "maps_place_token": null
    },
    {
      "name": "小琉球珍珠小粉円",
      "address": "No. 100, Zhongshan Rd, Liuqiu Township, Pingtung County, 929",
      "note": null,
      "is_favorite": false,
      "lat": 22.3511258,
      "lng": 120.3809143,
      "maps_url": "https://maps.google.com/?cid=3779053777133178971",
      "cid": "3779053777133178971",
      "google_id": "/g/1tfv2wq3",
      "maps_place_token": null
    },
    {
      "name": "岩石美式餐庁",
      "address": "No. 26-1, Minsheng Rd, Liuqiu Township, Pingtung County, 929",
      "note": null,
      "is_favorite": false,
      "lat": 22.351872399999998,
      "lng": 120.38036749999999,
      "maps_url": "https://maps.google.com/?cid=3779053833691704447",
      "cid": "3779053833691704447",
      "google_id": "/g/11b6skdckg",
      "maps_place_token": null
    },
    {
      "name": "Yezhuoxiao Station",
      "address": "No. 77之7, Xiangbu Rd, Liuqiu Township, Pingtung County, 929",
      "note": null,
      "is_favorite": false,
      "lat": 22.346727299999998,
      "lng": 120.37181389999999,
      "maps_url": "https://maps.google.com/?cid=3779053873804489265",
      "cid": "3779053873804489265",
      "google_id": "/g/11f3p7hmhj",
      "maps_place_token": null
    },
    {
      "name": "風光麻花捲",
      "address": "No. 60號, Minsheng Rd, Liuqiu Township, Pingtung County, 929",
      "note": null,
      "is_favorite": false,
      "lat": 22.3530609,
      "lng": 120.38141519999999,
      "maps_url": "https://maps.google.com/?cid=3779053834143640197",
      "cid": "3779053834143640197",
      "google_id": "/g/11c1n1gqnx",
      "maps_place_token": null
    },
    {
      "name": "余霜 Ice Cream For Life",
      "address": "929, Pingtung County, Liuqiu Township, 觀光港路22-3號",
      "note": null,
      "is_favorite": false,
      "lat": 22.3500795,
      "lng": 120.3841922,
      "maps_url": "https://maps.google.com/?cid=3779054258079263901",
      "cid": "3779054258079263901",
      "google_id": "/g/11qr4zcgfx",
      "maps_place_token": null
    },
    {
      "name": "春子面食飯館",
      "address": "No. 124-1號, Sanmin Rd, Liuqiu Township, Pingtung County, 929",
      "note": null,
      "is_favorite": false,
      "lat": 22.3355273,
      "lng": 120.37123539999999,
      "maps_url": "https://maps.google.com/?cid=3779054225093763995",
      "cid": "3779054225093763995",
      "google_id": "/g/11h227ty0g",
      "maps_place_token": null
    },
    {
      "name": "居琉潜水背包客桟二館 Stay Liuqiu Diving Hostel 2",
      "address": "No. 283號, Sanmin Rd, Liuqiu Township, Pingtung County, 929",
      "note": null,
      "is_favorite": false,
      "lat": 22.3524873,
      "lng": 120.3826122,
      "maps_url": "https://maps.google.com/?cid=3779054438112601981",
      "cid": "3779054438112601981",
      "google_id": "/g/11glxt73m3",
      "maps_place_token": null
    },
    {
      "name": "Beauty Beach",
      "address": "No. 3, Meiren Rd, Liuqiu Township, Pingtung County, 929",
      "note": null,
      "is_favorite": false,
      "lat": 22.3526493,
      "lng": 120.37126239999999,
      "maps_url": "https://maps.google.com/?cid=3779053790301539841",
      "cid": "3779053790301539841",
      "google_id": "/g/11fy_pk6sj",
      "maps_place_token": null
    },
    {
      "name": "Vase Rock",
      "address": "Liuqiu Township, Pingtung County, 929",
      "note": null,
      "is_favorite": false,
      "lat": 22.3556469,
      "lng": 120.3807532,
      "maps_url": "https://maps.google.com/?cid=3779053832479391703",
      "cid": "3779053832479391703",
      "google_id": "/g/1tht9wwv",
      "maps_place_token": null
    },
    {
      "name": "蛤板湾",
      "address": "929 屏東 琉球郷",
      "note": null,
      "is_favorite": false,
      "lat": 22.335780999999997,
      "lng": 120.361701,
      "maps_url": "https://maps.google.com/?cid=3779065385265408687",
      "cid": "3779065385265408687",
      "google_id": "/g/11dfj1dwp9",
      "maps_place_token": null
    },
    {
      "name": "Beauty Cave",
      "address": "Huandao Rd, Liuqiu Township, Pingtung County, 929",
      "note": null,
      "is_favorite": false,
      "lat": 22.3535565,
      "lng": 120.3732105,
      "maps_url": "https://maps.google.com/?cid=3779053788084549585",
      "cid": "3779053788084549585",
      "google_id": "/g/11g724y45g",
      "maps_place_token": null
    },
    {
      "name": "杉福漁港",
      "address": null,
      "note": null,
      "is_favorite": false,
      "lat": 22.340621799999997,
      "lng": 120.3625096,
      "maps_url": "https://maps.google.com/?cid=3779065395565786005",
      "cid": "3779065395565786005",
      "google_id": "/g/1q5bmr1ss",
      "maps_place_token": null
    },
    {
      "name": "小琉球潜水潜雪背包客桟SnowDiving",
      "address": "No. 224之1, Sanmin Rd, Liuqiu Township, Pingtung County, 929",
      "note": null,
      "is_favorite": false,
      "lat": 22.349653999999997,
      "lng": 120.3736941,
      "maps_url": "https://maps.google.com/?cid=3779054344702855533",
      "cid": "3779054344702855533",
      "google_id": "/g/11jff6hzf8",
      "maps_place_token": null
    },
    {
      "name": "就在海邊Marbordo",
      "address": "No. 276, Sanmin Rd, Liuqiu Township, Pingtung County, 929",
      "note": null,
      "is_favorite": false,
      "lat": 22.3525876,
      "lng": 120.38323799999999,
      "maps_url": "https://maps.google.com/?cid=3779053834339571615",
      "cid": "3779053834339571615",
      "google_id": "/g/11r6d_wm_j",
      "maps_place_token": null
    },
    {
      "name": "Zhongao Beach",
      "address": "No. 124號, Sanmin Rd, Liuqiu Township, Pingtung County, 929",
      "note": null,
      "is_favorite": false,
      "lat": 22.3511193,
      "lng": 120.3869769,
      "maps_url": "https://maps.google.com/?cid=3779054077035908469",
      "cid": "3779054077035908469",
      "google_id": "/g/11s4kgd9kn",
      "maps_place_token": null
    },
    {
      "name": "大好吃葱肉餅/小琉球美食/小琉球必吃/restaurants/附近美食/小琉球小吃/小琉球推薦餐庁",
      "address": "No. 11之2號, Minsheng Rd, Liuqiu Township, Pingtung County, 929",
      "note": null,
      "is_favorite": false,
      "lat": 22.3503354,
      "lng": 120.38270569999999,
      "maps_url": "https://maps.google.com/?cid=3779053435088574951",
      "cid": "3779053435088574951",
      "google_id": "/g/11p711kthq",
      "maps_place_token": null
    },
    {
      "name": "小琉球~頑皮豹鍋焼面",
      "address": "929, Pingtung County, Liuqiu Township, Minsheng Rd, 19號929",
      "note": null,
      "is_favorite": false,
      "lat": 22.3521252,
      "lng": 120.38035819999999,
      "maps_url": "https://maps.google.com/?cid=3779054302952910681",
      "cid": "3779054302952910681",
      "google_id": "/g/11j4n9prl9",
      "maps_place_token": null
    },
    {
      "name": "A&Z KITCHEN",
      "address": "No. 146號, Zhongshan Rd, Liuqiu Township, Pingtung County, 929",
      "note": null,
      "is_favorite": false,
      "lat": 22.351651,
      "lng": 120.3815545,
      "maps_url": "https://maps.google.com/?cid=3779053822244660953",
      "cid": "3779053822244660953",
      "google_id": "/g/11mhnwb49r",
      "maps_place_token": null
    },
    {
      "name": "小琉球98Bar",
      "address": "929, Pingtung County, Liuqiu Township, Sanmin Rd, 1-100號2樓",
      "note": null,
      "is_favorite": false,
      "lat": 22.3421421,
      "lng": 120.3845825,
      "maps_url": "https://maps.google.com/?cid=3779053496166923725",
      "cid": "3779053496166923725",
      "google_id": "/g/11rcwj1f_t",
      "maps_place_token": null
    },
    {
      "name": "烏鬼洞風景区第一售票亭",
      "address": "929, Pingtung County, Liuqiu Township, 天台段707之2號",
      "note": null,
      "is_favorite": false,
      "lat": 22.3301564,
      "lng": 120.35580039999999,
      "maps_url": "https://maps.google.com/?cid=3777991704105447713",
      "cid": "3777991704105447713",
      "google_id": "/g/11b67r7xzb",
      "maps_place_token": null
    },
    {
      "name": "山豬溝",
      "address": "No. 60, Huandao Rd, Liuqiu Township, Pingtung County, 929",
      "note": null,
      "is_favorite": false,
      "lat": 22.3387518,
      "lng": 120.3629189,
      "maps_url": "https://maps.google.com/?cid=3779064957668536415",
      "cid": "3779064957668536415",
      "google_id": "/g/1tf006mp",
      "maps_place_token": null
    },
    {
      "name": "Secret Beach",
      "address": "929, Pingtung County, Liuqiu Township",
      "note": null,
      "is_favorite": false,
      "lat": 22.3256803,
      "lng": 120.3660398,
      "maps_url": "https://maps.google.com/?cid=3779065354705633787",
      "cid": "3779065354705633787",
      "google_id": "/g/1tg9kwjl",
      "maps_place_token": null
    }
  ]
}
